[{"country":"FR","id":6453813,"coord":{"lat":48.599998,"lon":-3.45},"name":"Le Vieux-March\u00e9"},{"country":"FR","id":2969197,"coord":{"lat":48.599998,"lon":-3.45},"name":"Le Vieux-Marche"},{"country":"FR","id":6454425,"coord":{"lat":50.450001,"lon":3.56667},"name":"Vieux-Cond\u00e9"},{"country":"FR","id":2969213,"coord":{"lat":50.459438,"lon":3.56738},"name":"Vieux-Conde"},{"country":"FR","id":6430047,"coord":{"lat":47.51667,"lon":6.83333},"name":"Vieux-Charmont"},{"country":"FR","id":2969219,"coord":{"lat":47.5219,"lon":6.83738},"name":"Vieux-Charmont"},{"country":"FR","id":6438541,"coord":{"lat":50.700001,"lon":2.63333},"name":"Vieux-Berquin"},{"country":"FR","id":2969234,"coord":{"lat":50.694889,"lon":2.64444},"name":"Vieux-Berquin"},{"country":"FR","id":6438540,"coord":{"lat":50.150002,"lon":3.46667},"name":"Viesly"},{"country":"FR","id":2969250,"coord":{"lat":50.15345,"lon":3.46236},"name":"Viesly"},{"country":"FR","id":6434754,"coord":{"lat":47.799999,"lon":2.13333},"name":"Vienne-en-Val"},{"country":"FR","id":2969276,"coord":{"lat":47.800362,"lon":2.1346},"name":"Vienne-en-Val"},{"country":"FR","id":6444261,"coord":{"lat":46.683331,"lon":-0.25},"name":"Viennay"},{"country":"FR","id":2969285,"coord":{"lat":46.687111,"lon":-0.24641},"name":"Viennay"},{"country":"FR","id":6617806,"coord":{"lat":43.6203,"lon":2.0897},"name":"Vielmur-sur-Agout"},{"country":"FR","id":2969291,"coord":{"lat":43.616669,"lon":2.1},"name":"Vielmur-sur-Agout"},{"country":"FR","id":6434559,"coord":{"lat":46.966671,"lon":-1.43333},"name":"Vieillevigne"},{"country":"FR","id":2969316,"coord":{"lat":46.972141,"lon":-1.43405},"name":"Vieillevigne"},{"country":"FR","id":6431874,"coord":{"lat":43.51667,"lon":1.45},"name":"Vieille-Toulouse"},{"country":"FR","id":2969320,"coord":{"lat":43.523659,"lon":1.4423},"name":"Vieille-Toulouse"},{"country":"FR","id":6439943,"coord":{"lat":50.933331,"lon":2.08333},"name":"Vieille-\u00c9glise"},{"country":"FR","id":2969329,"coord":{"lat":50.92823,"lon":2.07671},"name":"Vieille-Eglise"},{"country":"FR","id":6434471,"coord":{"lat":45.26667,"lon":3.41667},"name":"Vieille-Brioude"},{"country":"FR","id":2969333,"coord":{"lat":45.266479,"lon":3.40272},"name":"Vieille-Brioude"},{"country":"FR","id":6445083,"coord":{"lat":43.4268,"lon":6.4322},"name":"Vidauban"},{"country":"FR","id":2969353,"coord":{"lat":43.427799,"lon":6.4329},"name":"Vidauban"},{"country":"FR","id":6437923,"coord":{"lat":48.783329,"lon":6.53333},"name":"Vic-sur-Seille"},{"country":"FR","id":2969364,"coord":{"lat":48.78204,"lon":6.53081},"name":"Vic-sur-Seille"},{"country":"FR","id":6425308,"coord":{"lat":49.400002,"lon":3.11667},"name":"Vic-sur-Aisne"},{"country":"FR","id":2969366,"coord":{"lat":49.40609,"lon":3.11222},"name":"Vic-sur-Aisne"},{"country":"FR","id":6445481,"coord":{"lat":45.650002,"lon":1.38333},"name":"Vicq-sur-Breuilh"},{"country":"FR","id":2969373,"coord":{"lat":45.64661,"lon":1.38179},"name":"Vicq-sur-Breuilh"},{"country":"FR","id":6438539,"coord":{"lat":50.416672,"lon":3.6},"name":"Vicq"},{"country":"FR","id":2969376,"coord":{"lat":50.407379,"lon":3.60348},"name":"Vicq"},{"country":"FR","id":6432685,"coord":{"lat":43.48333,"lon":3.8},"name":"Vic-la-Gardiole"},{"country":"FR","id":2969389,"coord":{"lat":43.490799,"lon":3.7975},"name":"Vic-la-Gardiole"},{"country":"FR","id":6432168,"coord":{"lat":43.76667,"lon":0.3},"name":"Vic-Fezensac"},{"country":"FR","id":2969400,"coord":{"lat":43.771832,"lon":0.31368},"name":"Vic-Fezensac"},{"country":"FR","id":6442771,"coord":{"lat":48.049999,"lon":0.73333},"name":"Vibraye"},{"country":"FR","id":2969411,"coord":{"lat":48.056068,"lon":0.74171},"name":"Vibraye"},{"country":"FR","id":6432684,"coord":{"lat":43.3125,"lon":3.419},"name":"Vias"},{"country":"FR","id":2969421,"coord":{"lat":43.311562,"lon":3.41774},"name":"Vias"},{"country":"FR","id":6446352,"coord":{"lat":49.133331,"lon":2.36667},"name":"Viarmes"},{"country":"FR","id":2969423,"coord":{"lat":49.130821,"lon":2.37074},"name":"Viarmes"},{"country":"FR","id":6435350,"coord":{"lat":47.116669,"lon":-0.71667},"name":"Vezins"},{"country":"FR","id":2969463,"coord":{"lat":47.120152,"lon":-0.70971},"name":"Vezins"},{"country":"FR","id":6432890,"coord":{"lat":48.116669,"lon":-1.75},"name":"Vezin-le-Coquet"},{"country":"FR","id":2969465,"coord":{"lat":48.118568,"lon":-1.75466},"name":"Vezin-le-Coquet"},{"country":"FR","id":6431481,"coord":{"lat":44.049999,"lon":4.15},"name":"V\u00e9z\u00e9nobres"},{"country":"FR","id":2969474,"coord":{"lat":44.0513,"lon":4.13775},"name":"Vezenobres"},{"country":"FR","id":6436908,"coord":{"lat":48.48333,"lon":6.08333},"name":"V\u00e9zelise"},{"country":"FR","id":2969477,"coord":{"lat":48.48682,"lon":6.08894},"name":"Vezelise"},{"country":"FR","id":6443075,"coord":{"lat":45.883331,"lon":6.16667},"name":"Veyrier-du-Lac"},{"country":"FR","id":2969502,"coord":{"lat":45.879902,"lon":6.17751},"name":"Veyrier-du-Lac"},{"country":"FR","id":6425881,"coord":{"lat":44.73333,"lon":4.56667},"name":"Veyras"},{"country":"FR","id":2969512,"coord":{"lat":44.73518,"lon":4.56254},"name":"Veyras"},{"country":"FR","id":6445480,"coord":{"lat":45.900002,"lon":1.11667},"name":"Veyrac"},{"country":"FR","id":2969514,"coord":{"lat":45.89521,"lon":1.105},"name":"Veyrac"},{"country":"FR","id":6425658,"coord":{"lat":44.533329,"lon":5.81667},"name":"Veynes"},{"country":"FR","id":2969516,"coord":{"lat":44.533329,"lon":5.81667},"name":"Veynes"},{"country":"FR","id":6433452,"coord":{"lat":45.26667,"lon":5.61667},"name":"Veurey-Voroize"},{"country":"FR","id":2969532,"coord":{"lat":45.273071,"lon":5.61319},"name":"Veurey-Voroize"},{"country":"FR","id":6443074,"coord":{"lat":46.17424,"lon":6.25912},"name":"V\u00e9traz-Monthoux"},{"country":"FR","id":2969543,"coord":{"lat":46.174301,"lon":6.25852},"name":"Vetraz-Monthoux"},{"country":"FR","id":6431480,"coord":{"lat":43.73333,"lon":4.25},"name":"Vestric-et-Candiac"},{"country":"FR","id":2969556,"coord":{"lat":43.74062,"lon":4.25914},"name":"Vestric-et-Candiac"},{"country":"FR","id":6431276,"coord":{"lat":42.4944,"lon":9.44},"name":"Vescovato"},{"country":"FR","id":2969578,"coord":{"lat":42.492779,"lon":9.43916},"name":"Vescovato"},{"country":"FR","id":6436079,"coord":{"lat":49.150002,"lon":4.16667},"name":"Verzy"},{"country":"FR","id":2969587,"coord":{"lat":49.14576,"lon":4.16408},"name":"Verzy"},{"country":"FR","id":6436078,"coord":{"lat":49.166672,"lon":4.15},"name":"Verzenay"},{"country":"FR","id":2969590,"coord":{"lat":49.15918,"lon":4.14543},"name":"Verzenay"},{"country":"FR","id":6454259,"coord":{"lat":48.900002,"lon":4},"name":"Vertus"},{"country":"FR","id":2969607,"coord":{"lat":48.90609,"lon":4.00216},"name":"Vertus"},{"country":"FR","id":6443896,"coord":{"lat":48.566669,"lon":2.61667},"name":"Vert-Saint-Denis"},{"country":"FR","id":2969608,"coord":{"lat":48.56818,"lon":2.62008},"name":"Vert-Saint-Denis"},{"country":"FR","id":6439940,"coord":{"lat":50.400002,"lon":1.65},"name":"Verton"},{"country":"FR","id":2969613,"coord":{"lat":50.40234,"lon":1.64766},"name":"Verton"},{"country":"FR","id":6446220,"coord":{"lat":48.549999,"lon":2.36667},"name":"Vert-le-Petit"},{"country":"FR","id":2969616,"coord":{"lat":48.551628,"lon":2.36526},"name":"Vert-le-Petit"},{"country":"FR","id":6446219,"coord":{"lat":48.566669,"lon":2.36667},"name":"Vert-le-Grand"},{"country":"FR","id":2969617,"coord":{"lat":48.57172,"lon":2.35776},"name":"Vert-le-Grand"},{"country":"FR","id":6430922,"coord":{"lat":48.76667,"lon":1.3},"name":"Vert-en-Drouais"},{"country":"FR","id":2969628,"coord":{"lat":48.760281,"lon":1.2946},"name":"Vert-en-Drouais"},{"country":"FR","id":6440271,"coord":{"lat":45.76667,"lon":3.3},"name":"Vertaizon"},{"country":"FR","id":2969646,"coord":{"lat":45.771358,"lon":3.28884},"name":"Vertaizon"},{"country":"FR","id":6439023,"coord":{"lat":49.099998,"lon":2.68333},"name":"Ver-sur-Launette"},{"country":"FR","id":2969658,"coord":{"lat":49.10495,"lon":2.68409},"name":"Ver-sur-Launette"},{"country":"FR","id":6617620,"coord":{"lat":45.928799,"lon":5.9273},"name":"Versonnex"},{"country":"FR","id":2969664,"coord":{"lat":45.927528,"lon":5.92585},"name":"Versonnex"},{"country":"FR","id":6427551,"coord":{"lat":49.150002,"lon":-0.45},"name":"Verson"},{"country":"FR","id":2969665,"coord":{"lat":49.15432,"lon":-0.45628},"name":"Verson"},{"country":"FR","id":6615838,"coord":{"lat":48.2328,"lon":4.1489},"name":"Verri\u00e8res"},{"country":"FR","id":2969700,"coord":{"lat":48.233341,"lon":4.14893},"name":"Verrieres"},{"country":"FR","id":6439939,"coord":{"lat":50.5,"lon":2.63333},"name":"Verquin"},{"country":"FR","id":2969722,"coord":{"lat":50.502399,"lon":2.63888},"name":"Verquin"},{"country":"FR","id":6446066,"coord":{"lat":48.133331,"lon":3.3},"name":"V\u00e9ron"},{"country":"FR","id":2969734,"coord":{"lat":48.128529,"lon":3.30773},"name":"Veron"},{"country":"FR","id":6437920,"coord":{"lat":49.01667,"lon":6.2},"name":"Verny"},{"country":"FR","id":2969736,"coord":{"lat":49.007278,"lon":6.20528},"name":"Verny"},{"country":"FR","id":6432889,"coord":{"lat":48.049999,"lon":-1.6},"name":"Vern-sur-Seiche"},{"country":"FR","id":2969741,"coord":{"lat":48.045139,"lon":-1.60057},"name":"Vern-sur-Seiche"},{"country":"FR","id":6425879,"coord":{"lat":44.900002,"lon":4.65},"name":"Vernoux-en-Vivarais"},{"country":"FR","id":2969746,"coord":{"lat":44.89563,"lon":4.64643},"name":"Vernoux-en-Vivarais"},{"country":"FR","id":6617689,"coord":{"lat":48.3876,"lon":2.8475},"name":"Vernou-la-Celle-sur-Seine"},{"country":"FR","id":2969749,"coord":{"lat":48.38789,"lon":2.84718},"name":"Vernou-la-Celle-sur-Seine"},{"country":"FR","id":6444095,"coord":{"lat":48.966671,"lon":1.98333},"name":"Vernouillet"},{"country":"FR","id":2969751,"coord":{"lat":48.971458,"lon":1.98082},"name":"Vernouillet"},{"country":"FR","id":6430921,"coord":{"lat":48.716671,"lon":1.36667},"name":"Vernouillet"},{"country":"FR","id":2969752,"coord":{"lat":48.720901,"lon":1.36951},"name":"Vernouillet"},{"country":"FR","id":6425878,"coord":{"lat":45.216671,"lon":4.71667},"name":"Vernosc-l\u00e8s-Annonay"},{"country":"FR","id":2969758,"coord":{"lat":45.216759,"lon":4.71252},"name":"Vernosc-les-Annonay"},{"country":"FR","id":6435349,"coord":{"lat":47.383331,"lon":0.08333},"name":"Vernoil-le-Fourrier"},{"country":"FR","id":2969776,"coord":{"lat":47.383331,"lon":0.08333},"name":"Vernoil-le-Fourrier"},{"country":"FR","id":6433450,"coord":{"lat":45.4221,"lon":4.9058},"name":"Vernioz"},{"country":"FR","id":2969780,"coord":{"lat":45.426819,"lon":4.88188},"name":"Vernioz"},{"country":"FR","id":6426351,"coord":{"lat":43.083328,"lon":1.63333},"name":"Verniolle"},{"country":"FR","id":2969781,"coord":{"lat":43.081619,"lon":1.64904},"name":"Verniolle"},{"country":"FR","id":6445479,"coord":{"lat":45.849998,"lon":1.13333},"name":"Verneuil-sur-Vienne"},{"country":"FR","id":2969794,"coord":{"lat":45.85524,"lon":1.10133},"name":"Verneuil-sur-Vienne"},{"country":"FR","id":6430680,"coord":{"lat":48.73333,"lon":0.93333},"name":"Verneuil-sur-Avre"},{"country":"FR","id":2969799,"coord":{"lat":48.739491,"lon":0.92731},"name":"Verneuil-sur-Avre"},{"country":"FR","id":6439025,"coord":{"lat":49.283329,"lon":2.51667},"name":"Verneuil-en-Halatte"},{"country":"FR","id":2969806,"coord":{"lat":49.27914,"lon":2.5241},"name":"Verneuil-en-Halatte"},{"country":"FR","id":6441057,"coord":{"lat":42.549999,"lon":2.38333},"name":"Vernet-les-Bains"},{"country":"FR","id":2969817,"coord":{"lat":42.54834,"lon":2.38717},"name":"Vernet-les-Bains"},{"country":"FR","id":2969832,"coord":{"lat":43.685749,"lon":5.17156},"name":"Vernegues"},{"country":"FR","id":2969850,"coord":{"lat":47.3932,"lon":0.05304},"name":"Vernantes"},{"country":"FR","id":6613868,"coord":{"lat":45.650002,"lon":4.81667},"name":"Vernaison"},{"country":"FR","id":2969854,"coord":{"lat":45.646931,"lon":4.81249},"name":"Vernaison"},{"country":"FR","id":6446065,"coord":{"lat":47.666672,"lon":3.73333},"name":"Vermenton"},{"country":"FR","id":2969863,"coord":{"lat":47.664589,"lon":3.73501},"name":"Vermenton"},{"country":"FR","id":6618307,"coord":{"lat":50.488201,"lon":2.7467},"name":"Vermelles"},{"country":"FR","id":2969864,"coord":{"lat":50.489491,"lon":2.74739},"name":"Vermelles"},{"country":"FR","id":6425300,"coord":{"lat":49.877998,"lon":3.1508},"name":"Vermand"},{"country":"FR","id":2969868,"coord":{"lat":49.8755,"lon":3.14959},"name":"Vermand"},{"country":"FR","id":6438537,"coord":{"lat":50.683331,"lon":3},"name":"Verlinghem"},{"country":"FR","id":2969871,"coord":{"lat":50.682911,"lon":2.99907},"name":"Verlinghem"},{"country":"FR","id":6428168,"coord":{"lat":46.200001,"lon":-0.96667},"name":"V\u00e9rines"},{"country":"FR","id":2969885,"coord":{"lat":46.193722,"lon":-0.96683},"name":"Verines"},{"country":"FR","id":6453838,"coord":{"lat":45.027,"lon":0.719},"name":"Vergt"},{"country":"FR","id":2969899,"coord":{"lat":45.026951,"lon":0.7182},"name":"Vergt"},{"country":"FR","id":6446063,"coord":{"lat":47.966671,"lon":3.71667},"name":"Vergigny"},{"country":"FR","id":2969926,"coord":{"lat":47.970589,"lon":3.71861},"name":"Vergigny"},{"country":"FR","id":6431479,"coord":{"lat":43.743599,"lon":4.2209},"name":"Verg\u00e8ze"},{"country":"FR","id":2969930,"coord":{"lat":43.744041,"lon":4.22109},"name":"Vergeze"},{"country":"FR","id":6616493,"coord":{"lat":43.6572,"lon":1.6613},"name":"Verfeil"},{"country":"FR","id":2969944,"coord":{"lat":43.65781,"lon":1.6634},"name":"Verfeil"},{"country":"FR","id":6433148,"coord":{"lat":47.366669,"lon":0.8},"name":"V\u00e9retz"},{"country":"FR","id":2969947,"coord":{"lat":47.357059,"lon":0.80575},"name":"Veretz"},{"country":"FR","id":6442530,"coord":{"lat":46.900002,"lon":5.01667},"name":"Verdun-sur-le-Doubs"},{"country":"FR","id":2969959,"coord":{"lat":46.896919,"lon":5.02127},"name":"Verdun-sur-le-Doubs"},{"country":"FR","id":6445047,"coord":{"lat":43.853401,"lon":1.2365},"name":"Verdun-sur-Garonne"},{"country":"FR","id":2969960,"coord":{"lat":43.854462,"lon":1.23425},"name":"Verdun-sur-Garonne"},{"country":"FR","id":6430041,"coord":{"lat":47.183331,"lon":6.4},"name":"Vercel-Villedieu-le-Camp"},{"country":"FR","id":2970016,"coord":{"lat":47.183182,"lon":6.40082},"name":"Vercel-Villedieu-le-Camp"},{"country":"FR","id":6454462,"coord":{"lat":49.316669,"lon":2.73333},"name":"Verberie"},{"country":"FR","id":2970018,"coord":{"lat":49.31115,"lon":2.7321},"name":"Verberie"},{"country":"FR","id":6427097,"coord":{"lat":43.533329,"lon":5.3},"name":"Ventabren"},{"country":"FR","id":2970054,"coord":{"lat":43.538471,"lon":5.29541},"name":"Ventabren"},{"country":"FR","id":6446062,"coord":{"lat":47.799999,"lon":3.63333},"name":"Venoy"},{"country":"FR","id":2970061,"coord":{"lat":47.80518,"lon":3.63695},"name":"Venoy"},{"country":"FR","id":6434752,"coord":{"lat":47.950001,"lon":2.05},"name":"Vennecy"},{"country":"FR","id":2970068,"coord":{"lat":47.954651,"lon":2.0546},"name":"Vennecy"},{"country":"FR","id":6425296,"coord":{"lat":49.366669,"lon":3.38333},"name":"Venizel"},{"country":"FR","id":2970071,"coord":{"lat":49.365829,"lon":3.39321},"name":"Venizel"},{"country":"FR","id":6439022,"coord":{"lat":49.416672,"lon":2.8},"name":"Venette"},{"country":"FR","id":2970081,"coord":{"lat":49.417049,"lon":2.80317},"name":"Venette"},{"country":"FR","id":6431873,"coord":{"lat":43.433331,"lon":1.45},"name":"Venerque"},{"country":"FR","id":2970086,"coord":{"lat":43.43457,"lon":1.44588},"name":"Venerque"},{"country":"FR","id":6431477,"coord":{"lat":44.200001,"lon":4.66667},"name":"V\u00e9n\u00e9jan"},{"country":"FR","id":2970095,"coord":{"lat":44.197289,"lon":4.65422},"name":"Venejan"},{"country":"FR","id":6454040,"coord":{"lat":43.26667,"lon":3.21667},"name":"Vendres"},{"country":"FR","id":2970104,"coord":{"lat":43.269772,"lon":3.22341},"name":"Vendres"},{"country":"FR","id":6445252,"coord":{"lat":46.816669,"lon":-1.11667},"name":"Vendrennes"},{"country":"FR","id":2970105,"coord":{"lat":46.82523,"lon":-1.12357},"name":"Vendrennes"},{"country":"FR","id":6614590,"coord":{"lat":46.799999,"lon":1.35},"name":"Vend\u0153uvres"},{"country":"FR","id":2970112,"coord":{"lat":46.799999,"lon":1.35},"name":"Vendoeuvres"},{"country":"FR","id":6439935,"coord":{"lat":50.466671,"lon":2.86667},"name":"Vendin-le-Vieil"},{"country":"FR","id":2970113,"coord":{"lat":50.47385,"lon":2.86674},"name":"Vendin-le-Vieil"},{"country":"FR","id":6439934,"coord":{"lat":50.533329,"lon":2.61667},"name":"Vendin-l\u00e8s-B\u00e9thune"},{"country":"FR","id":2970114,"coord":{"lat":50.540119,"lon":2.60043},"name":"Vendin-les-Bethune"},{"country":"FR","id":6438535,"coord":{"lat":50.566669,"lon":3.06667},"name":"Vendeville"},{"country":"FR","id":2970118,"coord":{"lat":50.576931,"lon":3.0787},"name":"Vendeville"},{"country":"FR","id":6426603,"coord":{"lat":48.23333,"lon":4.46667},"name":"Vendeuvre-sur-Barse"},{"country":"FR","id":2970119,"coord":{"lat":48.237862,"lon":4.46905},"name":"Vendeuvre-sur-Barse"},{"country":"FR","id":6445383,"coord":{"lat":46.73333,"lon":0.31667},"name":"Vendeuvre-du-Poitou"},{"country":"FR","id":2970120,"coord":{"lat":46.73579,"lon":0.30996},"name":"Vendeuvre-du-Poitou"},{"country":"FR","id":6441394,"coord":{"lat":48.66914,"lon":7.71034},"name":"Vendenheim"},{"country":"FR","id":2970128,"coord":{"lat":48.669479,"lon":7.70983},"name":"Vendenheim"},{"country":"FR","id":6438534,"coord":{"lat":50.26667,"lon":3.51667},"name":"Vendegies-sur-\u00c9caillon"},{"country":"FR","id":2970137,"coord":{"lat":50.262241,"lon":3.51256},"name":"Vendegies-sur-Ecaillon"},{"country":"FR","id":6425506,"coord":{"lat":46.1637,"lon":3.3542},"name":"Vendat"},{"country":"FR","id":2970143,"coord":{"lat":46.160149,"lon":3.35451},"name":"Vendat"},{"country":"FR","id":6432680,"coord":{"lat":43.650002,"lon":3.96667},"name":"Vendargues"},{"country":"FR","id":2970144,"coord":{"lat":43.658329,"lon":3.97},"name":"Vendargues"},{"country":"FR","id":6445121,"coord":{"lat":43.995602,"lon":5.147},"name":"Venasque"},{"country":"FR","id":2970151,"coord":{"lat":43.992142,"lon":5.14895},"name":"Venasque"},{"country":"FR","id":6428942,"coord":{"lat":47.533329,"lon":4.43333},"name":"Venarey-les-Laumes"},{"country":"FR","id":2970154,"coord":{"lat":47.542019,"lon":4.46022},"name":"Venarey-les-Laumes"},{"country":"FR","id":6445251,"coord":{"lat":46.683331,"lon":-1.51667},"name":"Venansault"},{"country":"FR","id":2970157,"coord":{"lat":46.685162,"lon":-1.51415},"name":"Venansault"},{"country":"FR","id":6446350,"coord":{"lat":49.066669,"lon":2.56667},"name":"V\u00e9mars"},{"country":"FR","id":2970163,"coord":{"lat":49.06942,"lon":2.56643},"name":"Vemars"},{"country":"FR","id":6445120,"coord":{"lat":43.950001,"lon":5.03333},"name":"Velleron"},{"country":"FR","id":2970187,"coord":{"lat":43.957588,"lon":5.02879},"name":"Velleron"},{"country":"FR","id":6612375,"coord":{"lat":44.849998,"lon":0.11667},"name":"V\u00e9lines"},{"country":"FR","id":2970205,"coord":{"lat":44.849998,"lon":0.11667},"name":"Velines"},{"country":"FR","id":6427095,"coord":{"lat":43.51667,"lon":5.26667},"name":"Velaux"},{"country":"FR","id":2970216,"coord":{"lat":43.528389,"lon":5.25661},"name":"Velaux"},{"country":"FR","id":6428940,"coord":{"lat":47.320202,"lon":4.9049},"name":"Velars-sur-Ouche"},{"country":"FR","id":2970217,"coord":{"lat":47.319599,"lon":4.90594},"name":"Velars-sur-Ouche"},{"country":"FR","id":6437247,"coord":{"lat":48.700001,"lon":5.3},"name":"Velaines"},{"country":"FR","id":2970224,"coord":{"lat":48.698799,"lon":5.30483},"name":"Velaines"},{"country":"FR","id":6436902,"coord":{"lat":48.700001,"lon":6.01667},"name":"Velaine-en-Haye"},{"country":"FR","id":2970225,"coord":{"lat":48.703831,"lon":6.02122},"name":"Velaine-en-Haye"},{"country":"FR","id":6615253,"coord":{"lat":46.26667,"lon":6.25},"name":"Veigy-Foncenex"},{"country":"FR","id":2970236,"coord":{"lat":46.270439,"lon":6.25419},"name":"Veigy-Foncenex"},{"country":"FR","id":6445119,"coord":{"lat":43.98333,"lon":4.9},"name":"Ved\u00e8ne"},{"country":"FR","id":2970253,"coord":{"lat":43.97744,"lon":4.90428},"name":"Vedene"},{"country":"FR","id":6445785,"coord":{"lat":47.98333,"lon":6.63333},"name":"Vecoux"},{"country":"FR","id":2970256,"coord":{"lat":47.97797,"lon":6.63651},"name":"Vecoux"},{"country":"FR","id":6434339,"coord":{"lat":45.5625,"lon":4.2785},"name":"Veauche"},{"country":"FR","id":2970275,"coord":{"lat":45.562939,"lon":4.29031},"name":"Veauche"},{"country":"FR","id":6434943,"coord":{"lat":44.950001,"lon":1.7},"name":"Vayrac"},{"country":"FR","id":2970288,"coord":{"lat":44.953369,"lon":1.70358},"name":"Vayrac"},{"country":"FR","id":6434557,"coord":{"lat":47.549999,"lon":-1.7},"name":"Vay"},{"country":"FR","id":2970293,"coord":{"lat":47.554661,"lon":-1.70095},"name":"Vay"},{"country":"FR","id":6444092,"coord":{"lat":49.01667,"lon":1.96667},"name":"Vaux-sur-Seine"},{"country":"FR","id":2970313,"coord":{"lat":49.012711,"lon":1.96942},"name":"Vaux-sur-Seine"},{"country":"FR","id":6428165,"coord":{"lat":45.650002,"lon":-1.03333},"name":"Vaux-sur-Mer"},{"country":"FR","id":2970317,"coord":{"lat":45.646061,"lon":-1.05841},"name":"Vaux-sur-Mer"},{"country":"FR","id":6443890,"coord":{"lat":48.533329,"lon":2.66667},"name":"Vaux-le-P\u00e9nil"},{"country":"FR","id":2970338,"coord":{"lat":48.52803,"lon":2.69165},"name":"Vaux-le-Penil"},{"country":"FR","id":6424725,"coord":{"lat":45.927898,"lon":5.354},"name":"Vaux-en-Bugey"},{"country":"FR","id":2970351,"coord":{"lat":45.927109,"lon":5.35336},"name":"Vaux-en-Bugey"},{"country":"FR","id":6431476,"coord":{"lat":43.700001,"lon":4.28333},"name":"Vauvert"},{"country":"FR","id":2970407,"coord":{"lat":43.69529,"lon":4.27705},"name":"Vauvert"},{"country":"FR","id":6439020,"coord":{"lat":49.235249,"lon":2.98077},"name":"Vaumoise"},{"country":"FR","id":2970448,"coord":{"lat":49.235249,"lon":2.98077},"name":"Vaumoise"},{"country":"FR","id":6439932,"coord":{"lat":50.146198,"lon":2.9096},"name":"Vaulx-Vraucourt"},{"country":"FR","id":2970453,"coord":{"lat":50.149101,"lon":2.9083},"name":"Vaulx-Vraucourt"},{"country":"FR","id":6433445,"coord":{"lat":45.616669,"lon":5.18333},"name":"Vaulx-Milieu"},{"country":"FR","id":2970455,"coord":{"lat":45.612259,"lon":5.181},"name":"Vaulx-Milieu"},{"country":"FR","id":6433444,"coord":{"lat":45.116669,"lon":5.8},"name":"Vaulnaveys-le-Haut"},{"country":"FR","id":2970462,"coord":{"lat":45.116959,"lon":5.81257},"name":"Vaulnaveys-le-Haut"},{"country":"FR","id":6433443,"coord":{"lat":45.099998,"lon":5.81667},"name":"Vaulnaveys-le-Bas"},{"country":"FR","id":2970463,"coord":{"lat":45.100201,"lon":5.82532},"name":"Vaulnaveys-le-Bas"},{"country":"FR","id":6452006,"coord":{"lat":48.933331,"lon":2.56667},"name":"Vaujours"},{"country":"FR","id":2970469,"coord":{"lat":48.930222,"lon":2.5711},"name":"Vaujours"},{"country":"FR","id":6446217,"coord":{"lat":48.73333,"lon":2.2},"name":"Vauhallan"},{"country":"FR","id":2970472,"coord":{"lat":48.73354,"lon":2.20277},"name":"Vauhallan"},{"country":"FR","id":6446216,"coord":{"lat":48.599998,"lon":2.11667},"name":"Vaugrigneuse"},{"country":"FR","id":2970474,"coord":{"lat":48.602638,"lon":2.12218},"name":"Vaugrigneuse"},{"country":"FR","id":6441805,"coord":{"lat":45.73333,"lon":4.65},"name":"Vaugneray"},{"country":"FR","id":2970477,"coord":{"lat":45.737171,"lon":4.65873},"name":"Vaugneray"},{"country":"FR","id":6427545,"coord":{"lat":48.833328,"lon":-0.85},"name":"Vaudry"},{"country":"FR","id":2970495,"coord":{"lat":48.841301,"lon":-0.85309},"name":"Vaudry"},{"country":"FR","id":6435345,"coord":{"lat":47.137501,"lon":-0.2035},"name":"Vaudelnay"},{"country":"FR","id":2970534,"coord":{"lat":47.138119,"lon":-0.20677},"name":"Vaudelnay"},{"country":"FR","id":6613136,"coord":{"lat":48.833328,"lon":2.16667},"name":"Vaucresson"},{"country":"FR","id":2970540,"coord":{"lat":48.840778,"lon":2.15652},"name":"Vaucresson"},{"country":"FR","id":6453471,"coord":{"lat":48.599998,"lon":5.66667},"name":"Vaucouleurs"},{"country":"FR","id":2970546,"coord":{"lat":48.60313,"lon":5.66659},"name":"Vaucouleurs"},{"country":"FR","id":6435344,"coord":{"lat":47.333328,"lon":-0.48333},"name":"Vauchr\u00e9tien"},{"country":"FR","id":2970564,"coord":{"lat":47.33234,"lon":-0.47678},"name":"Vauchretien"},{"country":"FR","id":6428323,"coord":{"lat":47.166672,"lon":2.4},"name":"Vasselay"},{"country":"FR","id":2970627,"coord":{"lat":47.15686,"lon":2.38963},"name":"Vasselay"},{"country":"FR","id":6612820,"coord":{"lat":46.583328,"lon":-0.01667},"name":"Vasles"},{"country":"FR","id":2970634,"coord":{"lat":46.57618,"lon":-0.02638},"name":"Vasles"},{"country":"FR","id":3024780,"coord":{"lat":47.333328,"lon":3.66667},"name":"Arrondissement de Clamecy"},{"country":"FR","id":6454398,"coord":{"lat":47.366669,"lon":3.38333},"name":"Varzy"},{"country":"FR","id":2970637,"coord":{"lat":47.358101,"lon":3.38619},"name":"Varzy"},{"country":"FR","id":6427887,"coord":{"lat":45.76667,"lon":0.11667},"name":"Vars"},{"country":"FR","id":2970648,"coord":{"lat":45.762562,"lon":0.12478},"name":"Vars"},{"country":"FR","id":6443887,"coord":{"lat":49,"lon":2.93333},"name":"Varreddes"},{"country":"FR","id":2970650,"coord":{"lat":49.003052,"lon":2.92788},"name":"Varreddes"},{"country":"FR","id":6435343,"coord":{"lat":47.216671,"lon":-0.06667},"name":"Varrains"},{"country":"FR","id":2970651,"coord":{"lat":47.223049,"lon":-0.06033},"name":"Varrains"},{"country":"FR","id":6428936,"coord":{"lat":47.349998,"lon":5.11667},"name":"Varois-et-Chaignot"},{"country":"FR","id":2970653,"coord":{"lat":47.350578,"lon":5.12838},"name":"Varois-et-Chaignot"},{"country":"FR","id":6426346,"coord":{"lat":43.049999,"lon":1.63333},"name":"Varilhes"},{"country":"FR","id":2970669,"coord":{"lat":43.045139,"lon":1.62805},"name":"Varilhes"},{"country":"FR","id":6428492,"coord":{"lat":45.200001,"lon":1.45},"name":"Varetz"},{"country":"FR","id":2970673,"coord":{"lat":45.193901,"lon":1.45121},"name":"Varetz"},{"country":"FR","id":6443886,"coord":{"lat":48.366669,"lon":2.91667},"name":"Varennes-sur-Seine"},{"country":"FR","id":2970679,"coord":{"lat":48.373039,"lon":2.92571},"name":"Varennes-sur-Seine"},{"country":"FR","id":6435342,"coord":{"lat":47.23333,"lon":0.05},"name":"Varennes-sur-Loire"},{"country":"FR","id":2970681,"coord":{"lat":47.237671,"lon":0.0535},"name":"Varennes-sur-Loire"},{"country":"FR","id":6442524,"coord":{"lat":46.48333,"lon":5.25},"name":"Varennes-Saint-Sauveur"},{"country":"FR","id":2970687,"coord":{"lat":46.482262,"lon":5.24349},"name":"Varennes-Saint-Sauveur"},{"country":"FR","id":6442522,"coord":{"lat":46.716671,"lon":4.88333},"name":"Varennes-le-Grand"},{"country":"FR","id":2970692,"coord":{"lat":46.718681,"lon":4.86872},"name":"Varennes-le-Grand"},{"country":"FR","id":6446215,"coord":{"lat":48.683331,"lon":2.55},"name":"Varennes-Jarcy"},{"country":"FR","id":2970693,"coord":{"lat":48.679138,"lon":2.56152},"name":"Varennes-Jarcy"},{"country":"FR","id":6443567,"coord":{"lat":49.905899,"lon":0.9953},"name":"Varengeville-sur-Mer"},{"country":"FR","id":2970725,"coord":{"lat":49.904751,"lon":0.9948},"name":"Varengeville-sur-Mer"},{"country":"FR","id":6436896,"coord":{"lat":48.633331,"lon":6.31667},"name":"Varang\u00e9ville"},{"country":"FR","id":2970739,"coord":{"lat":48.636051,"lon":6.32112},"name":"Varangeville"},{"country":"FR","id":3037796,"coord":{"lat":47.416672,"lon":-1.25},"name":"Arrondissement d'Ancenis"},{"country":"FR","id":6434556,"coord":{"lat":47.383331,"lon":-1.03333},"name":"Varades"},{"country":"FR","id":2970747,"coord":{"lat":47.384579,"lon":-1.02842},"name":"Varades"},{"country":"FR","id":6432678,"coord":{"lat":43.416672,"lon":3.36667},"name":"Valros"},{"country":"FR","id":2970837,"coord":{"lat":43.419559,"lon":3.36506},"name":"Valros"},{"country":"FR","id":6615256,"coord":{"lat":44.383331,"lon":4.98333},"name":"Valr\u00e9as"},{"country":"FR","id":2970838,"coord":{"lat":44.383659,"lon":4.99084},"name":"Valreas"},{"country":"FR","id":6432677,"coord":{"lat":43.25,"lon":3.28333},"name":"Valras-Plage"},{"country":"FR","id":2970839,"coord":{"lat":43.248081,"lon":3.29032},"name":"Valras-Plage"},{"country":"FR","id":6435691,"coord":{"lat":49.51667,"lon":-1.46667},"name":"Valognes"},{"country":"FR","id":2970860,"coord":{"lat":49.508808,"lon":-1.47047},"name":"Valognes"},{"country":"FR","id":2970865,"coord":{"lat":49.083832,"lon":6.69942},"name":"Valmont"},{"country":"FR","id":6446347,"coord":{"lat":49.099998,"lon":2.2},"name":"Valmondois"},{"country":"FR","id":2970866,"coord":{"lat":49.097301,"lon":2.18996},"name":"Valmondois"},{"country":"FR","id":6454658,"coord":{"lat":45.166672,"lon":6.43333},"name":"Valloire"},{"country":"FR","id":2970899,"coord":{"lat":45.165649,"lon":6.42994},"name":"Valloire"},{"country":"FR","id":6443565,"coord":{"lat":49.616669,"lon":0.68333},"name":"Valliquerville"},{"country":"FR","id":2970901,"coord":{"lat":49.61385,"lon":0.68703},"name":"Valliquerville"},{"country":"FR","id":6443069,"coord":{"lat":45.900002,"lon":5.93333},"name":"Valli\u00e8res"},{"country":"FR","id":2970911,"coord":{"lat":45.902618,"lon":5.93811},"name":"Vallieres"},{"country":"FR","id":6434555,"coord":{"lat":47.166672,"lon":-1.26667},"name":"Vallet"},{"country":"FR","id":2970923,"coord":{"lat":47.16227,"lon":-1.26607},"name":"Vallet"},{"country":"FR","id":6454317,"coord":{"lat":49.212002,"lon":5.9363},"name":"Valleroy"},{"country":"FR","id":2970932,"coord":{"lat":49.209049,"lon":5.9383},"name":"Valleroy"},{"country":"FR","id":2969157,"coord":{"lat":44,"lon":3.66667},"name":"Arrondissement du Vigan"},{"country":"FR","id":6431474,"coord":{"lat":44.083328,"lon":3.63333},"name":"Valleraugue"},{"country":"FR","id":2970941,"coord":{"lat":44.081299,"lon":3.64154},"name":"Valleraugue"},{"country":"FR","id":6612786,"coord":{"lat":46.116669,"lon":5.96667},"name":"Valleiry"},{"country":"FR","id":2970948,"coord":{"lat":46.111172,"lon":5.97267},"name":"Valleiry"},{"country":"FR","id":6612456,"coord":{"lat":43.849998,"lon":4.63333},"name":"Vallabr\u00e8gues"},{"country":"FR","id":2970978,"coord":{"lat":43.853069,"lon":4.62662},"name":"Vallabregues"},{"country":"FR","id":2971006,"coord":{"lat":46.43758,"lon":5.85513},"name":"Valfin-les-Saint-Claude"},{"country":"FR","id":6441393,"coord":{"lat":48.416672,"lon":7.51667},"name":"Valff"},{"country":"FR","id":2971007,"coord":{"lat":48.420448,"lon":7.51954},"name":"Valff"},{"country":"FR","id":6432674,"coord":{"lat":43.666672,"lon":4.06667},"name":"Valergues"},{"country":"FR","id":2971025,"coord":{"lat":43.66824,"lon":4.06124},"name":"Valergues"},{"country":"FR","id":6452036,"coord":{"lat":48.75,"lon":2.46667},"name":"Valenton"},{"country":"FR","id":2971027,"coord":{"lat":48.74527,"lon":2.46467},"name":"Valenton"},{"country":"FR","id":6430023,"coord":{"lat":47.466671,"lon":6.83333},"name":"Valentigney"},{"country":"FR","id":2971030,"coord":{"lat":47.463879,"lon":6.83168},"name":"Valentigney"},{"country":"FR","id":6425598,"coord":{"lat":43.833328,"lon":5.98333},"name":"Valensole"},{"country":"FR","id":2971033,"coord":{"lat":43.83799,"lon":5.98323},"name":"Valensole"},{"country":"FR","id":6612512,"coord":{"lat":45.616669,"lon":5.01667},"name":"Valencin"},{"country":"FR","id":2971039,"coord":{"lat":45.61285,"lon":5.01565},"name":"Valencin"},{"country":"FR","id":6432165,"coord":{"lat":43.883331,"lon":0.38333},"name":"Valence-sur-Ba\u00efse"},{"country":"FR","id":2971043,"coord":{"lat":43.882702,"lon":0.38111},"name":"Valence-sur-Baise"},{"country":"FR","id":6454801,"coord":{"lat":44.099998,"lon":0.91667},"name":"Valence"},{"country":"FR","id":2971054,"coord":{"lat":44.108231,"lon":0.89101},"name":"Valence"},{"country":"FR","id":6433000,"coord":{"lat":47.1609,"lon":1.5668},"name":"Valen\u00e7ay"},{"country":"FR","id":2971056,"coord":{"lat":47.162071,"lon":1.56852},"name":"Valencay"},{"country":"FR","id":6613919,"coord":{"lat":47.666672,"lon":6.85},"name":"Valdoie"},{"country":"FR","id":2971072,"coord":{"lat":47.667992,"lon":6.84446},"name":"Valdoie"},{"country":"FR","id":6614415,"coord":{"lat":45.450001,"lon":6.98333},"name":"Val-d'Is\u00e8re"},{"country":"FR","id":2971074,"coord":{"lat":45.449718,"lon":6.9781},"name":"Val-dIsere"},{"country":"FR","id":6427072,"coord":{"lat":44.450001,"lon":2.43333},"name":"Valady"},{"country":"FR","id":2971137,"coord":{"lat":44.456329,"lon":2.42746},"name":"Valady"},{"country":"FR","id":6442131,"coord":{"lat":47.633331,"lon":6.1},"name":"Vaivre-et-Montoille"},{"country":"FR","id":2971147,"coord":{"lat":47.630211,"lon":6.10362},"name":"Vaivre-et-Montoille"},{"country":"FR","id":6445115,"coord":{"lat":44.238991,"lon":5.07504},"name":"Vaison-la-Romaine"},{"country":"FR","id":2971154,"coord":{"lat":44.23896,"lon":5.07461},"name":"Vaison-la-Romaine"},{"country":"FR","id":2971157,"coord":{"lat":48.876492,"lon":2.63982},"name":"Vaires-sur-Marne"},{"country":"FR","id":2971162,"coord":{"lat":46.60104,"lon":-1.75538},"name":"Vaire"},{"country":"FR","id":6425277,"coord":{"lat":49.416672,"lon":3.51667},"name":"Vailly-sur-Aisne"},{"country":"FR","id":2971169,"coord":{"lat":49.40834,"lon":3.51631},"name":"Vailly-sur-Aisne"},{"country":"FR","id":6432673,"coord":{"lat":43.666672,"lon":3.71667},"name":"Vailhauqu\u00e8s"},{"country":"FR","id":2971176,"coord":{"lat":43.671589,"lon":3.72042},"name":"Vailhauques"},{"country":"FR","id":6436513,"coord":{"lat":48.049999,"lon":-0.46667},"name":"Vaiges"},{"country":"FR","id":2971179,"coord":{"lat":48.040249,"lon":-0.47513},"name":"Vaiges"},{"country":"FR","id":6445778,"coord":{"lat":48.01667,"lon":6.71667},"name":"Vagney"},{"country":"FR","id":2971186,"coord":{"lat":48.00629,"lon":6.7174},"name":"Vagney"},{"country":"FR","id":6431865,"coord":{"lat":43.778702,"lon":1.4804},"name":"Vacquiers"},{"country":"FR","id":2971202,"coord":{"lat":43.776669,"lon":1.48127},"name":"Vacquiers"},{"country":"FR","id":6445114,"coord":{"lat":44.133331,"lon":4.98333},"name":"Vacqueyras"},{"country":"FR","id":2971205,"coord":{"lat":44.137348,"lon":4.98281},"name":"Vacqueyras"},{"country":"FR","id":6617114,"coord":{"lat":48.688202,"lon":5.6186},"name":"Void-Vacon"},{"country":"FR","id":2971211,"coord":{"lat":48.668652,"lon":5.60024},"name":"Vacon"},{"country":"FR","id":6442765,"coord":{"lat":47.666672,"lon":0.31667},"name":"Vaas"},{"country":"FR","id":2971251,"coord":{"lat":47.6689,"lon":0.31677},"name":"Vaas"},{"country":"FR","id":6431469,"coord":{"lat":44.01667,"lon":4.41667},"name":"Uz\u00e8s"},{"country":"FR","id":2971258,"coord":{"lat":44.013618,"lon":4.41529},"name":"Uzes"},{"country":"FR","id":2971259,"coord":{"lat":45.4212,"lon":1.56395},"name":"Uzerche"},{"country":"FR","id":2971262,"coord":{"lat":48.08572,"lon":6.34443},"name":"Uzemain"},{"country":"FR","id":6438531,"coord":{"lat":51.01667,"lon":2.48333},"name":"Uxem"},{"country":"FR","id":2971272,"coord":{"lat":51.021702,"lon":2.48376},"name":"Uxem"},{"country":"FR","id":6445776,"coord":{"lat":48.200001,"lon":6.36667},"name":"Uxegney"},{"country":"FR","id":2971274,"coord":{"lat":48.196522,"lon":6.36971},"name":"Uxegney"},{"country":"FR","id":6434337,"coord":{"lat":45.383331,"lon":3.93333},"name":"Usson-en-Forez"},{"country":"FR","id":2971290,"coord":{"lat":45.38797,"lon":3.93772},"name":"Usson-en-Forez"},{"country":"FR","id":6445379,"coord":{"lat":46.283329,"lon":0.53333},"name":"Usson-du-Poitou"},{"country":"FR","id":2971291,"coord":{"lat":46.277821,"lon":0.52816},"name":"Usson-du-Poitou"},{"country":"FR","id":2971297,"coord":{"lat":45.5,"lon":2.16667},"name":"Arrondissement d'Ussel"},{"country":"FR","id":6428489,"coord":{"lat":45.549999,"lon":2.31667},"name":"Ussel"},{"country":"FR","id":2971298,"coord":{"lat":45.549999,"lon":2.31667},"name":"Ussel"},{"country":"FR","id":6613925,"coord":{"lat":45.200001,"lon":1.51667},"name":"Ussac"},{"country":"FR","id":2971305,"coord":{"lat":45.19389,"lon":1.51337},"name":"Ussac"},{"country":"FR","id":6446345,"coord":{"lat":49.099998,"lon":1.96667},"name":"Us"},{"country":"FR","id":2971316,"coord":{"lat":49.099998,"lon":1.96667},"name":"Us"},{"country":"FR","id":6438116,"coord":{"lat":47.061901,"lon":3.2048},"name":"Urzy"},{"country":"FR","id":2971317,"coord":{"lat":47.048771,"lon":3.20294},"name":"Urzy"},{"country":"FR","id":6615145,"coord":{"lat":49.683331,"lon":-1.73333},"name":"Urville-Nacqueville"},{"country":"FR","id":2971321,"coord":{"lat":49.674438,"lon":-1.73664},"name":"Urville-Nacqueville"},{"country":"FR","id":6440647,"coord":{"lat":43.5,"lon":-1.28333},"name":"Urt"},{"country":"FR","id":2971333,"coord":{"lat":43.490089,"lon":-1.29744},"name":"Urt"},{"country":"FR","id":6441389,"coord":{"lat":48.52758,"lon":7.32668},"name":"Urmatt"},{"country":"FR","id":2971340,"coord":{"lat":48.527519,"lon":7.32565},"name":"Urmatt"},{"country":"FR","id":6445774,"coord":{"lat":48.099998,"lon":6.4},"name":"Urim\u00e9nil"},{"country":"FR","id":2971344,"coord":{"lat":48.1008,"lon":6.40046},"name":"Urimenil"},{"country":"FR","id":6424421,"coord":{"lat":44.799999,"lon":4.95},"name":"Upie"},{"country":"FR","id":2971372,"coord":{"lat":44.803589,"lon":4.97778},"name":"Upie"},{"country":"FR","id":6430918,"coord":{"lat":48.200001,"lon":1.1},"name":"Unverre"},{"country":"FR","id":2971375,"coord":{"lat":48.198292,"lon":1.09207},"name":"Unverre"},{"country":"FR","id":6441650,"coord":{"lat":47.878479,"lon":7.30659},"name":"Ungersheim"},{"country":"FR","id":2971380,"coord":{"lat":47.878479,"lon":7.30797},"name":"Ungersheim"},{"country":"FR","id":6439012,"coord":{"lat":49.283329,"lon":2.28333},"name":"Ully-Saint-Georges"},{"country":"FR","id":2971386,"coord":{"lat":49.27914,"lon":2.28094},"name":"Ully-Saint-Georges"},{"country":"FR","id":6442917,"coord":{"lat":45.75,"lon":6.41667},"name":"Ugine"},{"country":"FR","id":2971399,"coord":{"lat":45.750839,"lon":6.41611},"name":"Ugine"},{"country":"FR","id":6441649,"coord":{"lat":47.820419,"lon":7.17708},"name":"Uffholtz"},{"country":"FR","id":2971401,"coord":{"lat":47.82082,"lon":7.17785},"name":"Uffholtz"},{"country":"FR","id":6437900,"coord":{"lat":49.299999,"lon":6.15},"name":"Uckange"},{"country":"FR","id":2971407,"coord":{"lat":49.30304,"lon":6.1492},"name":"Uckange"},{"country":"FR","id":6445113,"coord":{"lat":44.216671,"lon":4.8},"name":"Uchaux"},{"country":"FR","id":2971411,"coord":{"lat":44.216671,"lon":4.8},"name":"Uchaux"},{"country":"FR","id":6431468,"coord":{"lat":43.75,"lon":4.26667},"name":"Uchaud"},{"country":"FR","id":2971412,"coord":{"lat":43.758572,"lon":4.26843},"name":"Uchaud"},{"country":"FR","id":6441385,"coord":{"lat":48.849998,"lon":7.63333},"name":"Uberach"},{"country":"FR","id":2971418,"coord":{"lat":48.84919,"lon":7.62938},"name":"Uberach"},{"country":"FR","id":6443563,"coord":{"lat":49.616669,"lon":0.23333},"name":"Turretot"},{"country":"FR","id":2971446,"coord":{"lat":49.60923,"lon":0.23422},"name":"Turretot"},{"country":"FR","id":6441646,"coord":{"lat":48.087372,"lon":7.27776},"name":"Turckheim"},{"country":"FR","id":2971469,"coord":{"lat":48.087479,"lon":7.27707},"name":"Turckheim"},{"country":"FR","id":2971480,"coord":{"lat":45.298611,"lon":5.48608},"name":"Tullins"},{"country":"FR","id":2971483,"coord":{"lat":44.285271,"lon":4.9296},"name":"Tulette"},{"country":"FR","id":6442764,"coord":{"lat":48.116669,"lon":0.51667},"name":"Tuff\u00e9"},{"country":"FR","id":2971493,"coord":{"lat":48.11319,"lon":0.51551},"name":"Tuffe"},{"country":"FR","id":6436887,"coord":{"lat":49.299999,"lon":5.88333},"name":"Tucquegnieux"},{"country":"FR","id":2971504,"coord":{"lat":49.301399,"lon":5.88247},"name":"Tucquegnieux"},{"country":"FR","id":6433145,"coord":{"lat":47.26667,"lon":0.83333},"name":"Truyes"},{"country":"FR","id":2971515,"coord":{"lat":47.272991,"lon":0.85179},"name":"Truyes"},{"country":"FR","id":6439330,"coord":{"lat":48.849998,"lon":0.03333},"name":"Trun"},{"country":"FR","id":2971521,"coord":{"lat":48.842682,"lon":0.03268},"name":"Trun"},{"country":"FR","id":6441384,"coord":{"lat":48.66325,"lon":7.60614},"name":"Truchtersheim"},{"country":"FR","id":2971536,"coord":{"lat":48.663132,"lon":7.60752},"name":"Truchtersheim"},{"country":"FR","id":6427536,"coord":{"lat":49.366669,"lon":0.08333},"name":"Trouville-sur-Mer"},{"country":"FR","id":2971555,"coord":{"lat":49.3657,"lon":0.08041},"name":"Trouville-sur-Mer"},{"country":"FR","id":6439008,"coord":{"lat":49.400002,"lon":2.96667},"name":"Trosly-Breuil"},{"country":"FR","id":2971580,"coord":{"lat":49.400002,"lon":2.96667},"name":"Trosly-Breuil"},{"country":"FR","id":6437232,"coord":{"lat":48.716671,"lon":5.28333},"name":"Tronville-en-Barrois"},{"country":"FR","id":2971582,"coord":{"lat":48.719761,"lon":5.27808},"name":"Tronville-en-Barrois"},{"country":"FR","id":6439007,"coord":{"lat":49.48333,"lon":2.05},"name":"Troissereux"},{"country":"FR","id":2971616,"coord":{"lat":49.47998,"lon":2.04485},"name":"Troissereux"},{"country":"FR","id":6428160,"coord":{"lat":45.883331,"lon":-0.9},"name":"Trizay"},{"country":"FR","id":2971645,"coord":{"lat":45.882759,"lon":-0.89698},"name":"Trizay"},{"country":"FR","id":6438529,"coord":{"lat":50.316669,"lon":3.48333},"name":"Trith-Saint-L\u00e9ger"},{"country":"FR","id":2971651,"coord":{"lat":50.316669,"lon":3.48333},"name":"Trith-Saint-Leger"},{"country":"FR","id":6443879,"coord":{"lat":48.950001,"lon":2.95},"name":"Trilport"},{"country":"FR","id":2971673,"coord":{"lat":48.956848,"lon":2.95076},"name":"Trilport"},{"country":"FR","id":6434749,"coord":{"lat":47.933331,"lon":2.98333},"name":"Trigu\u00e8res"},{"country":"FR","id":2971676,"coord":{"lat":47.939751,"lon":2.9857},"name":"Trigueres"},{"country":"FR","id":6434554,"coord":{"lat":47.316669,"lon":-2.18333},"name":"Trignac"},{"country":"FR","id":2971680,"coord":{"lat":47.318089,"lon":-2.18895},"name":"Trignac"},{"country":"FR","id":6436885,"coord":{"lat":49.333328,"lon":5.93333},"name":"Trieux"},{"country":"FR","id":2971686,"coord":{"lat":49.324459,"lon":5.93644},"name":"Trieux"},{"country":"FR","id":6444091,"coord":{"lat":48.98333,"lon":2},"name":"Triel-sur-Seine"},{"country":"FR","id":2971689,"coord":{"lat":48.97818,"lon":2.00743},"name":"Triel-sur-Seine"},{"country":"FR","id":6439005,"coord":{"lat":49.283329,"lon":1.83333},"name":"Trie-Ch\u00e2teau"},{"country":"FR","id":2971692,"coord":{"lat":49.2854,"lon":1.82129},"name":"Trie-Chateau"},{"country":"FR","id":6617384,"coord":{"lat":43.321499,"lon":0.3707},"name":"Trie-sur-Ba\u00efse"},{"country":"FR","id":2971693,"coord":{"lat":43.333328,"lon":0.36667},"name":"Trie-sur-Baise"},{"country":"FR","id":6439004,"coord":{"lat":49.566669,"lon":2.58333},"name":"Tricot"},{"country":"FR","id":2971694,"coord":{"lat":49.560799,"lon":2.58789},"name":"Tricot"},{"country":"FR","id":6445249,"coord":{"lat":46.3941,"lon":-1.1971},"name":"Triaize"},{"country":"FR","id":2971704,"coord":{"lat":46.392651,"lon":-1.19785},"name":"Triaize"},{"country":"FR","id":6612211,"coord":{"lat":45.933331,"lon":4.76667},"name":"Tr\u00e9voux"},{"country":"FR","id":2971722,"coord":{"lat":45.941109,"lon":4.76727},"name":"Trevoux"},{"country":"FR","id":6429194,"coord":{"lat":48.816669,"lon":-3.35},"name":"Tr\u00e9vou-Tr\u00e9guignec"},{"country":"FR","id":2971723,"coord":{"lat":48.818691,"lon":-3.34132},"name":"Trevou-Treguignec"},{"country":"FR","id":6453811,"coord":{"lat":48.216671,"lon":-2.8},"name":"Tr\u00e9v\u00e9"},{"country":"FR","id":2971751,"coord":{"lat":48.211472,"lon":-2.79317},"name":"Treve"},{"country":"FR","id":6453664,"coord":{"lat":43.450001,"lon":5.68333},"name":"Trets"},{"country":"FR","id":2971765,"coord":{"lat":43.448181,"lon":5.68328},"name":"Trets"},{"country":"FR","id":6438528,"coord":{"lat":50.619598,"lon":3.1949},"name":"Tressin"},{"country":"FR","id":2971771,"coord":{"lat":50.6175,"lon":3.19354},"name":"Tressin"},{"country":"FR","id":6442915,"coord":{"lat":45.666672,"lon":5.9},"name":"Tresserve"},{"country":"FR","id":2971774,"coord":{"lat":45.677849,"lon":5.90153},"name":"Tresserve"},{"country":"FR","id":6437898,"coord":{"lat":49.400002,"lon":5.98333},"name":"Tressange"},{"country":"FR","id":2971777,"coord":{"lat":49.40538,"lon":5.98138},"name":"Tressange"},{"country":"FR","id":6431467,"coord":{"lat":44.1063,"lon":4.5872},"name":"Tresques"},{"country":"FR","id":2971782,"coord":{"lat":44.106892,"lon":4.5874},"name":"Tresques"},{"country":"FR","id":6615067,"coord":{"lat":47.883331,"lon":-1.55},"name":"Tresb\u0153uf"},{"country":"FR","id":2971796,"coord":{"lat":47.883331,"lon":-1.55},"name":"Tresboeuf"},{"country":"FR","id":6433434,"coord":{"lat":45.683331,"lon":5.31667},"name":"Trept"},{"country":"FR","id":2971799,"coord":{"lat":45.685612,"lon":5.31617},"name":"Trept"},{"country":"FR","id":6430914,"coord":{"lat":48.683331,"lon":1.33333},"name":"Tr\u00e9on"},{"country":"FR","id":2971810,"coord":{"lat":48.67709,"lon":1.32668},"name":"Treon"},{"country":"FR","id":6453938,"coord":{"lat":47.900002,"lon":-3.53333},"name":"Tr\u00e9m\u00e9ven"},{"country":"FR","id":2971856,"coord":{"lat":47.900002,"lon":-3.53333},"name":"Tremeven"},{"country":"FR","id":6437897,"coord":{"lat":49.25,"lon":6.25},"name":"Tr\u00e9mery"},{"country":"FR","id":2971858,"coord":{"lat":49.244598,"lon":6.22357},"name":"Tremery"},{"country":"FR","id":6435339,"coord":{"lat":47.116669,"lon":-0.78333},"name":"Tr\u00e9mentines"},{"country":"FR","id":2971861,"coord":{"lat":47.123569,"lon":-0.785},"name":"Trementines"},{"country":"FR","id":6432882,"coord":{"lat":48.416672,"lon":-1.46667},"name":"Tremblay"},{"country":"FR","id":2971876,"coord":{"lat":48.422161,"lon":-1.47555},"name":"Tremblay"},{"country":"FR","id":6454424,"coord":{"lat":50.066669,"lon":4.1},"name":"Tr\u00e9lon"},{"country":"FR","id":2971887,"coord":{"lat":50.058048,"lon":4.102},"name":"Trelon"},{"country":"FR","id":6429183,"coord":{"lat":48.433331,"lon":-2.11667},"name":"Tr\u00e9livan"},{"country":"FR","id":2971889,"coord":{"lat":48.43198,"lon":-2.11748},"name":"Trelivan"},{"country":"FR","id":6429182,"coord":{"lat":48.816669,"lon":-3.36667},"name":"Tr\u00e9l\u00e9vern"},{"country":"FR","id":2971893,"coord":{"lat":48.810711,"lon":-3.37141},"name":"Trelevern"},{"country":"FR","id":6435338,"coord":{"lat":47.450001,"lon":-0.46667},"name":"Tr\u00e9laz\u00e9"},{"country":"FR","id":2971896,"coord":{"lat":47.445648,"lon":-0.4654},"name":"Trelaze"},{"country":"FR","id":6445247,"coord":{"lat":46.98333,"lon":-1.23333},"name":"Treize-Septiers"},{"country":"FR","id":2971903,"coord":{"lat":46.985241,"lon":-1.22921},"name":"Treize-Septiers"},{"country":"FR","id":6434553,"coord":{"lat":47.333328,"lon":-1.63333},"name":"Treilli\u00e8res"},{"country":"FR","id":2971908,"coord":{"lat":47.330601,"lon":-1.61918},"name":"Treillieres"},{"country":"FR","id":6453756,"coord":{"lat":45.533329,"lon":1.8},"name":"Treignac"},{"country":"FR","id":2971915,"coord":{"lat":45.53558,"lon":1.79621},"name":"Treignac"},{"country":"FR","id":6431076,"coord":{"lat":47.849998,"lon":-3.85},"name":"Tr\u00e9gunc"},{"country":"FR","id":2971926,"coord":{"lat":47.849998,"lon":-3.85},"name":"Tregunc"},{"country":"FR","id":6453809,"coord":{"lat":48.783329,"lon":-3.23333},"name":"Tr\u00e9guier"},{"country":"FR","id":2971929,"coord":{"lat":48.783329,"lon":-3.23333},"name":"Treguier"},{"country":"FR","id":2971953,"coord":{"lat":48.816669,"lon":-3.5},"name":"Tregastel"},{"country":"FR","id":2971976,"coord":{"lat":47.681629,"lon":-2.61287},"name":"Trefflean"},{"country":"FR","id":6613961,"coord":{"lat":47.803501,"lon":-4.2625},"name":"Treffiagat"},{"country":"FR","id":2971978,"coord":{"lat":47.816669,"lon":-4.26667},"name":"Treffiagat"},{"country":"FR","id":6429172,"coord":{"lat":48.783329,"lon":-3.2},"name":"Tr\u00e9darzec"},{"country":"FR","id":2971988,"coord":{"lat":48.785831,"lon":-3.201},"name":"Tredarzec"},{"country":"FR","id":6429168,"coord":{"lat":48.76667,"lon":-3.56667},"name":"Tr\u00e9beurden"},{"country":"FR","id":2972009,"coord":{"lat":48.76667,"lon":-3.56667},"name":"Trebeurden"},{"country":"FR","id":6426887,"coord":{"lat":43.216671,"lon":2.43333},"name":"Tr\u00e8bes"},{"country":"FR","id":2972010,"coord":{"lat":43.21064,"lon":2.44165},"name":"Trebes"},{"country":"FR","id":6445079,"coord":{"lat":43.5,"lon":6.48333},"name":"Trans-en-Provence"},{"country":"FR","id":2972058,"coord":{"lat":43.505001,"lon":6.48571},"name":"Trans-en-Provence"},{"country":"FR","id":6442762,"coord":{"lat":48.033329,"lon":0.11667},"name":"Trang\u00e9"},{"country":"FR","id":2972064,"coord":{"lat":48.027061,"lon":0.11054},"name":"Trange"},{"country":"FR","id":6424720,"coord":{"lat":45.866669,"lon":4.96667},"name":"Tramoyes"},{"country":"FR","id":2972071,"coord":{"lat":45.87627,"lon":4.96568},"name":"Tramoyes"},{"country":"FR","id":6434747,"coord":{"lat":47.966671,"lon":2.1},"name":"Tra\u00eenou"},{"country":"FR","id":2972095,"coord":{"lat":47.97353,"lon":2.10399},"name":"Trainou"},{"country":"FR","id":6439002,"coord":{"lat":49.466671,"lon":3},"name":"Tracy-le-Mont"},{"country":"FR","id":2972107,"coord":{"lat":49.472252,"lon":3.00939},"name":"Tracy-le-Mont"},{"country":"FR","id":6453718,"coord":{"lat":45.666672,"lon":0.25},"name":"Touvre"},{"country":"FR","id":2972126,"coord":{"lat":45.666672,"lon":0.25},"name":"Touvre"},{"country":"FR","id":6612553,"coord":{"lat":46.900002,"lon":-1.68333},"name":"Touvois"},{"country":"FR","id":2972128,"coord":{"lat":46.902081,"lon":-1.68333},"name":"Touvois"},{"country":"FR","id":6435337,"coord":{"lat":47.049999,"lon":-0.76667},"name":"Toutlemonde"},{"country":"FR","id":2972137,"coord":{"lat":47.054878,"lon":-0.76548},"name":"Toutlemonde"},{"country":"FR","id":6430671,"coord":{"lat":49.366669,"lon":0.46667},"name":"Toutainville"},{"country":"FR","id":2972142,"coord":{"lat":49.364738,"lon":0.46538},"name":"Toutainville"},{"country":"FR","id":6441840,"coord":{"lat":45.650002,"lon":4.98333},"name":"Toussieu"},{"country":"FR","id":2972146,"coord":{"lat":45.653709,"lon":4.98618},"name":"Toussieu"},{"country":"FR","id":6616339,"coord":{"lat":48.194099,"lon":1.9367},"name":"Toury"},{"country":"FR","id":2972156,"coord":{"lat":48.19397,"lon":1.93484},"name":"Toury"},{"country":"FR","id":6443559,"coord":{"lat":49.849998,"lon":1.1},"name":"Tourville-sur-Arques"},{"country":"FR","id":2972161,"coord":{"lat":49.859261,"lon":1.10238},"name":"Tourville-sur-Arques"},{"country":"FR","id":6443557,"coord":{"lat":49.333328,"lon":1.1},"name":"Tourville-la-Rivi\u00e8re"},{"country":"FR","id":2972163,"coord":{"lat":49.32782,"lon":1.10551},"name":"Tourville-la-Riviere"},{"country":"FR","id":6445078,"coord":{"lat":43.400002,"lon":5.93333},"name":"Tourves"},{"country":"FR","id":2972168,"coord":{"lat":43.407761,"lon":5.92415},"name":"Tourves"},{"country":"FR","id":6436049,"coord":{"lat":49.049999,"lon":4.11667},"name":"Tours-sur-Marne"},{"country":"FR","id":2972186,"coord":{"lat":49.048729,"lon":4.1206},"name":"Tours-sur-Marne"},{"country":"FR","id":6425691,"coord":{"lat":43.783329,"lon":7.26667},"name":"Tourrette-Levens"},{"country":"FR","id":2972195,"coord":{"lat":43.78746,"lon":7.27364},"name":"Tourrette-Levens"},{"country":"FR","id":6439328,"coord":{"lat":48.583328,"lon":0.66667},"name":"Tourouvre"},{"country":"FR","id":2972201,"coord":{"lat":48.589512,"lon":0.65252},"name":"Tourouvre"},{"country":"FR","id":6442513,"coord":{"lat":46.566669,"lon":4.9},"name":"Tournus"},{"country":"FR","id":2972203,"coord":{"lat":46.567581,"lon":4.90574},"name":"Tournus"},{"country":"FR","id":6432997,"coord":{"lat":46.73333,"lon":0.95},"name":"Tournon-Saint-Martin"},{"country":"FR","id":2972209,"coord":{"lat":46.73423,"lon":0.95514},"name":"Tournon-Saint-Martin"},{"country":"FR","id":6612251,"coord":{"lat":45.066669,"lon":4.83333},"name":"Tournon-sur-Rh\u00f4ne"},{"country":"FR","id":2972214,"coord":{"lat":45.066669,"lon":4.83333},"name":"Tournon-sur-Rhone"},{"country":"FR","id":2972229,"coord":{"lat":49.797001,"lon":4.63856},"name":"Tournes"},{"country":"FR","id":2972235,"coord":{"lat":50.799999,"lon":2.05},"name":"Tournehem-sur-la-Hem"},{"country":"FR","id":2972248,"coord":{"lat":43.18438,"lon":0.24454},"name":"Tournay"},{"country":"FR","id":6443875,"coord":{"lat":48.73333,"lon":2.76667},"name":"Tournan-en-Brie"},{"country":"FR","id":2972253,"coord":{"lat":48.741459,"lon":2.772},"name":"Tournan-en-Brie"},{"country":"FR","id":6618141,"coord":{"lat":43.715698,"lon":7.0604},"name":"Tourrettes-sur-Loup"},{"country":"FR","id":2972273,"coord":{"lat":43.716671,"lon":7.05},"name":"Tourrettes-sur-Loup"},{"country":"FR","id":6432669,"coord":{"lat":43.450001,"lon":3.38333},"name":"Tourbes"},{"country":"FR","id":2972288,"coord":{"lat":43.446152,"lon":3.37852},"name":"Tourbes"},{"country":"FR","id":6443874,"coord":{"lat":48.73333,"lon":3.01667},"name":"Touquin"},{"country":"FR","id":2972301,"coord":{"lat":48.734982,"lon":3.01222},"name":"Touquin"},{"country":"FR","id":6453483,"coord":{"lat":49.333328,"lon":0.1},"name":"Touques"},{"country":"FR","id":2972307,"coord":{"lat":49.344429,"lon":0.10218},"name":"Touques"},{"country":"FR","id":6441048,"coord":{"lat":42.666672,"lon":2.83333},"name":"Toulouges"},{"country":"FR","id":2972317,"coord":{"lat":42.669609,"lon":2.83008},"name":"Toulouges"},{"country":"FR","id":2972320,"coord":{"lat":46.693451,"lon":4.13869},"name":"Toulon-sur-Arroux"},{"country":"FR","id":6425867,"coord":{"lat":44.900002,"lon":4.81667},"name":"Toulaud"},{"country":"FR","id":2972342,"coord":{"lat":44.900089,"lon":4.81721},"name":"Toulaud"},{"country":"FR","id":6438525,"coord":{"lat":50.666672,"lon":3.23333},"name":"Toufflers"},{"country":"FR","id":2972365,"coord":{"lat":50.660389,"lon":3.23358},"name":"Toufflers"},{"country":"FR","id":6446048,"coord":{"lat":47.73333,"lon":3.3},"name":"Toucy"},{"country":"FR","id":2972372,"coord":{"lat":47.736019,"lon":3.29502},"name":"Toucy"},{"country":"FR","id":6443552,"coord":{"lat":49.683331,"lon":1.05},"name":"T\u00f4tes"},{"country":"FR","id":2972381,"coord":{"lat":49.680908,"lon":1.0465},"name":"Totes"},{"country":"FR","id":6424718,"coord":{"lat":46.133331,"lon":5.31667},"name":"Tossiat"},{"country":"FR","id":2972387,"coord":{"lat":46.139889,"lon":5.31139},"name":"Tossiat"},{"country":"FR","id":6441047,"coord":{"lat":42.75,"lon":2.98333},"name":"Torreilles"},{"country":"FR","id":2972412,"coord":{"lat":42.75433,"lon":2.99292},"name":"Torreilles"},{"country":"FR","id":6614196,"coord":{"lat":47.033329,"lon":-1.11667},"name":"Torfou"},{"country":"FR","id":2972430,"coord":{"lat":47.036819,"lon":-1.11635},"name":"Torfou"},{"country":"FR","id":6454634,"coord":{"lat":46.783798,"lon":4.436},"name":"Torcy"},{"country":"FR","id":2972445,"coord":{"lat":46.76857,"lon":4.45333},"name":"Torcy"},{"country":"FR","id":6432880,"coord":{"lat":48.066669,"lon":-1.26667},"name":"Torc\u00e9"},{"country":"FR","id":2972457,"coord":{"lat":48.061199,"lon":-1.26708},"name":"Torce"},{"country":"FR","id":6429165,"coord":{"lat":48.666672,"lon":-3.4},"name":"Tonqu\u00e9dec"},{"country":"FR","id":2972462,"coord":{"lat":48.668861,"lon":-3.39712},"name":"Tonquedec"},{"country":"FR","id":6428158,"coord":{"lat":45.950001,"lon":-0.9},"name":"Tonnay-Charente"},{"country":"FR","id":2972470,"coord":{"lat":45.949001,"lon":-0.8935},"name":"Tonnay-Charente"},{"country":"FR","id":6428157,"coord":{"lat":45.966671,"lon":-0.71667},"name":"Tonnay-Boutonne"},{"country":"FR","id":2972471,"coord":{"lat":45.968151,"lon":-0.70847},"name":"Tonnay-Boutonne"},{"country":"FR","id":6436879,"coord":{"lat":48.683331,"lon":6.21667},"name":"Tomblaine"},{"country":"FR","id":2972486,"coord":{"lat":48.683331,"lon":6.21312},"name":"Tomblaine"},{"country":"FR","id":6432879,"coord":{"lat":48.329102,"lon":-1.8343},"name":"Tint\u00e9niac"},{"country":"FR","id":2972544,"coord":{"lat":48.328602,"lon":-1.8363},"name":"Tinteniac"},{"country":"FR","id":6436048,"coord":{"lat":49.25,"lon":3.98333},"name":"Tinqueux"},{"country":"FR","id":2972546,"coord":{"lat":49.25,"lon":3.98333},"name":"Tinqueux"},{"country":"FR","id":6439917,"coord":{"lat":50.7771,"lon":2.2049},"name":"Tilques"},{"country":"FR","id":2972559,"coord":{"lat":50.777119,"lon":2.19948},"name":"Tilques"},{"country":"FR","id":6427520,"coord":{"lat":49.183331,"lon":-0.61667},"name":"Tilly-sur-Seulles"},{"country":"FR","id":2972560,"coord":{"lat":49.17598,"lon":-0.62605},"name":"Tilly-sur-Seulles"},{"country":"FR","id":6439915,"coord":{"lat":50.276699,"lon":2.8169},"name":"Tilloy-l\u00e8s-Mofflaines"},{"country":"FR","id":2972571,"coord":{"lat":50.275188,"lon":2.81456},"name":"Tilloy-les-Mofflaines"},{"country":"FR","id":6430662,"coord":{"lat":48.76667,"lon":1.06667},"name":"Tilli\u00e8res-sur-Avre"},{"country":"FR","id":2972583,"coord":{"lat":48.755859,"lon":1.05388},"name":"Tillieres-sur-Avre"},{"country":"FR","id":6435335,"coord":{"lat":47.150002,"lon":-1.16667},"name":"Tilli\u00e8res"},{"country":"FR","id":2972584,"coord":{"lat":47.14397,"lon":-1.16334},"name":"Tillieres"},{"country":"FR","id":6439000,"coord":{"lat":49.466671,"lon":2.11667},"name":"Till\u00e9"},{"country":"FR","id":2972594,"coord":{"lat":49.464149,"lon":2.11038},"name":"Tille"},{"country":"FR","id":6434744,"coord":{"lat":47.799999,"lon":2.2},"name":"Tigy"},{"country":"FR","id":2972600,"coord":{"lat":47.793652,"lon":2.19766},"name":"Tigy"},{"country":"FR","id":6433430,"coord":{"lat":45.73333,"lon":5.18333},"name":"Tignieu-Jameyzieu"},{"country":"FR","id":2972605,"coord":{"lat":45.735641,"lon":5.18046},"name":"Tignieu-Jameyzieu"},{"country":"FR","id":6442912,"coord":{"lat":45.4725,"lon":6.9137},"name":"Tignes"},{"country":"FR","id":2972607,"coord":{"lat":45.49604,"lon":6.92463},"name":"Tignes"},{"country":"FR","id":6446213,"coord":{"lat":48.633331,"lon":2.5},"name":"Tigery"},{"country":"FR","id":2972611,"coord":{"lat":48.64257,"lon":2.50779},"name":"Tigery"},{"country":"FR","id":6445246,"coord":{"lat":47.01667,"lon":-1.1},"name":"Tiffauges"},{"country":"FR","id":2972613,"coord":{"lat":47.010799,"lon":-1.10999},"name":"Tiffauges"},{"country":"FR","id":6435334,"coord":{"lat":47.616669,"lon":-0.46667},"name":"Tierc\u00e9"},{"country":"FR","id":2972620,"coord":{"lat":47.615871,"lon":-0.46609},"name":"Tierce"},{"country":"FR","id":6427517,"coord":{"lat":48.98333,"lon":-0.48333},"name":"Thury-Harcourt"},{"country":"FR","id":2972640,"coord":{"lat":48.984341,"lon":-0.4752},"name":"Thury-Harcourt"},{"country":"FR","id":6614029,"coord":{"lat":46.833328,"lon":0.45},"name":"Thur\u00e9"},{"country":"FR","id":2972651,"coord":{"lat":46.832218,"lon":0.45797},"name":"Thure"},{"country":"FR","id":6438522,"coord":{"lat":50.480099,"lon":3.4595},"name":"Thun-Saint-Amand"},{"country":"FR","id":2972655,"coord":{"lat":50.472759,"lon":3.45116},"name":"Thun-Saint-Amand"},{"country":"FR","id":6438521,"coord":{"lat":50.48333,"lon":3.05},"name":"Thumeries"},{"country":"FR","id":2972658,"coord":{"lat":50.47662,"lon":3.055},"name":"Thumeries"},{"country":"FR","id":6441045,"coord":{"lat":42.633331,"lon":2.75},"name":"Thuir"},{"country":"FR","id":2972665,"coord":{"lat":42.6329,"lon":2.75471},"name":"Thuir"},{"country":"FR","id":6425866,"coord":{"lat":44.683331,"lon":4.21667},"name":"Thueyts"},{"country":"FR","id":2972670,"coord":{"lat":44.67828,"lon":4.21916},"name":"Thueyts"},{"country":"FR","id":6616684,"coord":{"lat":45.6255,"lon":5.5394},"name":"Veyrins-Thuellin"},{"country":"FR","id":2972673,"coord":{"lat":45.638329,"lon":5.5072},"name":"Thuellin"},{"country":"FR","id":6438997,"coord":{"lat":49.48333,"lon":2.88333},"name":"Thourotte"},{"country":"FR","id":2972684,"coord":{"lat":49.47591,"lon":2.8821},"name":"Thourotte"},{"country":"FR","id":6454751,"coord":{"lat":46.966671,"lon":-0.21667},"name":"Thouars"},{"country":"FR","id":2972695,"coord":{"lat":46.976021,"lon":-0.21507},"name":"Thouars"},{"country":"FR","id":2972696,"coord":{"lat":47.268929,"lon":-1.43834},"name":"Thouare-sur-Loire"},{"country":"FR","id":6435333,"coord":{"lat":47.26667,"lon":-0.5},"name":"Thouarc\u00e9"},{"country":"FR","id":2972697,"coord":{"lat":47.267342,"lon":-0.50186},"name":"Thouarce"},{"country":"FR","id":6446045,"coord":{"lat":48.283329,"lon":3.4},"name":"Thorigny-sur-Oreuse"},{"country":"FR","id":2972710,"coord":{"lat":48.292969,"lon":3.40128},"name":"Thorigny-sur-Oreuse"},{"country":"FR","id":6443871,"coord":{"lat":48.883331,"lon":2.71667},"name":"Thorigny-sur-Marne"},{"country":"FR","id":2972711,"coord":{"lat":48.88689,"lon":2.71806},"name":"Thorigny-sur-Marne"},{"country":"FR","id":6442760,"coord":{"lat":48.033329,"lon":0.53333},"name":"Thorign\u00e9-sur-Du\u00e9"},{"country":"FR","id":2972716,"coord":{"lat":48.0392,"lon":0.53554},"name":"Thorigne-sur-Due"},{"country":"FR","id":6444247,"coord":{"lat":46.283329,"lon":-0.25},"name":"Thorign\u00e9"},{"country":"FR","id":2972719,"coord":{"lat":46.2915,"lon":-0.25122},"name":"Thorigne"},{"country":"FR","id":6443063,"coord":{"lat":45.9972,"lon":6.2477},"name":"Thorens-Gli\u00e8res"},{"country":"FR","id":2972727,"coord":{"lat":45.994751,"lon":6.24581},"name":"Thorens-Glieres"},{"country":"FR","id":6454674,"coord":{"lat":45.881229,"lon":6.32572},"name":"Th\u00f4nes"},{"country":"FR","id":2972749,"coord":{"lat":45.881229,"lon":6.32572},"name":"Thones"},{"country":"FR","id":6443870,"coord":{"lat":48.400002,"lon":2.78333},"name":"Thomery"},{"country":"FR","id":2972754,"coord":{"lat":48.40723,"lon":2.78852},"name":"Thomery"},{"country":"FR","id":6424716,"coord":{"lat":46.166672,"lon":4.8},"name":"Thoissey"},{"country":"FR","id":2972772,"coord":{"lat":46.174049,"lon":4.80331},"name":"Thoissey"},{"country":"FR","id":6444088,"coord":{"lat":48.866669,"lon":1.8},"name":"Thoiry"},{"country":"FR","id":2972773,"coord":{"lat":48.867149,"lon":1.7976},"name":"Thoiry"},{"country":"FR","id":6454581,"coord":{"lat":46.033329,"lon":4.31667},"name":"Thizy"},{"country":"FR","id":2972786,"coord":{"lat":46.029949,"lon":4.31299},"name":"Thizy"},{"country":"FR","id":6429659,"coord":{"lat":45.416672,"lon":0.91667},"name":"Thiviers"},{"country":"FR","id":2972792,"coord":{"lat":45.415421,"lon":0.91963},"name":"Thiviers"},{"country":"FR","id":6444087,"coord":{"lat":48.849998,"lon":1.91667},"name":"Thiverval-Grignon"},{"country":"FR","id":2972794,"coord":{"lat":48.851082,"lon":1.9171},"name":"Thiverval-Grignon"},{"country":"FR","id":6438996,"coord":{"lat":49.25,"lon":2.43333},"name":"Thiverny"},{"country":"FR","id":2972795,"coord":{"lat":49.251801,"lon":2.43609},"name":"Thiverny"},{"country":"FR","id":6430009,"coord":{"lat":47.283329,"lon":6.08333},"name":"Thise"},{"country":"FR","id":2972798,"coord":{"lat":47.284859,"lon":6.08127},"name":"Thise"},{"country":"FR","id":6613872,"coord":{"lat":48.316669,"lon":0.98333},"name":"Thiron Gardais"},{"country":"FR","id":2972801,"coord":{"lat":48.316669,"lon":0.98333},"name":"Thiron Gardais"},{"country":"FR","id":6433142,"coord":{"lat":47.216671,"lon":0.58333},"name":"Thilouze"},{"country":"FR","id":2972822,"coord":{"lat":47.224152,"lon":0.57963},"name":"Thilouze"},{"country":"FR","id":6453600,"coord":{"lat":49.866669,"lon":4.81667},"name":"Thilay"},{"country":"FR","id":2972829,"coord":{"lat":49.873451,"lon":4.80772},"name":"Thilay"},{"country":"FR","id":6454313,"coord":{"lat":49.466671,"lon":5.9},"name":"Thil"},{"country":"FR","id":2972830,"coord":{"lat":49.47464,"lon":5.9079},"name":"Thil"},{"country":"FR","id":6612210,"coord":{"lat":45.816669,"lon":5.01667},"name":"Thil"},{"country":"FR","id":2972833,"coord":{"lat":45.814159,"lon":5.0219},"name":"Thil"},{"country":"FR","id":6437223,"coord":{"lat":49.166672,"lon":5.35},"name":"Thierville-sur-Meuse"},{"country":"FR","id":2972851,"coord":{"lat":49.170502,"lon":5.35266},"name":"Thierville-sur-Meuse"},{"country":"FR","id":6438992,"coord":{"lat":49.150002,"lon":2.58333},"name":"Thiers-sur-Th\u00e8ve"},{"country":"FR","id":2972853,"coord":{"lat":49.152519,"lon":2.57051},"name":"Thiers-sur-Theve"},{"country":"FR","id":6612432,"coord":{"lat":49.133331,"lon":0.45},"name":"Thiberville"},{"country":"FR","id":2972882,"coord":{"lat":49.13768,"lon":0.45502},"name":"Thiberville"},{"country":"FR","id":6438518,"coord":{"lat":50.299999,"lon":3.45},"name":"Thiant"},{"country":"FR","id":2972889,"coord":{"lat":50.304798,"lon":3.44796},"name":"Thiant"},{"country":"FR","id":6614352,"coord":{"lat":43.416672,"lon":3.16667},"name":"Th\u00e9zan-l\u00e8s-B\u00e9ziers"},{"country":"FR","id":2972904,"coord":{"lat":43.416672,"lon":3.16667},"name":"Thezan-les-Beziers"},{"country":"FR","id":6441044,"coord":{"lat":42.633331,"lon":2.95},"name":"Th\u00e9za"},{"country":"FR","id":2972908,"coord":{"lat":42.63797,"lon":2.95108},"name":"Theza"},{"country":"FR","id":6433428,"coord":{"lat":45.299999,"lon":6},"name":"Theys"},{"country":"FR","id":2972911,"coord":{"lat":45.301361,"lon":5.99534},"name":"Theys"},{"country":"FR","id":6434143,"coord":{"lat":47.333328,"lon":1.31667},"name":"Th\u00e9s\u00e9e"},{"country":"FR","id":2972931,"coord":{"lat":47.323448,"lon":1.30882},"name":"Thesee"},{"country":"FR","id":6439910,"coord":{"lat":50.633331,"lon":2.25},"name":"Th\u00e9rouanne"},{"country":"FR","id":2972936,"coord":{"lat":50.636951,"lon":2.25838},"name":"Therouanne"},{"country":"FR","id":6425686,"coord":{"lat":43.5,"lon":6.93333},"name":"Th\u00e9oule-sur-Mer"},{"country":"FR","id":2972942,"coord":{"lat":43.507801,"lon":6.9408},"name":"Theoule-sur-Mer"},{"country":"FR","id":6444246,"coord":{"lat":46.716671,"lon":-0.03333},"name":"Th\u00e9nezay"},{"country":"FR","id":2972953,"coord":{"lat":46.718788,"lon":-0.02883},"name":"Thenezay"},{"country":"FR","id":6428154,"coord":{"lat":45.666672,"lon":-0.65},"name":"Th\u00e9nac"},{"country":"FR","id":2972963,"coord":{"lat":45.667049,"lon":-0.65345},"name":"Thenac"},{"country":"FR","id":6439909,"coord":{"lat":50.349998,"lon":2.8},"name":"Th\u00e9lus"},{"country":"FR","id":2972969,"coord":{"lat":50.354408,"lon":2.80146},"name":"Thelus"},{"country":"FR","id":6441800,"coord":{"lat":45.933331,"lon":4.61667},"name":"Theiz\u00e9"},{"country":"FR","id":2972978,"coord":{"lat":45.940281,"lon":4.61634},"name":"Theize"},{"country":"FR","id":6437403,"coord":{"lat":47.633331,"lon":-2.66667},"name":"Theix"},{"country":"FR","id":2972979,"coord":{"lat":47.629162,"lon":-2.65186},"name":"Theix"},{"country":"FR","id":6434142,"coord":{"lat":47.316669,"lon":2.03333},"name":"Theillay"},{"country":"FR","id":2972986,"coord":{"lat":47.314289,"lon":2.04028},"name":"Theillay"},{"country":"FR","id":6437890,"coord":{"lat":49.133331,"lon":6.9},"name":"Th\u00e9ding"},{"country":"FR","id":2972992,"coord":{"lat":49.12941,"lon":6.89315},"name":"Theding"},{"country":"FR","id":6445762,"coord":{"lat":48.25,"lon":6.41667},"name":"Thaon-les-Vosges"},{"country":"FR","id":2973008,"coord":{"lat":48.25,"lon":6.41667},"name":"Thaon-les-Vosges"},{"country":"FR","id":6454567,"coord":{"lat":47.806198,"lon":7.1045},"name":"Thann"},{"country":"FR","id":2973013,"coord":{"lat":47.816669,"lon":7.08333},"name":"Thann"},{"country":"FR","id":6428153,"coord":{"lat":46.066669,"lon":-1},"name":"Thair\u00e9"},{"country":"FR","id":2973021,"coord":{"lat":46.07341,"lon":-1.0023},"name":"Thaire"},{"country":"FR","id":6432668,"coord":{"lat":43.683331,"lon":3.91667},"name":"Teyran"},{"country":"FR","id":2973033,"coord":{"lat":43.68528,"lon":3.92889},"name":"Teyran"},{"country":"FR","id":6613982,"coord":{"lat":49.049999,"lon":6.66667},"name":"Teting-sur-Nied"},{"country":"FR","id":2973045,"coord":{"lat":49.049999,"lon":6.66667},"name":"Teting-sur-Nied"},{"country":"FR","id":6438517,"coord":{"lat":51.01667,"lon":2.43333},"name":"T\u00e9teghem"},{"country":"FR","id":2973049,"coord":{"lat":51.0186,"lon":2.44454},"name":"Teteghem"},{"country":"FR","id":2973064,"coord":{"lat":48.549629,"lon":-0.42521},"name":"Tesse-la-Madeleine"},{"country":"FR","id":6437888,"coord":{"lat":49.349998,"lon":6.15},"name":"Terville"},{"country":"FR","id":2973073,"coord":{"lat":49.347141,"lon":6.13802},"name":"Terville"},{"country":"FR","id":6614467,"coord":{"lat":45.129601,"lon":1.3022},"name":"Terrasson-Lavilledieu"},{"country":"FR","id":2973108,"coord":{"lat":45.130112,"lon":1.30136},"name":"Terrasson-Lavilledieu"},{"country":"FR","id":6454584,"coord":{"lat":45.6021,"lon":4.8113},"name":"Ternay"},{"country":"FR","id":2973128,"coord":{"lat":45.608349,"lon":4.81024},"name":"Ternay"},{"country":"FR","id":6445375,"coord":{"lat":46.51667,"lon":0.56667},"name":"Terc\u00e9"},{"country":"FR","id":2973155,"coord":{"lat":46.51667,"lon":0.56386},"name":"Terce"},{"country":"FR","id":6437887,"coord":{"lat":49.116669,"lon":6.93333},"name":"Tenteling"},{"country":"FR","id":2973164,"coord":{"lat":49.124249,"lon":6.93692},"name":"Tenteling"},{"country":"FR","id":6442753,"coord":{"lat":48.116669,"lon":-0.06667},"name":"Tennie"},{"country":"FR","id":2973166,"coord":{"lat":48.107689,"lon":-0.07626},"name":"Tennie"},{"country":"FR","id":6453571,"coord":{"lat":44.083328,"lon":7.6},"name":"Tende"},{"country":"FR","id":2973180,"coord":{"lat":44.085709,"lon":7.5934},"name":"Tende"},{"country":"FR","id":6433427,"coord":{"lat":45.316669,"lon":5.96667},"name":"Tencin"},{"country":"FR","id":2973181,"coord":{"lat":45.309528,"lon":5.95818},"name":"Tencin"},{"country":"FR","id":6424713,"coord":{"lat":45.916672,"lon":5.5},"name":"Tenay"},{"country":"FR","id":2973183,"coord":{"lat":45.918999,"lon":5.51041},"name":"Tenay"},{"country":"FR","id":6438515,"coord":{"lat":50.533329,"lon":3.16667},"name":"Templeuve"},{"country":"FR","id":2973187,"coord":{"lat":50.523361,"lon":3.17809},"name":"Templeuve"},{"country":"FR","id":6438514,"coord":{"lat":50.566669,"lon":3.05},"name":"Templemars"},{"country":"FR","id":2973188,"coord":{"lat":50.573872,"lon":3.05436},"name":"Templemars"},{"country":"FR","id":6442752,"coord":{"lat":47.883331,"lon":0.26667},"name":"Teloch\u00e9"},{"country":"FR","id":2973192,"coord":{"lat":47.888191,"lon":0.27086},"name":"Teloche"},{"country":"FR","id":6431066,"coord":{"lat":48.23333,"lon":-4.35},"name":"Telgruc-sur-Mer"},{"country":"FR","id":2973197,"coord":{"lat":48.23333,"lon":-4.35},"name":"Telgruc-sur-Mer"},{"country":"FR","id":6616818,"coord":{"lat":47.461498,"lon":-1.279},"name":"Teill\u00e9"},{"country":"FR","id":2973219,"coord":{"lat":47.4617,"lon":-1.2781},"name":"Teille"},{"country":"FR","id":6434740,"coord":{"lat":47.75,"lon":1.61667},"name":"Tavers"},{"country":"FR","id":2973257,"coord":{"lat":47.759209,"lon":1.61267},"name":"Tavers"},{"country":"FR","id":6431462,"coord":{"lat":44.01667,"lon":4.7},"name":"Tavel"},{"country":"FR","id":2973264,"coord":{"lat":44.012699,"lon":4.69835},"name":"Tavel"},{"country":"FR","id":6433772,"coord":{"lat":47.0439,"lon":5.4125},"name":"Tavaux"},{"country":"FR","id":2973267,"coord":{"lat":47.03376,"lon":5.405},"name":"Tavaux"},{"country":"FR","id":6432485,"coord":{"lat":45.049999,"lon":-0.48333},"name":"Tauriac"},{"country":"FR","id":2973293,"coord":{"lat":45.049149,"lon":-0.50048},"name":"Tauriac"},{"country":"FR","id":6430252,"coord":{"lat":44.450001,"lon":4.98333},"name":"Taulignan"},{"country":"FR","id":2973301,"coord":{"lat":44.444248,"lon":4.97971},"name":"Taulignan"},{"country":"FR","id":6431065,"coord":{"lat":48.599998,"lon":-3.9},"name":"Taul\u00e9"},{"country":"FR","id":2973303,"coord":{"lat":48.599998,"lon":-3.9},"name":"Taule"},{"country":"FR","id":2973311,"coord":{"lat":50.743172,"lon":2.20724},"name":"Tatinghem"},{"country":"FR","id":6441797,"coord":{"lat":45.900002,"lon":4.43333},"name":"Tarare"},{"country":"FR","id":2973394,"coord":{"lat":45.89761,"lon":4.43272},"name":"Tarare"},{"country":"FR","id":6445075,"coord":{"lat":43.450001,"lon":6.43333},"name":"Taradeau"},{"country":"FR","id":2973396,"coord":{"lat":43.454281,"lon":6.42776},"name":"Taradeau"},{"country":"FR","id":6427875,"coord":{"lat":45.783329,"lon":0.38333},"name":"Taponnat-Fleurignac"},{"country":"FR","id":2973399,"coord":{"lat":45.778679,"lon":0.40932},"name":"Taponnat-Fleurignac"},{"country":"FR","id":6618464,"coord":{"lat":43.590599,"lon":6.8759},"name":"Tanneron"},{"country":"FR","id":2973418,"coord":{"lat":43.590832,"lon":6.87495},"name":"Tanneron"},{"country":"FR","id":6424450,"coord":{"lat":47.846699,"lon":4.0877},"name":"Tanlay"},{"country":"FR","id":2973421,"coord":{"lat":47.844879,"lon":4.08504},"name":"Tanlay"},{"country":"FR","id":6443060,"coord":{"lat":46.108471,"lon":6.59077},"name":"Taninges"},{"country":"FR","id":2973424,"coord":{"lat":46.108829,"lon":6.59231},"name":"Taninges"},{"country":"FR","id":6443540,"coord":{"lat":49.48333,"lon":0.46667},"name":"Tancarville"},{"country":"FR","id":2973437,"coord":{"lat":49.4855,"lon":0.45765},"name":"Tancarville"},{"country":"FR","id":6444759,"coord":{"lat":50.033329,"lon":2.33333},"name":"Talmas"},{"country":"FR","id":2973476,"coord":{"lat":50.030491,"lon":2.32554},"name":"Talmas"},{"country":"FR","id":6443059,"coord":{"lat":45.849998,"lon":6.21667},"name":"Talloires"},{"country":"FR","id":2973480,"coord":{"lat":45.840359,"lon":6.21416},"name":"Talloires"},{"country":"FR","id":6432876,"coord":{"lat":48.099998,"lon":-1.93333},"name":"Talensac"},{"country":"FR","id":2973492,"coord":{"lat":48.108471,"lon":-1.92829},"name":"Talensac"},{"country":"FR","id":6428901,"coord":{"lat":47.336399,"lon":5.0057},"name":"Talant"},{"country":"FR","id":2973510,"coord":{"lat":47.336941,"lon":5.00888},"name":"Talant"},{"country":"FR","id":6437885,"coord":{"lat":49.236301,"lon":6.1748},"name":"Talange"},{"country":"FR","id":2973511,"coord":{"lat":49.236698,"lon":6.17282},"name":"Talange"},{"country":"FR","id":6436040,"coord":{"lat":49.216671,"lon":4.1},"name":"Taissy"},{"country":"FR","id":2973524,"coord":{"lat":49.215092,"lon":4.09406},"name":"Taissy"},{"country":"FR","id":6430004,"coord":{"lat":47.5,"lon":6.85},"name":"Taillecourt"},{"country":"FR","id":2973551,"coord":{"lat":47.495209,"lon":6.85442},"name":"Taillecourt"},{"country":"FR","id":6454804,"coord":{"lat":43.833328,"lon":5.1},"name":"Taillades"},{"country":"FR","id":2973564,"coord":{"lat":43.835918,"lon":5.09216},"name":"Taillades"},{"country":"FR","id":6424400,"coord":{"lat":48.833328,"lon":1.68333},"name":"Tacoigni\u00e8res"},{"country":"FR","id":2973582,"coord":{"lat":48.836189,"lon":1.67501},"name":"Tacoignieres"},{"country":"FR","id":6430250,"coord":{"lat":44.283329,"lon":4.85},"name":"Suze-la-Rousse"},{"country":"FR","id":2973613,"coord":{"lat":44.28788,"lon":4.84346},"name":"Suze-la-Rousse"},{"country":"FR","id":6432666,"coord":{"lat":43.712101,"lon":4.0031},"name":"Sussargues"},{"country":"FR","id":2973626,"coord":{"lat":43.712502,"lon":4.0031},"name":"Sussargues"},{"country":"FR","id":6454344,"coord":{"lat":47.583328,"lon":-2.63333},"name":"Surzur"},{"country":"FR","id":2973637,"coord":{"lat":47.578499,"lon":-2.62892},"name":"Surzur"},{"country":"FR","id":6434330,"coord":{"lat":45.533329,"lon":4.16667},"name":"Sury-le-Comtal"},{"country":"FR","id":2973639,"coord":{"lat":45.534199,"lon":4.18642},"name":"Sury-le-Comtal"},{"country":"FR","id":6446341,"coord":{"lat":49.099998,"lon":2.55},"name":"Survilliers"},{"country":"FR","id":2973645,"coord":{"lat":49.097118,"lon":2.54449},"name":"Survilliers"},{"country":"FR","id":6428145,"coord":{"lat":46.099998,"lon":-0.75},"name":"Surg\u00e8res"},{"country":"FR","id":2973672,"coord":{"lat":46.1082,"lon":-0.75148},"name":"Surgeres"},{"country":"FR","id":6441378,"coord":{"lat":48.909981,"lon":7.84887},"name":"Surbourg"},{"country":"FR","id":2973686,"coord":{"lat":48.910091,"lon":7.84716},"name":"Surbourg"},{"country":"FR","id":6441377,"coord":{"lat":48.25,"lon":7.6},"name":"Sundhouse"},{"country":"FR","id":2973697,"coord":{"lat":48.25148,"lon":7.60359},"name":"Sundhouse"},{"country":"FR","id":6441640,"coord":{"lat":48.042568,"lon":7.41311},"name":"Sundhoffen"},{"country":"FR","id":2973698,"coord":{"lat":48.042629,"lon":7.4132},"name":"Sundhoffen"},{"country":"FR","id":6431461,"coord":{"lat":43.98333,"lon":3.71667},"name":"Sum\u00e8ne"},{"country":"FR","id":2973701,"coord":{"lat":43.980572,"lon":3.71574},"name":"Sumene"},{"country":"FR","id":6437401,"coord":{"lat":47.683331,"lon":-2.56667},"name":"Sulniac"},{"country":"FR","id":2973702,"coord":{"lat":47.673752,"lon":-2.57136},"name":"Sulniac"},{"country":"FR","id":6434738,"coord":{"lat":47.76667,"lon":2.36667},"name":"Sully-sur-Loire"},{"country":"FR","id":2973703,"coord":{"lat":47.763721,"lon":2.37238},"name":"Sully-sur-Loire"},{"country":"FR","id":6454257,"coord":{"lat":49.133331,"lon":4.53333},"name":"Suippes"},{"country":"FR","id":2973720,"coord":{"lat":49.12886,"lon":4.53446},"name":"Suippes"},{"country":"FR","id":6434139,"coord":{"lat":47.666672,"lon":1.46667},"name":"Su\u00e8vres"},{"country":"FR","id":2973735,"coord":{"lat":47.66655,"lon":1.46153},"name":"Suevres"},{"country":"FR","id":6616817,"coord":{"lat":47.344501,"lon":-1.5283},"name":"Suc\u00e9-sur-Erdre"},{"country":"FR","id":2973748,"coord":{"lat":47.333328,"lon":-1.53333},"name":"Suce-sur-Erdre"},{"country":"FR","id":6441374,"coord":{"lat":48.383331,"lon":7.48333},"name":"Stotzheim"},{"country":"FR","id":2973787,"coord":{"lat":48.378262,"lon":7.48997},"name":"Stotzheim"},{"country":"FR","id":6441638,"coord":{"lat":48.049999,"lon":7.1},"name":"Stosswihr"},{"country":"FR","id":2973788,"coord":{"lat":48.051079,"lon":7.11001},"name":"Stosswihr"},{"country":"FR","id":6441373,"coord":{"lat":48.550018,"lon":7.40388},"name":"Still"},{"country":"FR","id":2973798,"coord":{"lat":48.54982,"lon":7.40444},"name":"Still"},{"country":"FR","id":6437220,"coord":{"lat":49.48333,"lon":5.18333},"name":"Stenay"},{"country":"FR","id":2973809,"coord":{"lat":49.494888,"lon":5.18606},"name":"Stenay"},{"country":"FR","id":6441371,"coord":{"lat":48.770111,"lon":7.41277},"name":"Steinbourg"},{"country":"FR","id":2973818,"coord":{"lat":48.770279,"lon":7.41354},"name":"Steinbourg"},{"country":"FR","id":6441631,"coord":{"lat":47.821049,"lon":7.15193},"name":"Steinbach"},{"country":"FR","id":2973819,"coord":{"lat":47.8214,"lon":7.15279},"name":"Steinbach"},{"country":"FR","id":6438510,"coord":{"lat":50.700001,"lon":2.78333},"name":"Steenwerck"},{"country":"FR","id":2973821,"coord":{"lat":50.701988,"lon":2.77829},"name":"Steenwerck"},{"country":"FR","id":6438509,"coord":{"lat":50.799999,"lon":2.58333},"name":"Steenvoorde"},{"country":"FR","id":2973823,"coord":{"lat":50.810459,"lon":2.58244},"name":"Steenvoorde"},{"country":"FR","id":6438508,"coord":{"lat":50.950001,"lon":2.38333},"name":"Steene"},{"country":"FR","id":2973825,"coord":{"lat":50.952278,"lon":2.36812},"name":"Steene"},{"country":"FR","id":6438507,"coord":{"lat":50.666672,"lon":2.48333},"name":"Steenbecque"},{"country":"FR","id":2973826,"coord":{"lat":50.67421,"lon":2.48442},"name":"Steenbecque"},{"country":"FR","id":6441630,"coord":{"lat":47.826759,"lon":7.25166},"name":"Staffelfelden"},{"country":"FR","id":2973843,"coord":{"lat":47.826469,"lon":7.25235},"name":"Staffelfelden"},{"country":"FR","id":6438505,"coord":{"lat":50.966671,"lon":2.31667},"name":"Spycker"},{"country":"FR","id":2973847,"coord":{"lat":50.969151,"lon":2.32184},"name":"Spycker"},{"country":"FR","id":6437881,"coord":{"lat":49.200001,"lon":6.96667},"name":"Spicheren"},{"country":"FR","id":2973857,"coord":{"lat":49.192661,"lon":6.96727},"name":"Spicheren"},{"country":"FR","id":6431064,"coord":{"lat":48.200001,"lon":-3.71667},"name":"Sp\u00e9zet"},{"country":"FR","id":2973858,"coord":{"lat":48.200001,"lon":-3.71667},"name":"Spezet"},{"country":"FR","id":6425685,"coord":{"lat":43.650002,"lon":6.86667},"name":"Sp\u00e9rac\u00e8des"},{"country":"FR","id":2973863,"coord":{"lat":43.643639,"lon":6.85279},"name":"Speracedes"},{"country":"FR","id":6442748,"coord":{"lat":47.916672,"lon":0.15},"name":"Spay"},{"country":"FR","id":2973869,"coord":{"lat":47.92384,"lon":0.15258},"name":"Spay"},{"country":"FR","id":6612250,"coord":{"lat":44.883331,"lon":4.85},"name":"Soyons"},{"country":"FR","id":2973875,"coord":{"lat":44.886131,"lon":4.85059},"name":"Soyons"},{"country":"FR","id":6427871,"coord":{"lat":45.650002,"lon":0.2},"name":"Soyaux"},{"country":"FR","id":2973882,"coord":{"lat":45.650002,"lon":0.2},"name":"Soyaux"},{"country":"FR","id":6454028,"coord":{"lat":45.049999,"lon":-0.68333},"name":"Soussans"},{"country":"FR","id":2973924,"coord":{"lat":45.05619,"lon":-0.69916},"name":"Soussans"},{"country":"FR","id":6430907,"coord":{"lat":48.416672,"lon":1.6},"name":"Sours"},{"country":"FR","id":2973938,"coord":{"lat":48.410431,"lon":1.59889},"name":"Sours"},{"country":"FR","id":6443866,"coord":{"lat":48.533329,"lon":3.35},"name":"Sourdun"},{"country":"FR","id":2973944,"coord":{"lat":48.53688,"lon":3.352},"name":"Sourdun"},{"country":"FR","id":6441742,"coord":{"lat":45.799999,"lon":4.61667},"name":"Sourcieux-les-Mines"},{"country":"FR","id":2973953,"coord":{"lat":45.80566,"lon":4.62358},"name":"Sourcieux-les-Mines"},{"country":"FR","id":6443865,"coord":{"lat":48.183331,"lon":2.73333},"name":"Souppes-sur-Loing"},{"country":"FR","id":2973963,"coord":{"lat":48.182968,"lon":2.73521},"name":"Souppes-sur-Loing"},{"country":"FR","id":6441367,"coord":{"lat":48.933331,"lon":7.88333},"name":"Soultz-sous-For\u00eats"},{"country":"FR","id":2973990,"coord":{"lat":48.93586,"lon":7.88307},"name":"Soultz-sous-Forets"},{"country":"FR","id":6441627,"coord":{"lat":47.962742,"lon":7.23639},"name":"Soultzmatt"},{"country":"FR","id":2973991,"coord":{"lat":47.96188,"lon":7.23759},"name":"Soultzmatt"},{"country":"FR","id":6441624,"coord":{"lat":47.883331,"lon":7.23333},"name":"Soultz-Haut-Rhin"},{"country":"FR","id":2973993,"coord":{"lat":47.887402,"lon":7.23042},"name":"Soultz-Haut-Rhin"},{"country":"FR","id":6441626,"coord":{"lat":48.066669,"lon":7.1},"name":"Soultzeren"},{"country":"FR","id":2973994,"coord":{"lat":48.06213,"lon":7.10214},"name":"Soultzeren"},{"country":"FR","id":6445241,"coord":{"lat":46.799999,"lon":-1.91667},"name":"Soullans"},{"country":"FR","id":2974007,"coord":{"lat":46.796242,"lon":-1.90106},"name":"Soullans"},{"country":"FR","id":6442744,"coord":{"lat":48.133331,"lon":0.23333},"name":"Soulign\u00e9-sous-Ballon"},{"country":"FR","id":2974012,"coord":{"lat":48.137581,"lon":0.23572},"name":"Souligne-sous-Ballon"},{"country":"FR","id":6617037,"coord":{"lat":48.060001,"lon":-0.5689},"name":"Soulg\u00e9-sur-Ouette"},{"country":"FR","id":2974022,"coord":{"lat":48.066669,"lon":-0.56667},"name":"Soulge-sur-Ouette"},{"country":"FR","id":6435329,"coord":{"lat":47.583328,"lon":-0.55},"name":"Soulaire-et-Bourg"},{"country":"FR","id":2974047,"coord":{"lat":47.57896,"lon":-0.55232},"name":"Soulaire-et-Bourg"},{"country":"FR","id":6435328,"coord":{"lat":47.366669,"lon":-0.51667},"name":"Soulaines-sur-Aubance"},{"country":"FR","id":2974048,"coord":{"lat":47.363811,"lon":-0.52265},"name":"Soulaines-sur-Aubance"},{"country":"FR","id":6432476,"coord":{"lat":45.5112,"lon":-1.1242},"name":"Soulac-sur-Mer"},{"country":"FR","id":2974056,"coord":{"lat":45.510681,"lon":-1.12524},"name":"Soulac-sur-Mer"},{"country":"FR","id":6441365,"coord":{"lat":48.830601,"lon":7.96492},"name":"Soufflenheim"},{"country":"FR","id":2974086,"coord":{"lat":48.830261,"lon":7.96268},"name":"Soufflenheim"},{"country":"FR","id":2974087,"coord":{"lat":48.635399,"lon":7.74141},"name":"Souffelweyersheim"},{"country":"FR","id":2974089,"coord":{"lat":47.456379,"lon":2.17495},"name":"Souesmes"},{"country":"FR","id":6440932,"coord":{"lat":43.200001,"lon":0.1},"name":"Soues"},{"country":"FR","id":2974091,"coord":{"lat":43.207359,"lon":0.09874},"name":"Soues"},{"country":"FR","id":6434547,"coord":{"lat":47.73333,"lon":-1.3},"name":"Soudan"},{"country":"FR","id":2974108,"coord":{"lat":47.737782,"lon":-1.30566},"name":"Soudan"},{"country":"FR","id":6446033,"coord":{"lat":48.25,"lon":3.31667},"name":"Soucy"},{"country":"FR","id":2974115,"coord":{"lat":48.249561,"lon":3.32385},"name":"Soucy"},{"country":"FR","id":6441741,"coord":{"lat":45.683331,"lon":4.7},"name":"Soucieu-en-Jarrest"},{"country":"FR","id":2974118,"coord":{"lat":45.680168,"lon":4.70334},"name":"Soucieu-en-Jarrest"},{"country":"FR","id":6437880,"coord":{"lat":48.966671,"lon":7.33333},"name":"Soucht"},{"country":"FR","id":2974120,"coord":{"lat":48.958881,"lon":7.33488},"name":"Soucht"},{"country":"FR","id":6439902,"coord":{"lat":50.383331,"lon":2.75},"name":"Souchez"},{"country":"FR","id":2974123,"coord":{"lat":50.39291,"lon":2.73984},"name":"Souchez"},{"country":"FR","id":6435327,"coord":{"lat":47.566669,"lon":-0.41667},"name":"Soucelles"},{"country":"FR","id":2974130,"coord":{"lat":47.568481,"lon":-0.41819},"name":"Soucelles"},{"country":"FR","id":6428140,"coord":{"lat":45.933331,"lon":-1},"name":"Soubise"},{"country":"FR","id":2974135,"coord":{"lat":45.92395,"lon":-1.00938},"name":"Soubise"},{"country":"FR","id":6442503,"coord":{"lat":46.633331,"lon":5.18333},"name":"Sornay"},{"country":"FR","id":2974175,"coord":{"lat":46.63023,"lon":5.17999},"name":"Sornay"},{"country":"FR","id":6433135,"coord":{"lat":47.23333,"lon":0.7},"name":"Sorigny"},{"country":"FR","id":2974185,"coord":{"lat":47.24329,"lon":0.6952},"name":"Sorigny"},{"country":"FR","id":6444964,"coord":{"lat":43.450001,"lon":2.06667},"name":"Sor\u00e8ze"},{"country":"FR","id":2974195,"coord":{"lat":43.452412,"lon":2.06799},"name":"Soreze"},{"country":"FR","id":6612443,"coord":{"lat":48.833328,"lon":1.36667},"name":"Sorel-Moussel"},{"country":"FR","id":2974197,"coord":{"lat":48.833912,"lon":1.36699},"name":"Sorel-Moussel"},{"country":"FR","id":6614578,"coord":{"lat":42.529018,"lon":2.95764},"name":"Sor\u00e8de"},{"country":"FR","id":2974203,"coord":{"lat":42.530689,"lon":2.95708},"name":"Sureda"},{"country":"FR","id":6434328,"coord":{"lat":45.48333,"lon":4.45},"name":"Sorbiers"},{"country":"FR","id":2974215,"coord":{"lat":45.48814,"lon":4.44933},"name":"Sorbiers"},{"country":"FR","id":6433134,"coord":{"lat":47.533329,"lon":0.46667},"name":"Sonzay"},{"country":"FR","id":2974236,"coord":{"lat":47.526859,"lon":0.46202},"name":"Sonzay"},{"country":"FR","id":6442909,"coord":{"lat":45.616669,"lon":5.91667},"name":"Sonnaz"},{"country":"FR","id":2974245,"coord":{"lat":45.621601,"lon":5.9184},"name":"Sonnaz"},{"country":"FR","id":6433424,"coord":{"lat":45.349998,"lon":4.9},"name":"Sonnay"},{"country":"FR","id":2974246,"coord":{"lat":45.355701,"lon":4.90637},"name":"Sonnay"},{"country":"FR","id":6438984,"coord":{"lat":49.549999,"lon":1.86667},"name":"Songeons"},{"country":"FR","id":2974257,"coord":{"lat":49.54916,"lon":1.85361},"name":"Songeons"},{"country":"FR","id":6444085,"coord":{"lat":48.583328,"lon":1.88333},"name":"Sonchamp"},{"country":"FR","id":2974263,"coord":{"lat":48.575901,"lon":1.87753},"name":"Sonchamp"},{"country":"FR","id":6431457,"coord":{"lat":43.783329,"lon":4.08333},"name":"Sommi\u00e8res"},{"country":"FR","id":2974273,"coord":{"lat":43.785339,"lon":4.08973},"name":"Sommieres"},{"country":"FR","id":6445073,"coord":{"lat":43.183331,"lon":6.03333},"name":"Solli\u00e8s-Ville"},{"country":"FR","id":2974336,"coord":{"lat":43.182281,"lon":6.03858},"name":"Sollies-Ville"},{"country":"FR","id":6445072,"coord":{"lat":43.200001,"lon":6.01667},"name":"Solli\u00e8s-Toucas"},{"country":"FR","id":2974337,"coord":{"lat":43.20821,"lon":6.02496},"name":"Sollies-Toucas"},{"country":"FR","id":6445071,"coord":{"lat":43.183331,"lon":6.05},"name":"Solli\u00e8s-Pont"},{"country":"FR","id":2974338,"coord":{"lat":43.189781,"lon":6.0432},"name":"Sollies-Pont"},{"country":"FR","id":6445471,"coord":{"lat":45.75,"lon":1.26667},"name":"Solignac"},{"country":"FR","id":2974349,"coord":{"lat":45.75528,"lon":1.27563},"name":"Solignac"},{"country":"FR","id":6427508,"coord":{"lat":49.133331,"lon":-0.3},"name":"Soliers"},{"country":"FR","id":2974352,"coord":{"lat":49.134399,"lon":-0.29613},"name":"Soliers"},{"country":"FR","id":6437878,"coord":{"lat":48.966671,"lon":6.3},"name":"Solgne"},{"country":"FR","id":2974354,"coord":{"lat":48.965771,"lon":6.29635},"name":"Solgne"},{"country":"FR","id":6438500,"coord":{"lat":50.183331,"lon":3.5},"name":"Solesmes"},{"country":"FR","id":2974360,"coord":{"lat":50.184681,"lon":3.49799},"name":"Solesmes"},{"country":"FR","id":6442740,"coord":{"lat":47.849998,"lon":-0.3},"name":"Solesmes"},{"country":"FR","id":2974361,"coord":{"lat":47.85009,"lon":-0.29806},"name":"Solesmes"},{"country":"FR","id":6443864,"coord":{"lat":48.650002,"lon":2.71667},"name":"Solers"},{"country":"FR","id":2974362,"coord":{"lat":48.659199,"lon":2.71617},"name":"Solers"},{"country":"FR","id":6617458,"coord":{"lat":45.6399,"lon":4.841},"name":"Solaize"},{"country":"FR","id":2974378,"coord":{"lat":45.633331,"lon":4.85},"name":"Solaize"},{"country":"FR","id":6446211,"coord":{"lat":48.650002,"lon":2.45},"name":"Soisy-sur-Seine"},{"country":"FR","id":2974383,"coord":{"lat":48.64875,"lon":2.45223},"name":"Soisy-sur-Seine"},{"country":"FR","id":6612916,"coord":{"lat":48.466671,"lon":2.48333},"name":"Soisy-sur-\u00c9cole"},{"country":"FR","id":2974384,"coord":{"lat":48.476372,"lon":2.49301},"name":"Soisy-sur-Ecole"},{"country":"FR","id":6434135,"coord":{"lat":47.416672,"lon":1.51667},"name":"Soings-en-Sologne"},{"country":"FR","id":2974391,"coord":{"lat":47.412891,"lon":1.52452},"name":"Soings-en-Sologne"},{"country":"FR","id":6443862,"coord":{"lat":48.650002,"lon":2.68333},"name":"Soignolles-en-Brie"},{"country":"FR","id":2974396,"coord":{"lat":48.6535,"lon":2.69968},"name":"Soignolles-en-Brie"},{"country":"FR","id":6438499,"coord":{"lat":50.933331,"lon":2.41667},"name":"Socx"},{"country":"FR","id":2974410,"coord":{"lat":50.935711,"lon":2.42422},"name":"Socx"},{"country":"FR","id":6429997,"coord":{"lat":47.51667,"lon":6.83333},"name":"Sochaux"},{"country":"FR","id":2974413,"coord":{"lat":47.50808,"lon":6.82748},"name":"Sochaux"},{"country":"FR","id":6445372,"coord":{"lat":46.51667,"lon":0.35},"name":"Smarves"},{"country":"FR","id":2974418,"coord":{"lat":46.51078,"lon":0.3498},"name":"Smarves"},{"country":"FR","id":6453937,"coord":{"lat":48.400002,"lon":-4.08333},"name":"Sizun"},{"country":"FR","id":2974423,"coord":{"lat":48.400002,"lon":-4.08333},"name":"Sizun"},{"country":"FR","id":2974424,"coord":{"lat":47.776482,"lon":-2.07867},"name":"Sixt-sur-Aff"},{"country":"FR","id":6425585,"coord":{"lat":44.189999,"lon":5.9471},"name":"Sisteron"},{"country":"FR","id":2974446,"coord":{"lat":44.18758,"lon":5.94623},"name":"Sisteron"},{"country":"FR","id":2974450,"coord":{"lat":49.571072,"lon":3.89369},"name":"Sissonne"},{"country":"FR","id":2974461,"coord":{"lat":45.616669,"lon":0.01667},"name":"Sireuil"},{"country":"FR","id":6434546,"coord":{"lat":47.73333,"lon":-1.58333},"name":"Sion-les-Mines"},{"country":"FR","id":2974485,"coord":{"lat":47.73476,"lon":-1.5919},"name":"Sion-les-Mines"},{"country":"FR","id":6425243,"coord":{"lat":49.599998,"lon":3.25},"name":"Sinceny"},{"country":"FR","id":2974506,"coord":{"lat":49.596191,"lon":3.24679},"name":"Sinceny"},{"country":"FR","id":6427092,"coord":{"lat":43.431301,"lon":5.4332},"name":"Simiane-Collongue"},{"country":"FR","id":2974519,"coord":{"lat":43.430672,"lon":5.43454},"name":"Simiane-Collongue"},{"country":"FR","id":6441839,"coord":{"lat":45.616669,"lon":4.86667},"name":"Simandres"},{"country":"FR","id":2974524,"coord":{"lat":45.619789,"lon":4.87087},"name":"Simandres"},{"country":"FR","id":6442497,"coord":{"lat":46.6227,"lon":4.9886},"name":"Simandre"},{"country":"FR","id":2974525,"coord":{"lat":46.623638,"lon":4.98777},"name":"Simandre"},{"country":"FR","id":6615081,"coord":{"lat":49.099998,"lon":2.8},"name":"Silly-le-Long"},{"country":"FR","id":2974534,"coord":{"lat":49.107491,"lon":2.79226},"name":"Silly-le-Long"},{"country":"FR","id":6454673,"coord":{"lat":45.950001,"lon":6.03333},"name":"Sillingy"},{"country":"FR","id":2974540,"coord":{"lat":45.945419,"lon":6.03392},"name":"Sillingy"},{"country":"FR","id":6436021,"coord":{"lat":49.200001,"lon":4.13333},"name":"Sillery"},{"country":"FR","id":2974547,"coord":{"lat":49.198219,"lon":4.13244},"name":"Sillery"},{"country":"FR","id":6442738,"coord":{"lat":48.1833,"lon":-0.1288},"name":"Sill\u00e9-le-Guillaume"},{"country":"FR","id":2974550,"coord":{"lat":48.182659,"lon":-0.12642},"name":"Sille-le-Guillaume"},{"country":"FR","id":6433421,"coord":{"lat":45.333328,"lon":5.38333},"name":"Sillans"},{"country":"FR","id":2974556,"coord":{"lat":45.340679,"lon":5.38859},"name":"Sillans"},{"country":"FR","id":2983703,"coord":{"lat":48.166672,"lon":7.25},"name":"Arrondissement de Ribeauvill\u00e9"},{"country":"FR","id":6441619,"coord":{"lat":48.133331,"lon":7.3},"name":"Sigolsheim"},{"country":"FR","id":2974575,"coord":{"lat":48.134739,"lon":7.30137},"name":"Sigolsheim"},{"country":"FR","id":6426118,"coord":{"lat":49.900002,"lon":4.28333},"name":"Signy-le-Petit"},{"country":"FR","id":2974579,"coord":{"lat":49.902771,"lon":4.2799},"name":"Signy-le-Petit"},{"country":"FR","id":6445070,"coord":{"lat":43.299999,"lon":5.86667},"name":"Signes"},{"country":"FR","id":2974586,"coord":{"lat":43.2901,"lon":5.86232},"name":"Signes"},{"country":"FR","id":6426873,"coord":{"lat":43.033329,"lon":2.98333},"name":"Sigean"},{"country":"FR","id":2974591,"coord":{"lat":43.02776,"lon":2.97916},"name":"Sigean"},{"country":"FR","id":6441618,"coord":{"lat":47.655899,"lon":7.4564},"name":"Sierentz"},{"country":"FR","id":2974608,"coord":{"lat":47.65852,"lon":7.45426},"name":"Sierentz"},{"country":"FR","id":6437873,"coord":{"lat":49.433331,"lon":6.35},"name":"Sierck-les-Bains"},{"country":"FR","id":2974609,"coord":{"lat":49.439919,"lon":6.36057},"name":"Sierck-les-Bains"},{"country":"FR","id":6431063,"coord":{"lat":48.666672,"lon":-4.06667},"name":"Sibiril"},{"country":"FR","id":2974629,"coord":{"lat":48.666672,"lon":-4.06667},"name":"Sibiril"},{"country":"FR","id":6454256,"coord":{"lat":48.716671,"lon":3.71667},"name":"S\u00e9zanne"},{"country":"FR","id":2974640,"coord":{"lat":48.72047,"lon":3.72339},"name":"Sezanne"},{"country":"FR","id":6433418,"coord":{"lat":45.566669,"lon":4.85},"name":"Seyssuel"},{"country":"FR","id":2974643,"coord":{"lat":45.560059,"lon":4.8532},"name":"Seyssuel"},{"country":"FR","id":6433416,"coord":{"lat":45.180901,"lon":5.6996},"name":"Seyssinet-Pariset"},{"country":"FR","id":2974645,"coord":{"lat":45.176762,"lon":5.69387},"name":"Seyssinet-Pariset"},{"country":"FR","id":6453973,"coord":{"lat":43.5,"lon":1.31667},"name":"Seysses"},{"country":"FR","id":2974648,"coord":{"lat":43.498009,"lon":1.31081},"name":"Seysses"},{"country":"FR","id":6453558,"coord":{"lat":44.349998,"lon":6.35},"name":"Seyne"},{"country":"FR","id":2974661,"coord":{"lat":44.350422,"lon":6.35634},"name":"Seyne"},{"country":"FR","id":6443055,"coord":{"lat":45.866669,"lon":6.13333},"name":"S\u00e9vrier"},{"country":"FR","id":2974675,"coord":{"lat":45.864151,"lon":6.14026},"name":"Sevrier"},{"country":"FR","id":6442495,"coord":{"lat":46.73333,"lon":4.85},"name":"Sevrey"},{"country":"FR","id":2974676,"coord":{"lat":46.738251,"lon":4.8403},"name":"Sevrey"},{"country":"FR","id":6445370,"coord":{"lat":46.566669,"lon":0.46667},"name":"S\u00e8vres-Anxaumont"},{"country":"FR","id":2974677,"coord":{"lat":46.570358,"lon":0.46602},"name":"Sevres-Anxaumont"},{"country":"FR","id":6429162,"coord":{"lat":48.333328,"lon":-2.35},"name":"S\u00e9vignac"},{"country":"FR","id":2974691,"coord":{"lat":48.33297,"lon":-2.33915},"name":"Sevignac"},{"country":"FR","id":6427057,"coord":{"lat":44.316669,"lon":3.06667},"name":"S\u00e9v\u00e9rac-le-Ch\u00e2teau"},{"country":"FR","id":2974699,"coord":{"lat":44.324291,"lon":3.05929},"name":"Severac-le-Chateau"},{"country":"FR","id":6434545,"coord":{"lat":47.550598,"lon":-2.0755},"name":"S\u00e9v\u00e9rac"},{"country":"FR","id":2974701,"coord":{"lat":47.550079,"lon":-2.07496},"name":"Severac"},{"country":"FR","id":6453792,"coord":{"lat":47,"lon":5.15},"name":"Seurre"},{"country":"FR","id":2974710,"coord":{"lat":46.999229,"lon":5.15138},"name":"Seurre"},{"country":"FR","id":6446339,"coord":{"lat":49.116669,"lon":2.4},"name":"Seugy"},{"country":"FR","id":2974717,"coord":{"lat":49.121819,"lon":2.39377},"name":"Seugy"},{"country":"FR","id":6432872,"coord":{"lat":48.116669,"lon":-1.45},"name":"Servon-sur-Vilaine"},{"country":"FR","id":2974745,"coord":{"lat":48.12114,"lon":-1.45971},"name":"Servon-sur-Vilaine"},{"country":"FR","id":6615066,"coord":{"lat":48.716671,"lon":2.58333},"name":"Servon"},{"country":"FR","id":2974747,"coord":{"lat":48.716621,"lon":2.58737},"name":"Servon"},{"country":"FR","id":6432660,"coord":{"lat":43.4268,"lon":3.2993},"name":"Servian"},{"country":"FR","id":2974775,"coord":{"lat":43.427158,"lon":3.30032},"name":"Servian"},{"country":"FR","id":6424413,"coord":{"lat":46.133331,"lon":5.16667},"name":"Servas"},{"country":"FR","id":2974782,"coord":{"lat":46.1329,"lon":5.16538},"name":"Servas"},{"country":"FR","id":6443856,"coord":{"lat":48.849998,"lon":2.78333},"name":"Serris"},{"country":"FR","id":2974799,"coord":{"lat":48.84391,"lon":2.78701},"name":"Serris"},{"country":"FR","id":6453585,"coord":{"lat":45.316669,"lon":4.75},"name":"Serri\u00e8res"},{"country":"FR","id":2974809,"coord":{"lat":45.31884,"lon":4.76342},"name":"Serrieres"},{"country":"FR","id":6615737,"coord":{"lat":44.428501,"lon":5.7158},"name":"Serres"},{"country":"FR","id":2974831,"coord":{"lat":44.42865,"lon":5.71581},"name":"Serres"},{"country":"FR","id":6613947,"coord":{"lat":47.25,"lon":5.93333},"name":"Serre-les-Sapins"},{"country":"FR","id":2974839,"coord":{"lat":47.25,"lon":5.93333},"name":"Serre-les-Sapins"},{"country":"FR","id":6430650,"coord":{"lat":49.110298,"lon":0.7127},"name":"Serquigny"},{"country":"FR","id":2974867,"coord":{"lat":49.109428,"lon":0.71016},"name":"Serquigny"},{"country":"FR","id":6443529,"coord":{"lat":49.633331,"lon":1.55},"name":"Serqueux"},{"country":"FR","id":2974868,"coord":{"lat":49.632019,"lon":1.54006},"name":"Serqueux"},{"country":"FR","id":6439894,"coord":{"lat":50.799999,"lon":2.2},"name":"Serques"},{"country":"FR","id":2974870,"coord":{"lat":50.793381,"lon":2.20134},"name":"Serques"},{"country":"FR","id":6433415,"coord":{"lat":45.566669,"lon":4.91667},"name":"Serpaize"},{"country":"FR","id":2974873,"coord":{"lat":45.557079,"lon":4.92062},"name":"Serpaize"},{"country":"FR","id":6431453,"coord":{"lat":43.916672,"lon":4.55},"name":"Sernhac"},{"country":"FR","id":2974879,"coord":{"lat":43.91116,"lon":4.55039},"name":"Sernhac"},{"country":"FR","id":6617179,"coord":{"lat":46.952099,"lon":3.1859},"name":"Sermoise-sur-Loire"},{"country":"FR","id":2974886,"coord":{"lat":46.950001,"lon":3.18333},"name":"Sermoise-sur-Loire"},{"country":"FR","id":6433414,"coord":{"lat":45.666672,"lon":5.41667},"name":"Serm\u00e9rieu"},{"country":"FR","id":2974893,"coord":{"lat":45.6707,"lon":5.40996},"name":"Sermerieu"},{"country":"FR","id":6612596,"coord":{"lat":48.783329,"lon":4.91667},"name":"Sermaize-les-Bains"},{"country":"FR","id":2974901,"coord":{"lat":48.785069,"lon":4.91169},"name":"Sermaize-les-Bains"},{"country":"FR","id":6434733,"coord":{"lat":48.299999,"lon":2.2},"name":"Sermaises"},{"country":"FR","id":2974904,"coord":{"lat":48.296501,"lon":2.20546},"name":"Sermaises"},{"country":"FR","id":6445239,"coord":{"lat":46.5,"lon":-0.85},"name":"S\u00e9rign\u00e9"},{"country":"FR","id":2974922,"coord":{"lat":46.501068,"lon":-0.84453},"name":"Serigne"},{"country":"FR","id":6445109,"coord":{"lat":44.183331,"lon":4.85},"name":"S\u00e9rignan-du-Comtat"},{"country":"FR","id":2974923,"coord":{"lat":44.188499,"lon":4.84403},"name":"Serignan-du-Comtat"},{"country":"FR","id":6432659,"coord":{"lat":43.283329,"lon":3.28333},"name":"S\u00e9rignan"},{"country":"FR","id":2974925,"coord":{"lat":43.278728,"lon":3.27712},"name":"Serignan"},{"country":"FR","id":6612684,"coord":{"lat":49.349998,"lon":1.76667},"name":"S\u00e9rifontaine"},{"country":"FR","id":2974931,"coord":{"lat":49.354401,"lon":1.76873},"name":"Serifontaine"},{"country":"FR","id":6424701,"coord":{"lat":46.25,"lon":6},"name":"Sergy"},{"country":"FR","id":2974936,"coord":{"lat":46.252571,"lon":6.00058},"name":"Sergy"},{"country":"FR","id":6446028,"coord":{"lat":48.333328,"lon":3.25},"name":"Sergines"},{"country":"FR","id":2974937,"coord":{"lat":48.34203,"lon":3.26213},"name":"Sergines"},{"country":"FR","id":6441838,"coord":{"lat":45.633331,"lon":4.83333},"name":"S\u00e9r\u00e9zin-du-Rh\u00f4ne"},{"country":"FR","id":2974942,"coord":{"lat":45.629021,"lon":4.82467},"name":"Serezin-du-Rhone"},{"country":"FR","id":6437399,"coord":{"lat":47.816669,"lon":-2.5},"name":"S\u00e9rent"},{"country":"FR","id":2974949,"coord":{"lat":47.82333,"lon":-2.50571},"name":"Serent"},{"country":"FR","id":6437870,"coord":{"lat":49.316669,"lon":6.08333},"name":"Ser\u00e9mange-Erzange"},{"country":"FR","id":2974955,"coord":{"lat":49.318871,"lon":6.09025},"name":"Seremange-Erzange"},{"country":"FR","id":6445470,"coord":{"lat":45.76667,"lon":1.08333},"name":"S\u00e9reilhac"},