[{"country":"ES","id":2512470,"coord":{"lat":39.381939,"lon":-6.04786},"name":"Plasenzuela"},{"country":"ES","id":2512475,"coord":{"lat":38.78524,"lon":-0.34271},"name":"Planes"},{"country":"ES","id":6357502,"coord":{"lat":39.708099,"lon":-2.09799},"name":"Piqueras del Castillo"},{"country":"ES","id":2512496,"coord":{"lat":39.716671,"lon":-2.06667},"name":"Piqueras del Castillo"},{"country":"ES","id":6362061,"coord":{"lat":38.989159,"lon":-0.31668},"name":"Pinet"},{"country":"ES","id":2512541,"coord":{"lat":38.981758,"lon":-0.3387},"name":"Pinet"},{"country":"ES","id":6357500,"coord":{"lat":39.617489,"lon":-2.4061},"name":"Pinarejo"},{"country":"ES","id":2512548,"coord":{"lat":39.61639,"lon":-2.42592},"name":"Pinarejo"},{"country":"ES","id":6362060,"coord":{"lat":38.945889,"lon":-0.1241},"name":"Piles"},{"country":"ES","id":2512571,"coord":{"lat":38.941429,"lon":-0.13286},"name":"Piles"},{"country":"ES","id":6356840,"coord":{"lat":39.787239,"lon":-6.93565},"name":"Piedras Albas"},{"country":"ES","id":2512596,"coord":{"lat":39.784168,"lon":-6.92588},"name":"Piedras Albas"},{"country":"ES","id":6357157,"coord":{"lat":39.095829,"lon":-4.2719},"name":"Piedrabuena"},{"country":"ES","id":2512609,"coord":{"lat":39.035358,"lon":-4.17512},"name":"Piedrabuena"},{"country":"ES","id":6533962,"coord":{"lat":39.613091,"lon":3.11119},"name":"Petra"},{"country":"ES","id":2512638,"coord":{"lat":39.61351,"lon":3.11312},"name":"Petra"},{"country":"ES","id":2512644,"coord":{"lat":39.918072,"lon":-6.64589},"name":"Pescueza"},{"country":"ES","id":2512660,"coord":{"lat":36.92931,"lon":-4.19163},"name":"Periana"},{"country":"ES","id":6356836,"coord":{"lat":39.759701,"lon":-5.38634},"name":"Peraleda de San Rom\u00e1n"},{"country":"ES","id":2512690,"coord":{"lat":39.741299,"lon":-5.38726},"name":"Peraleda de San Roman"},{"country":"ES","id":6356835,"coord":{"lat":39.870831,"lon":-5.46164},"name":"Peraleda de la Mata"},{"country":"ES","id":2512691,"coord":{"lat":39.852879,"lon":-5.46065},"name":"Peraleda de la Mata"},{"country":"ES","id":6357247,"coord":{"lat":38.309761,"lon":-5.2368},"name":"Pe\u00f1arroya-Pueblonuevo"},{"country":"ES","id":2512730,"coord":{"lat":38.299999,"lon":-5.26667},"name":"Penarroya-Pueblonuevo"},{"country":"ES","id":6355965,"coord":{"lat":38.83316,"lon":-5.1302},"name":"Pe\u00f1alsordo"},{"country":"ES","id":2512737,"coord":{"lat":38.82019,"lon":-5.11405},"name":"Penalsordo"},{"country":"ES","id":6361029,"coord":{"lat":37.727619,"lon":-5.36379},"name":"Pe\u00f1aflor"},{"country":"ES","id":2512746,"coord":{"lat":37.70892,"lon":-5.34504},"name":"Penaflor"},{"country":"ES","id":6357761,"coord":{"lat":37.241821,"lon":-3.63316},"name":"Peligros"},{"country":"ES","id":2512767,"coord":{"lat":37.232311,"lon":-3.62901},"name":"Peligros"},{"country":"ES","id":6356834,"coord":{"lat":39.856621,"lon":-6.40504},"name":"Pedroso de Acim"},{"country":"ES","id":2512787,"coord":{"lat":39.825218,"lon":-6.41251},"name":"Pedroso de Acim"},{"country":"ES","id":6357155,"coord":{"lat":39.40406,"lon":-2.92229},"name":"Pedro Mu\u00f1oz"},{"country":"ES","id":2512794,"coord":{"lat":39.402851,"lon":-2.94664},"name":"Pedro Munoz"},{"country":"ES","id":6357760,"coord":{"lat":37.508621,"lon":-3.22309},"name":"Pedro Mart\u00ednez"},{"country":"ES","id":2512796,"coord":{"lat":37.502899,"lon":-3.23134},"name":"Pedro Martinez"},{"country":"ES","id":6357246,"coord":{"lat":38.417789,"lon":-4.74365},"name":"Pedroche"},{"country":"ES","id":2512805,"coord":{"lat":38.428478,"lon":-4.76324},"name":"Pedroche"},{"country":"ES","id":6357245,"coord":{"lat":37.97477,"lon":-4.46728},"name":"Pedro Abad"},{"country":"ES","id":2512812,"coord":{"lat":37.966862,"lon":-4.4556},"name":"Pedro Abad"},{"country":"ES","id":6361027,"coord":{"lat":37.201241,"lon":-4.90345},"name":"Pedrera"},{"country":"ES","id":2512824,"coord":{"lat":37.22604,"lon":-4.8942},"name":"Pedrera"},{"country":"ES","id":6358233,"coord":{"lat":37.73988,"lon":-7.32388},"name":"Paymogo"},{"country":"ES","id":2512846,"coord":{"lat":37.73999,"lon":-7.34499},"name":"Paymogo"},{"country":"ES","id":6357038,"coord":{"lat":39.970501,"lon":-0.47466},"name":"Pav\u00edas"},{"country":"ES","id":2512848,"coord":{"lat":39.966671,"lon":-0.48333},"name":"Pavias"},{"country":"ES","id":6356940,"coord":{"lat":36.521091,"lon":-5.84944},"name":"Paterna de Rivera"},{"country":"ES","id":2512857,"coord":{"lat":36.522461,"lon":-5.86578},"name":"Paterna de Rivera"},{"country":"ES","id":2512858,"coord":{"lat":37.022221,"lon":-2.95343},"name":"Paterna del Rio"},{"country":"ES","id":2512859,"coord":{"lat":38.597511,"lon":-2.34421},"name":"Paterna del Madera"},{"country":"ES","id":6358208,"coord":{"lat":37.503201,"lon":-6.3832},"name":"Escacena del Campo"},{"country":"ES","id":2512860,"coord":{"lat":37.419479,"lon":-6.40248},"name":"Paterna del Campo"},{"country":"ES","id":6355584,"coord":{"lat":37.41209,"lon":-2.22914},"name":"Partaloa"},{"country":"ES","id":2512891,"coord":{"lat":37.407639,"lon":-2.22526},"name":"Partaloa"},{"country":"ES","id":6355475,"coord":{"lat":38.743191,"lon":-0.07414},"name":"Parcent"},{"country":"ES","id":2512926,"coord":{"lat":38.745022,"lon":-0.06446},"name":"Parcent"},{"country":"ES","id":6359482,"coord":{"lat":36.665691,"lon":-5.08209},"name":"Parauta"},{"country":"ES","id":2512927,"coord":{"lat":36.656288,"lon":-5.12916},"name":"Parauta"},{"country":"ES","id":6357491,"coord":{"lat":39.735161,"lon":-1.74181},"name":"Paracuellos"},{"country":"ES","id":2512935,"coord":{"lat":39.716671,"lon":-1.78333},"name":"Paracuellos"},{"country":"ES","id":6357759,"coord":{"lat":36.966621,"lon":-3.37534},"name":"Pampaneira"},{"country":"ES","id":2512948,"coord":{"lat":36.940151,"lon":-3.36096},"name":"Pampaneira"},{"country":"ES","id":6355963,"coord":{"lat":38.701141,"lon":-6.16363},"name":"Palomas"},{"country":"ES","id":2512963,"coord":{"lat":38.692768,"lon":-6.1349},"name":"Palomas"},{"country":"ES","id":6357490,"coord":{"lat":39.94268,"lon":-2.62894},"name":"Palomares del Campo"},{"country":"ES","id":2512965,"coord":{"lat":39.94664,"lon":-2.59776},"name":"Palomares del Campo"},{"country":"ES","id":6362053,"coord":{"lat":38.94352,"lon":-0.15127},"name":"Palmera"},{"country":"ES","id":2512985,"coord":{"lat":38.93927,"lon":-0.15411},"name":"Palmera"},{"country":"ES","id":6357243,"coord":{"lat":37.25341,"lon":-4.58882},"name":"Palenciana"},{"country":"ES","id":2512998,"coord":{"lat":37.248508,"lon":-4.58261},"name":"Palenciana"},{"country":"ES","id":6357489,"coord":{"lat":39.953239,"lon":-1.72871},"name":"Pajaroncillo"},{"country":"ES","id":2513018,"coord":{"lat":39.950001,"lon":-1.73333},"name":"Pajaroncillo"},{"country":"ES","id":6357488,"coord":{"lat":39.98558,"lon":-1.81542},"name":"Pajar\u00f3n"},{"country":"ES","id":2513019,"coord":{"lat":39.950001,"lon":-1.78333},"name":"Pajaron"},{"country":"ES","id":6355583,"coord":{"lat":36.968891,"lon":-2.76968},"name":"Padules"},{"country":"ES","id":2513034,"coord":{"lat":36.998131,"lon":-2.77367},"name":"Padules"},{"country":"ES","id":2513035,"coord":{"lat":37.02462,"lon":-3.62678},"name":"Padul"},{"country":"ES","id":6357757,"coord":{"lat":37.07666,"lon":-3.65212},"name":"Otura"},{"country":"ES","id":2513045,"coord":{"lat":37.088459,"lon":-3.63321},"name":"Otura"},{"country":"ES","id":6362050,"coord":{"lat":38.879959,"lon":-0.44899},"name":"Otos"},{"country":"ES","id":2513046,"coord":{"lat":38.854271,"lon":-0.44399},"name":"Otos"},{"country":"ES","id":2513049,"coord":{"lat":36.815819,"lon":-3.67979},"name":"Otivar"},{"country":"ES","id":6361786,"coord":{"lat":40.017441,"lon":-4.50626},"name":"Otero"},{"country":"ES","id":2513051,"coord":{"lat":40.000961,"lon":-4.51539},"name":"Otero"},{"country":"ES","id":6355348,"coord":{"lat":38.976311,"lon":-2.76454},"name":"Ossa de Montiel"},{"country":"ES","id":2513053,"coord":{"lat":38.963982,"lon":-2.74553},"name":"Ossa de Montiel"},{"country":"ES","id":6357487,"coord":{"lat":39.64529,"lon":-2.7694},"name":"Osa de la Vega"},{"country":"ES","id":2513057,"coord":{"lat":39.659771,"lon":-2.75998},"name":"Osa de la Vega"},{"country":"ES","id":6361785,"coord":{"lat":39.966839,"lon":-5.20517},"name":"Oropesa"},{"country":"ES","id":2513069,"coord":{"lat":39.917259,"lon":-5.17371},"name":"Oropesa"},{"country":"ES","id":2513079,"coord":{"lat":37.485298,"lon":-2.29292},"name":"Oria"},{"country":"ES","id":6355473,"coord":{"lat":38.548389,"lon":-0.28825},"name":"Orxeta"},{"country":"ES","id":2513092,"coord":{"lat":38.563969,"lon":-0.26299},"name":"Orcheta"},{"country":"ES","id":2513094,"coord":{"lat":38.317421,"lon":-2.66487},"name":"Orcera"},{"country":"ES","id":6357754,"coord":{"lat":37.697659,"lon":-2.41029},"name":"Orce"},{"country":"ES","id":2513097,"coord":{"lat":37.721199,"lon":-2.47752},"name":"Orce"},{"country":"ES","id":6355347,"coord":{"lat":38.62846,"lon":-1.47099},"name":"Ontur"},{"country":"ES","id":2513103,"coord":{"lat":38.615089,"lon":-1.49724},"name":"Ontur"},{"country":"ES","id":6361783,"coord":{"lat":40.020981,"lon":-3.51735},"name":"Ont\u00edgola"},{"country":"ES","id":2513104,"coord":{"lat":40.004211,"lon":-3.57227},"name":"Ontigola"},{"country":"ES","id":6355471,"coord":{"lat":38.624378,"lon":-0.67257},"name":"Onil"},{"country":"ES","id":2513113,"coord":{"lat":38.62606,"lon":-0.67313},"name":"Onil"},{"country":"ES","id":6355470,"coord":{"lat":38.828949,"lon":0.02215},"name":"Ondara"},{"country":"ES","id":2513114,"coord":{"lat":38.828171,"lon":0.0172},"name":"Ondara"},{"country":"ES","id":6356939,"coord":{"lat":36.958401,"lon":-5.24888},"name":"Olvera"},{"country":"ES","id":2513120,"coord":{"lat":36.934181,"lon":-5.26678},"name":"Olvera"},{"country":"ES","id":2513121,"coord":{"lat":37.349998,"lon":-2.3},"name":"Olula del Rio"},{"country":"ES","id":2513122,"coord":{"lat":37.174751,"lon":-2.4743},"name":"Olula de Castro"},{"country":"ES","id":2513124,"coord":{"lat":39.700001,"lon":-0.53333},"name":"Olocau"},{"country":"ES","id":6357485,"coord":{"lat":39.614208,"lon":-2.11709},"name":"Olmedilla de Alarc\u00f3n"},{"country":"ES","id":2513126,"coord":{"lat":39.616669,"lon":-2.1},"name":"Olmedilla de Alarcon"},{"country":"ES","id":6357484,"coord":{"lat":39.838051,"lon":-2.06191},"name":"Olmeda del Rey"},{"country":"ES","id":2513128,"coord":{"lat":39.799999,"lon":-2.08333},"name":"Olmeda del Rey"},{"country":"ES","id":6362048,"coord":{"lat":38.910549,"lon":-0.54693},"name":"Olleria (l')"},{"country":"ES","id":2513130,"coord":{"lat":38.916672,"lon":-0.55},"name":"LOlleria"},{"country":"ES","id":6357482,"coord":{"lat":39.755241,"lon":-2.33101},"name":"Olivares de J\u00facar"},{"country":"ES","id":2513137,"coord":{"lat":39.761009,"lon":-2.35589},"name":"Olivares de Jucar"},{"country":"ES","id":6361022,"coord":{"lat":37.44735,"lon":-6.16425},"name":"Olivares"},{"country":"ES","id":2513140,"coord":{"lat":37.418018,"lon":-6.15603},"name":"Olivares"},{"country":"ES","id":2513142,"coord":{"lat":38.790508,"lon":-6.12402},"name":"Oliva de Merida"},{"country":"ES","id":6355958,"coord":{"lat":38.254211,"lon":-6.98528},"name":"Oliva de la Frontera"},{"country":"ES","id":2513143,"coord":{"lat":38.275951,"lon":-6.91874},"name":"Oliva de la Frontera"},{"country":"ES","id":6359535,"coord":{"lat":38.115978,"lon":-1.35667},"name":"Oj\u00f3s"},{"country":"ES","id":2513160,"coord":{"lat":38.146999,"lon":-1.34261},"name":"Ojos"},{"country":"ES","id":6355579,"coord":{"lat":37.064548,"lon":-2.76203},"name":"Ohanes"},{"country":"ES","id":2513166,"coord":{"lat":37.038609,"lon":-2.74524},"name":"Ohanes"},{"country":"ES","id":6361781,"coord":{"lat":39.956669,"lon":-3.4997},"name":"Oca\u00f1a"},{"country":"ES","id":2513175,"coord":{"lat":39.957851,"lon":-3.4982},"name":"Ocana"},{"country":"ES","id":2513179,"coord":{"lat":38.132648,"lon":-4.80018},"name":"Obejo"},{"country":"ES","id":6357241,"coord":{"lat":37.612141,"lon":-4.42737},"name":"Nueva Carteya"},{"country":"ES","id":2513184,"coord":{"lat":37.5863,"lon":-4.46759},"name":"Nueva-Carteya"},{"country":"ES","id":6355957,"coord":{"lat":38.60392,"lon":-6.73052},"name":"Nogales"},{"country":"ES","id":2513214,"coord":{"lat":38.586288,"lon":-6.74901},"name":"Nogales"},{"country":"ES","id":6361776,"coord":{"lat":39.739651,"lon":-4.15544},"name":"Noez"},{"country":"ES","id":2513215,"coord":{"lat":39.74094,"lon":-4.18408},"name":"Noez"},{"country":"ES","id":6361775,"coord":{"lat":40.002529,"lon":-3.42577},"name":"Noblejas"},{"country":"ES","id":2513216,"coord":{"lat":39.98061,"lon":-3.44001},"name":"Noblejas"},{"country":"ES","id":2513217,"coord":{"lat":37.53017,"lon":-3.65615},"name":"Noalejo"},{"country":"ES","id":6357752,"coord":{"lat":37.26762,"lon":-3.55253},"name":"N\u00edvar"},{"country":"ES","id":2513218,"coord":{"lat":37.25909,"lon":-3.57768},"name":"Nivar"},{"country":"ES","id":6357751,"coord":{"lat":36.996319,"lon":-3.48555},"name":"Nig\u00fcelas"},{"country":"ES","id":2513223,"coord":{"lat":36.9776,"lon":-3.53949},"name":"Niguelas"},{"country":"ES","id":6358229,"coord":{"lat":37.430641,"lon":-6.67988},"name":"Niebla"},{"country":"ES","id":2513230,"coord":{"lat":37.362129,"lon":-6.67894},"name":"Niebla"},{"country":"ES","id":6358228,"coord":{"lat":37.700321,"lon":-6.52662},"name":"Nerva"},{"country":"ES","id":2513237,"coord":{"lat":37.69627,"lon":-6.54968},"name":"Nerva"},{"country":"ES","id":6356829,"coord":{"lat":39.501991,"lon":-5.42558},"name":"Navezuelas"},{"country":"ES","id":2513288,"coord":{"lat":39.509178,"lon":-5.43766},"name":"Navezuelas"},{"country":"ES","id":2513298,"coord":{"lat":39.622898,"lon":-6.6526},"name":"Navas del Madrono"},{"country":"ES","id":6355345,"coord":{"lat":39.279469,"lon":-1.72045},"name":"Navas de Jorquera"},{"country":"ES","id":2513299,"coord":{"lat":39.283329,"lon":-1.71667},"name":"Navas de Jorquera"},{"country":"ES","id":6357154,"coord":{"lat":39.47369,"lon":-4.53312},"name":"Navas de Estena"},{"country":"ES","id":2513300,"coord":{"lat":39.494808,"lon":-4.52155},"name":"Navas de Estena"},{"country":"ES","id":6362044,"coord":{"lat":39.083858,"lon":-0.7436},"name":"Navarr\u00e9s"},{"country":"ES","id":2513306,"coord":{"lat":39.101978,"lon":-0.69469},"name":"Navarres"},{"country":"ES","id":6356827,"coord":{"lat":39.600712,"lon":-5.37411},"name":"Navalvillar de Ibor"},{"country":"ES","id":2513314,"coord":{"lat":39.5839,"lon":-5.41328},"name":"Navalvillar de Ibor"},{"country":"ES","id":6357153,"coord":{"lat":39.25153,"lon":-4.61591},"name":"Navalpino"},{"country":"ES","id":2513320,"coord":{"lat":39.225731,"lon":-4.59133},"name":"Navalpino"},{"country":"ES","id":6361771,"coord":{"lat":39.750221,"lon":-5.11844},"name":"Navalmoralejo"},{"country":"ES","id":2513323,"coord":{"lat":39.739281,"lon":-5.14359},"name":"Navalmoralejo"},{"country":"ES","id":6357032,"coord":{"lat":39.882809,"lon":-0.49985},"name":"Navajas"},{"country":"ES","id":2513343,"coord":{"lat":39.883331,"lon":-0.5},"name":"Navajas"},{"country":"ES","id":6357481,"coord":{"lat":39.756409,"lon":-1.48528},"name":"Narboneta"},{"country":"ES","id":2513372,"coord":{"lat":39.75,"lon":-1.46667},"name":"Narboneta"},{"country":"ES","id":2513403,"coord":{"lat":38.7812,"lon":-0.43608},"name":"Muro del Alcoy"},{"country":"ES","id":6355466,"coord":{"lat":38.76482,"lon":-0.07755},"name":"Murla"},{"country":"ES","id":2513408,"coord":{"lat":38.760368,"lon":-0.08208},"name":"Murla"},{"country":"ES","id":2513421,"coord":{"lat":39.042171,"lon":-2.48068},"name":"Munera"},{"country":"ES","id":6357480,"coord":{"lat":39.96328,"lon":-1.34025},"name":"Moya"},{"country":"ES","id":2513475,"coord":{"lat":39.950001,"lon":-1.36667},"name":"Moya"},{"country":"ES","id":2513476,"coord":{"lat":28.10136,"lon":-15.58917},"name":"Moya"},{"country":"ES","id":2513479,"coord":{"lat":39.183331,"lon":-1.78333},"name":"Motilleja"},{"country":"ES","id":6357479,"coord":{"lat":39.570911,"lon":-1.90681},"name":"Motilla del Palancar"},{"country":"ES","id":2513480,"coord":{"lat":39.566669,"lon":-1.88333},"name":"Motilla del Palancar"},{"country":"ES","id":6357478,"coord":{"lat":39.510132,"lon":-2.87378},"name":"Mota del Cuervo"},{"country":"ES","id":2513481,"coord":{"lat":39.501881,"lon":-2.86994},"name":"Mota del Cuervo"},{"country":"ES","id":6357477,"coord":{"lat":39.868931,"lon":-2.29666},"name":"Mota de Altarejos"},{"country":"ES","id":2513482,"coord":{"lat":39.882011,"lon":-2.30958},"name":"Mota de Altarejos"},{"country":"ES","id":2513558,"coord":{"lat":38.68866,"lon":0.13484},"name":"Moraira"},{"country":"ES","id":6357152,"coord":{"lat":38.791931,"lon":-3.57857},"name":"Moral de Calatrava"},{"country":"ES","id":2513580,"coord":{"lat":38.829891,"lon":-3.57813},"name":"Moral de Calatrava"},{"country":"ES","id":6357239,"coord":{"lat":37.484089,"lon":-4.57981},"name":"Monturque"},{"country":"ES","id":2513589,"coord":{"lat":37.471859,"lon":-4.58164},"name":"Monturque"},{"country":"ES","id":6533959,"coord":{"lat":39.566399,"lon":2.9806},"name":"Montu\u00efri"},{"country":"ES","id":2513590,"coord":{"lat":39.567421,"lon":2.98189},"name":"Montuiri"},{"country":"ES","id":2513592,"coord":{"lat":39.333328,"lon":-0.61667},"name":"Montroy"},{"country":"ES","id":2513597,"coord":{"lat":38.342491,"lon":-3.10404},"name":"Montizon"},{"country":"ES","id":2513599,"coord":{"lat":37.501678,"lon":-3.67368},"name":"Montillana"},{"country":"ES","id":6357151,"coord":{"lat":38.62949,"lon":-2.92145},"name":"Montiel"},{"country":"ES","id":2513606,"coord":{"lat":38.698021,"lon":-2.86441},"name":"Montiel"},{"country":"ES","id":6362040,"coord":{"lat":38.897942,"lon":-0.33491},"name":"Montichelvo"},{"country":"ES","id":2513607,"coord":{"lat":38.891289,"lon":-0.34123},"name":"Montichelvo"},{"country":"ES","id":6362039,"coord":{"lat":38.94186,"lon":-0.6351},"name":"Montesa"},{"country":"ES","id":2513614,"coord":{"lat":38.950298,"lon":-0.652},"name":"Montesa"},{"country":"ES","id":6355952,"coord":{"lat":38.69194,"lon":-5.38203},"name":"Monterrubio de la Serena"},{"country":"ES","id":2513618,"coord":{"lat":38.58876,"lon":-5.44569},"name":"Monterrubio de la Serena"},{"country":"ES","id":6355917,"coord":{"lat":38.22747,"lon":-6.26554},"name":"Fuente de Cantos"},{"country":"ES","id":2513628,"coord":{"lat":38.150002,"lon":-6.2},"name":"Montemolin"},{"country":"ES","id":6357236,"coord":{"lat":37.654591,"lon":-4.65714},"name":"Montemayor"},{"country":"ES","id":2513632,"coord":{"lat":37.6479,"lon":-4.69779},"name":"Montemayor"},{"country":"ES","id":6361019,"coord":{"lat":36.997261,"lon":-5.53448},"name":"Montellano"},{"country":"ES","id":2513637,"coord":{"lat":36.995312,"lon":-5.57145},"name":"Montellano"},{"country":"ES","id":6359479,"coord":{"lat":36.728409,"lon":-5.28519},"name":"Montejaque"},{"country":"ES","id":2513639,"coord":{"lat":36.736839,"lon":-5.2499},"name":"Montejaque"},{"country":"ES","id":6357745,"coord":{"lat":37.344429,"lon":-4.03292},"name":"Montefr\u00edo"},{"country":"ES","id":2513640,"coord":{"lat":37.323078,"lon":-4.00898},"name":"Montefrio"},{"country":"ES","id":6361764,"coord":{"lat":39.95808,"lon":-4.63373},"name":"Montearag\u00f3n"},{"country":"ES","id":2513647,"coord":{"lat":39.964249,"lon":-4.63214},"name":"Montearagon"},{"country":"ES","id":6355342,"coord":{"lat":38.73753,"lon":-1.29664},"name":"Montealegre del Castillo"},{"country":"ES","id":2513649,"coord":{"lat":38.788559,"lon":-1.32722},"name":"Montealegre del Castillo"},{"country":"ES","id":6357476,"coord":{"lat":39.81612,"lon":-1.90703},"name":"Monteagudo de las Salinas"},{"country":"ES","id":2513651,"coord":{"lat":39.799999,"lon":-1.9},"name":"Monteagudo de las Salinas"},{"country":"ES","id":6356821,"coord":{"lat":39.194351,"lon":-6.19072},"name":"Mont\u00e1nchez"},{"country":"ES","id":2513659,"coord":{"lat":39.225479,"lon":-6.14914},"name":"Montanchez"},{"country":"ES","id":6355341,"coord":{"lat":39.183331,"lon":-2.02014},"name":"Montalvos"},{"country":"ES","id":2513665,"coord":{"lat":39.166672,"lon":-2.01667},"name":"Montalvos"},{"country":"ES","id":6357475,"coord":{"lat":39.85989,"lon":-2.67079},"name":"Montalbo"},{"country":"ES","id":2513667,"coord":{"lat":39.87994,"lon":-2.67038},"name":"Montalbo"},{"country":"ES","id":6357474,"coord":{"lat":39.748562,"lon":-2.49021},"name":"Montalbanejo"},{"country":"ES","id":2513670,"coord":{"lat":39.7337,"lon":-2.49911},"name":"Montalbanejo"},{"country":"ES","id":6357235,"coord":{"lat":37.548439,"lon":-4.75248},"name":"Montalb\u00e1n de C\u00f3rdoba"},{"country":"ES","id":2513671,"coord":{"lat":37.57996,"lon":-4.74935},"name":"Montalban de Cordoba"},{"country":"ES","id":6361871,"coord":{"lat":38.853981,"lon":-0.52591},"name":"Albaida"},{"country":"ES","id":2513673,"coord":{"lat":38.890209,"lon":-0.49582},"name":"Montaberner"},{"country":"ES","id":6357473,"coord":{"lat":39.557781,"lon":-2.77176},"name":"Monreal del Llano"},{"country":"ES","id":2513678,"coord":{"lat":39.568878,"lon":-2.76046},"name":"Monreal del Llano"},{"country":"ES","id":2513691,"coord":{"lat":38.380268,"lon":-0.7285},"name":"Monforte del Cid"},{"country":"ES","id":6355950,"coord":{"lat":38.038658,"lon":-6.1699},"name":"Monesterio"},{"country":"ES","id":2513692,"coord":{"lat":38.083328,"lon":-6.26667},"name":"Monesterio"},{"country":"ES","id":6359478,"coord":{"lat":36.625019,"lon":-4.84757},"name":"Monda"},{"country":"ES","id":2513699,"coord":{"lat":36.630268,"lon":-4.83192},"name":"Monda"},{"country":"ES","id":6357028,"coord":{"lat":39.797588,"lon":-0.14863},"name":"Moncofa"},{"country":"ES","id":2513700,"coord":{"lat":39.809071,"lon":-0.14701},"name":"Moncofar"},{"country":"ES","id":6357743,"coord":{"lat":36.793449,"lon":-3.6001},"name":"Molv\u00edzar"},{"country":"ES","id":2513713,"coord":{"lat":36.785919,"lon":-3.60782},"name":"Molvizar"},{"country":"ES","id":6359477,"coord":{"lat":37.137852,"lon":-4.64128},"name":"Mollina"},{"country":"ES","id":2513717,"coord":{"lat":37.12534,"lon":-4.65686},"name":"Mollina"},{"country":"ES","id":6355576,"coord":{"lat":37.121449,"lon":-1.85515},"name":"Moj\u00e1car"},{"country":"ES","id":2513786,"coord":{"lat":37.140202,"lon":-1.85102},"name":"Mojacar"},{"country":"ES","id":6361763,"coord":{"lat":39.60207,"lon":-5.15632},"name":"Mohedas de la Jara"},{"country":"ES","id":2513788,"coord":{"lat":39.604172,"lon":-5.14247},"name":"Mohedas de la Jara"},{"country":"ES","id":6359476,"coord":{"lat":36.767281,"lon":-4.26082},"name":"Moclinejo"},{"country":"ES","id":2513800,"coord":{"lat":36.771339,"lon":-4.25514},"name":"Moclinejo"},{"country":"ES","id":6357742,"coord":{"lat":37.35656,"lon":-3.79464},"name":"Mocl\u00edn"},{"country":"ES","id":2513801,"coord":{"lat":37.339588,"lon":-3.78651},"name":"Moclin"},{"country":"ES","id":6361762,"coord":{"lat":39.918049,"lon":-3.90916},"name":"Mocej\u00f3n"},{"country":"ES","id":2513803,"coord":{"lat":39.939339,"lon":-3.91716},"name":"Mocejon"},{"country":"ES","id":6355949,"coord":{"lat":39.03027,"lon":-6.28019},"name":"Mirandilla"},{"country":"ES","id":2513821,"coord":{"lat":39.001999,"lon":-6.28893},"name":"Mirandilla"},{"country":"ES","id":6362033,"coord":{"lat":38.95612,"lon":-0.13393},"name":"Miramar"},{"country":"ES","id":2513827,"coord":{"lat":38.950359,"lon":-0.14007},"name":"Miramar"},{"country":"ES","id":6356818,"coord":{"lat":39.863991,"lon":-6.22992},"name":"Mirabel"},{"country":"ES","id":2513840,"coord":{"lat":39.862301,"lon":-6.23274},"name":"Mirabel"},{"country":"ES","id":6357472,"coord":{"lat":39.6674,"lon":-1.49731},"name":"Mira"},{"country":"ES","id":2513844,"coord":{"lat":39.716671,"lon":-1.43333},"name":"Mira"},{"country":"ES","id":6357471,"coord":{"lat":39.501621,"lon":-1.55507},"name":"Minglanilla"},{"country":"ES","id":2513852,"coord":{"lat":39.533329,"lon":-1.6},"name":"Minglanilla"},{"country":"ES","id":6355339,"coord":{"lat":39.215569,"lon":-2.31107},"name":"Minaya"},{"country":"ES","id":2513855,"coord":{"lat":39.270519,"lon":-2.32176},"name":"Minaya"},{"country":"ES","id":6355462,"coord":{"lat":38.737301,"lon":-0.37901},"name":"Millena"},{"country":"ES","id":2513873,"coord":{"lat":38.73082,"lon":-0.36274},"name":"Millena"},{"country":"ES","id":6362032,"coord":{"lat":39.227692,"lon":-0.7708},"name":"Millares"},{"country":"ES","id":2513874,"coord":{"lat":39.25,"lon":-0.76667},"name":"Millares"},{"country":"ES","id":6356817,"coord":{"lat":39.85598,"lon":-5.56453},"name":"Millanes"},{"country":"ES","id":2513875,"coord":{"lat":39.849171,"lon":-5.58079},"name":"Millanes"},{"country":"ES","id":6361761,"coord":{"lat":39.519329,"lon":-3.10345},"name":"Miguel Esteban"},{"country":"ES","id":2513886,"coord":{"lat":39.524479,"lon":-3.07618},"name":"Miguel Esteban"},{"country":"ES","id":2513902,"coord":{"lat":38.57616,"lon":-4.07096},"name":"Mestanza"},{"country":"ES","id":6356815,"coord":{"lat":39.764961,"lon":-5.54562},"name":"Mesas de Ibor"},{"country":"ES","id":2513910,"coord":{"lat":39.755871,"lon":-5.54637},"name":"Mesas de Ibor"},{"country":"ES","id":6358511,"coord":{"lat":37.970139,"lon":-3.79645},"name":"Meng\u00edbar"},{"country":"ES","id":2513931,"coord":{"lat":37.96978,"lon":-3.80884},"name":"Mengibar"},{"country":"ES","id":6355947,"coord":{"lat":38.919201,"lon":-5.94162},"name":"Mengabril"},{"country":"ES","id":2513932,"coord":{"lat":38.935539,"lon":-5.93335},"name":"Mengabril"},{"country":"ES","id":2513944,"coord":{"lat":38.971981,"lon":-3.3433},"name":"Membrilla"},{"country":"ES","id":6355946,"coord":{"lat":38.324982,"lon":-6.42336},"name":"Medina de las Torres"},{"country":"ES","id":2513962,"coord":{"lat":38.333328,"lon":-6.4},"name":"Medina de las Torres"},{"country":"ES","id":6355945,"coord":{"lat":38.962471,"lon":-5.99251},"name":"Medell\u00edn"},{"country":"ES","id":2513968,"coord":{"lat":38.96265,"lon":-5.95785},"name":"Medellin"},{"country":"ES","id":6534201,"coord":{"lat":28.588499,"lon":-17.776871},"name":"Villa De Mazo"},{"country":"ES","id":2513978,"coord":{"lat":28.60906,"lon":-17.778009},"name":"Mazo"},{"country":"ES","id":6361756,"coord":{"lat":39.640079,"lon":-4.0653},"name":"Mazarambroz"},{"country":"ES","id":2513985,"coord":{"lat":39.694111,"lon":-4.01962},"name":"Mazarambroz"},{"country":"ES","id":6357027,"coord":{"lat":39.947971,"lon":-0.45762},"name":"Matet"},{"country":"ES","id":2514004,"coord":{"lat":39.933331,"lon":-0.46667},"name":"Matet"},{"country":"ES","id":6356813,"coord":{"lat":39.707649,"lon":-6.79011},"name":"Mata de Alc\u00e1ntara"},{"country":"ES","id":2514032,"coord":{"lat":39.717381,"lon":-6.81825},"name":"Mata de Alcantara"},{"country":"ES","id":6355338,"coord":{"lat":38.73185,"lon":-2.33574},"name":"Masegoso"},{"country":"ES","id":2514052,"coord":{"lat":38.71833,"lon":-2.3161},"name":"Masegoso"},{"country":"ES","id":6361754,"coord":{"lat":39.747761,"lon":-3.80216},"name":"Mascaraque"},{"country":"ES","id":2514061,"coord":{"lat":39.716431,"lon":-3.81254},"name":"Mascaraque"},{"country":"ES","id":6362027,"coord":{"lat":39.152012,"lon":-0.51414},"name":"Masalav\u00e9s"},{"country":"ES","id":2514068,"coord":{"lat":39.143768,"lon":-0.5226},"name":"Masalaves"},{"country":"ES","id":6361017,"coord":{"lat":37.139339,"lon":-4.96794},"name":"Mart\u00edn de la Jara"},{"country":"ES","id":2514084,"coord":{"lat":37.108669,"lon":-4.96347},"name":"Martin de la Jara"},{"country":"ES","id":6358509,"coord":{"lat":38.07576,"lon":-4.16748},"name":"Marmolejo"},{"country":"ES","id":2514107,"coord":{"lat":38.04549,"lon":-4.17029},"name":"Marmolejo"},{"country":"ES","id":6361752,"coord":{"lat":39.55183,"lon":-3.96261},"name":"Marjaliza"},{"country":"ES","id":2514111,"coord":{"lat":39.56329,"lon":-3.93499},"name":"Marjaliza"},{"country":"ES","id":6356971,"coord":{"lat":39.829449,"lon":-0.56118},"name":"Altura"},{"country":"ES","id":2514117,"coord":{"lat":39.74165,"lon":-0.53103},"name":"Marines"},{"country":"ES","id":6361016,"coord":{"lat":37.370289,"lon":-4.94233},"name":"Marinaleda"},{"country":"ES","id":2514120,"coord":{"lat":37.371201,"lon":-4.95949},"name":"Marinaleda"},{"country":"ES","id":6533956,"coord":{"lat":39.66227,"lon":3.07102},"name":"Maria de la Salut"},{"country":"ES","id":2514134,"coord":{"lat":39.663059,"lon":3.073},"name":"Maria de la Salut"},{"country":"ES","id":2514139,"coord":{"lat":37.710232,"lon":-2.16454},"name":"Maria"},{"country":"ES","id":2514163,"coord":{"lat":37.296391,"lon":-3.20353},"name":"Marchal"},{"country":"ES","id":6358223,"coord":{"lat":37.394871,"lon":-6.43427},"name":"Manzanilla"},{"country":"ES","id":2514185,"coord":{"lat":37.38987,"lon":-6.43295},"name":"Manzanilla"},{"country":"ES","id":6361750,"coord":{"lat":39.64016,"lon":-3.7935},"name":"Manzaneque"},{"country":"ES","id":2514189,"coord":{"lat":39.63549,"lon":-3.79249},"name":"Manzaneque"},{"country":"ES","id":6362025,"coord":{"lat":39.055679,"lon":-0.49078},"name":"Manuel"},{"country":"ES","id":2514192,"coord":{"lat":39.050591,"lon":-0.48978},"name":"Manuel"},{"country":"ES","id":6533955,"coord":{"lat":39.74844,"lon":2.87134},"name":"Mancor de la Vall"},{"country":"ES","id":2514203,"coord":{"lat":39.74966,"lon":2.87284},"name":"Mancor de la Vall"},{"country":"ES","id":2514207,"coord":{"lat":38.814041,"lon":-6.02041},"name":"Manchita"},{"country":"ES","id":2514211,"coord":{"lat":37.78627,"lon":-3.61226},"name":"Mancha Real"},{"country":"ES","id":6361698,"coord":{"lat":39.857899,"lon":-4.47496},"name":"Carpio de Tajo (El)"},{"country":"ES","id":2514219,"coord":{"lat":39.897461,"lon":-4.54988},"name":"Malpica"},{"country":"ES","id":6355943,"coord":{"lat":38.698582,"lon":-5.62408},"name":"Malpartida de la Serena"},{"country":"ES","id":2514226,"coord":{"lat":38.674702,"lon":-5.64054},"name":"Malpartida de la Serena"},{"country":"ES","id":6355942,"coord":{"lat":38.13092,"lon":-5.70725},"name":"Malcocinado"},{"country":"ES","id":2514243,"coord":{"lat":38.116669,"lon":-5.68333},"name":"Malcocinado"},{"country":"ES","id":6356809,"coord":{"lat":39.955029,"lon":-5.77591},"name":"Majadas"},{"country":"ES","id":2514279,"coord":{"lat":39.942909,"lon":-5.74589},"name":"Majadas"},{"country":"ES","id":6355337,"coord":{"lat":39.19352,"lon":-1.71149},"name":"Mahora"},{"country":"ES","id":2514297,"coord":{"lat":39.216671,"lon":-1.73333},"name":"Mahora"},{"country":"ES","id":6355941,"coord":{"lat":38.381111,"lon":-5.82525},"name":"Maguilla"},{"country":"ES","id":2514304,"coord":{"lat":38.366669,"lon":-5.83333},"name":"Maguilla"},{"country":"ES","id":6361748,"coord":{"lat":39.968342,"lon":-3.93095},"name":"Mag\u00e1n"},{"country":"ES","id":2514314,"coord":{"lat":39.96138,"lon":-3.93164},"name":"Magan"},{"country":"ES","id":6355940,"coord":{"lat":38.881069,"lon":-5.72192},"name":"Magacela"},{"country":"ES","id":2514316,"coord":{"lat":38.896481,"lon":-5.73437},"name":"Magacela"},{"country":"ES","id":6355336,"coord":{"lat":39.22554,"lon":-1.81371},"name":"Madrigueras"},{"country":"ES","id":2514332,"coord":{"lat":39.23333,"lon":-1.8},"name":"Madrigueras"},{"country":"ES","id":6356807,"coord":{"lat":39.149551,"lon":-5.63741},"name":"Madrigalejo"},{"country":"ES","id":2514333,"coord":{"lat":39.13858,"lon":-5.6274},"name":"Madrigalejo"},{"country":"ES","id":2514334,"coord":{"lat":39.468231,"lon":-3.53196},"name":"Madridejos"},{"country":"ES","id":6362023,"coord":{"lat":39.353168,"lon":-0.80081},"name":"Macastre"},{"country":"ES","id":2514359,"coord":{"lat":39.383331,"lon":-0.78333},"name":"Macastre"},{"country":"ES","id":6355574,"coord":{"lat":37.309738,"lon":-2.30119},"name":"Macael"},{"country":"ES","id":2514360,"coord":{"lat":37.333179,"lon":-2.30087},"name":"Macael"},{"country":"ES","id":2514367,"coord":{"lat":37.557968,"lon":-4.27974},"name":"Luque"},{"country":"ES","id":6357738,"coord":{"lat":36.778461,"lon":-3.37406},"name":"L\u00fajar"},{"country":"ES","id":2514371,"coord":{"lat":36.788311,"lon":-3.404},"name":"Lujar"},{"country":"ES","id":6357737,"coord":{"lat":37.210468,"lon":-3.2424},"name":"Lugros"},{"country":"ES","id":2514373,"coord":{"lat":37.22942,"lon":-3.2415},"name":"Lugros"},{"country":"ES","id":6362018,"coord":{"lat":38.904282,"lon":-0.28902},"name":"Llocnou de Sant Jeroni"},{"country":"ES","id":2514374,"coord":{"lat":38.916672,"lon":-0.28333},"name":"Llocnou de Sant Jeroni"},{"country":"ES","id":6361746,"coord":{"lat":40.002022,"lon":-4.62111},"name":"Lucillos"},{"country":"ES","id":2514383,"coord":{"lat":39.9851,"lon":-4.61279},"name":"Lucillos"},{"country":"ES","id":6362015,"coord":{"lat":38.943508,"lon":-0.33375},"name":"Llutxent"},{"country":"ES","id":2514386,"coord":{"lat":38.933331,"lon":-0.35},"name":"Llutxent"},{"country":"ES","id":2514389,"coord":{"lat":37.303959,"lon":-6.72926},"name":"Lucena del Puerto"},{"country":"ES","id":2514395,"coord":{"lat":37.400349,"lon":-2.42496},"name":"Lucar"},{"country":"ES","id":6355571,"coord":{"lat":37.219761,"lon":-2.06612},"name":"Lubr\u00edn"},{"country":"ES","id":2514399,"coord":{"lat":37.215382,"lon":-2.06678},"name":"Lubrin"},{"country":"ES","id":6360642,"coord":{"lat":28.358431,"lon":-16.812941},"name":"Silos (Los)"},{"country":"ES","id":2514452,"coord":{"lat":28.3661,"lon":-16.815519},"name":"Los Silos"},{"country":"ES","id":2514460,"coord":{"lat":38.450001,"lon":-6.38333},"name":"Los Santos de Maimona"},{"country":"ES","id":6361772,"coord":{"lat":39.70631,"lon":-4.61443},"name":"Navalmorales (Los)"},{"country":"ES","id":2514574,"coord":{"lat":39.725262,"lon":-4.64227},"name":"Los Navalmorales"},{"country":"ES","id":6361018,"coord":{"lat":37.159962,"lon":-5.69152},"name":"Molares (Los)"},{"country":"ES","id":2514601,"coord":{"lat":37.15704,"lon":-5.71802},"name":"Los Molares"},{"country":"ES","id":6357449,"coord":{"lat":39.602249,"lon":-2.85575},"name":"Hinojosos (Los)"},{"country":"ES","id":2514687,"coord":{"lat":39.604172,"lon":-2.82572},"name":"Los Hinojosos"},{"country":"ES","id":6360992,"coord":{"lat":37.117859,"lon":-5.02136},"name":"Corrales (Los)"},{"country":"ES","id":2514747,"coord":{"lat":37.099178,"lon":-4.98429},"name":"Los Corrales"},{"country":"ES","id":6359530,"coord":{"lat":38.098499,"lon":-1.25256},"name":"Lorqu\u00ed"},{"country":"ES","id":2514883,"coord":{"lat":38.082611,"lon":-1.25103},"name":"Lorqui"},{"country":"ES","id":6361009,"coord":{"lat":37.276508,"lon":-4.82082},"name":"Lora de Estepa"},{"country":"ES","id":2514894,"coord":{"lat":37.26926,"lon":-4.82759},"name":"Lora de Estepa"},{"country":"ES","id":2514896,"coord":{"lat":37.945419,"lon":-4.21463},"name":"Lopera"},{"country":"ES","id":6356804,"coord":{"lat":39.27943,"lon":-5.49582},"name":"Logros\u00e1n"},{"country":"ES","id":2514947,"coord":{"lat":39.336411,"lon":-5.49281},"name":"Logrosan"},{"country":"ES","id":2514958,"coord":{"lat":36.92849,"lon":-3.2123},"name":"Lobras"},{"country":"ES","id":6533951,"coord":{"lat":39.699001,"lon":3.0045},"name":"Llub\u00ed"},{"country":"ES","id":2514987,"coord":{"lat":39.699329,"lon":3.00681},"name":"Llubi"},{"country":"ES","id":6533950,"coord":{"lat":39.71785,"lon":2.86589},"name":"Lloseta"},{"country":"ES","id":2514988,"coord":{"lat":39.718491,"lon":2.8669},"name":"Lloseta"},{"country":"ES","id":2514989,"coord":{"lat":39.021629,"lon":-0.53803},"name":"Llosa de Ranes"},{"country":"ES","id":6533949,"coord":{"lat":39.617592,"lon":2.97249},"name":"Lloret de Vistalegre"},{"country":"ES","id":2514991,"coord":{"lat":39.618351,"lon":2.97493},"name":"Lloret de Vistalegre"},{"country":"ES","id":2514994,"coord":{"lat":39.283329,"lon":-0.56667},"name":"Llombai"},{"country":"ES","id":2515002,"coord":{"lat":38.23333,"lon":-6.01667},"name":"Llerena"},{"country":"ES","id":2515003,"coord":{"lat":38.450001,"lon":-6.05},"name":"Llera"},{"country":"ES","id":2515005,"coord":{"lat":39.146709,"lon":-0.32944},"name":"Llauri"},{"country":"ES","id":2515024,"coord":{"lat":38.995071,"lon":-0.57534},"name":"Llanera de Ranes"},{"country":"ES","id":6358221,"coord":{"lat":37.850521,"lon":-6.60984},"name":"Linares de la Sierra"},{"country":"ES","id":2515041,"coord":{"lat":37.879631,"lon":-6.62321},"name":"Linares de la Sierra"},{"country":"ES","id":6361744,"coord":{"lat":39.708851,"lon":-3.34683},"name":"Lillo"},{"country":"ES","id":2515055,"coord":{"lat":39.723309,"lon":-3.30618},"name":"Lillo"},{"country":"ES","id":6359528,"coord":{"lat":37.903309,"lon":-1.34156},"name":"Librilla"},{"country":"ES","id":2515060,"coord":{"lat":37.886421,"lon":-1.35557},"name":"Librilla"},{"country":"ES","id":6355333,"coord":{"lat":38.350121,"lon":-2.1295},"name":"Letur"},{"country":"ES","id":2515070,"coord":{"lat":38.366261,"lon":-2.10206},"name":"Letur"},{"country":"ES","id":6357734,"coord":{"lat":36.847019,"lon":-3.69468},"name":"Lenteg\u00ed"},{"country":"ES","id":2515083,"coord":{"lat":36.836128,"lon":-3.67426},"name":"Lentegi"},{"country":"ES","id":6357465,"coord":{"lat":39.356079,"lon":-1.71254},"name":"Leda\u00f1a"},{"country":"ES","id":2515093,"coord":{"lat":39.366669,"lon":-1.7},"name":"Ledana"},{"country":"ES","id":6361743,"coord":{"lat":39.769798,"lon":-4.05858},"name":"Layos"},{"country":"ES","id":2515108,"coord":{"lat":39.777031,"lon":-4.06448},"name":"Layos"},{"country":"ES","id":6362126,"coord":{"lat":39.897881,"lon":-0.95959},"name":"La Yesa"},{"country":"ES","id":2515110,"coord":{"lat":39.883331,"lon":-0.95},"name":"La Yesa"},{"country":"ES","id":6357260,"coord":{"lat":37.685661,"lon":-4.85516},"name":"Victoria (La)"},{"country":"ES","id":2515119,"coord":{"lat":37.681259,"lon":-4.85199},"name":"La Victoria"},{"country":"ES","id":2515158,"coord":{"lat":36.995159,"lon":-2.89033},"name":"Laujar de Andarax"},{"country":"ES","id":6357495,"coord":{"lat":39.438431,"lon":-2.62643},"name":"Pedro\u00f1eras (Las)"},{"country":"ES","id":2515261,"coord":{"lat":39.44997,"lon":-2.67394},"name":"Las Pedroneras"},{"country":"ES","id":6357470,"coord":{"lat":39.37249,"lon":-2.74705},"name":"Mesas (Las)"},{"country":"ES","id":2515319,"coord":{"lat":39.38871,"lon":-2.76524},"name":"Las Mesas"},{"country":"ES","id":6358504,"coord":{"lat":37.762039,"lon":-3.19357},"name":"Larva"},{"country":"ES","id":2515543,"coord":{"lat":37.760689,"lon":-3.20269},"name":"Larva"},{"country":"ES","id":6355568,"coord":{"lat":37.288818,"lon":-2.33957},"name":"Laroya"},{"country":"ES","id":2515546,"coord":{"lat":37.29771,"lon":-2.33419},"name":"Laroya"},{"country":"ES","id":6355488,"coord":{"lat":38.356781,"lon":-0.89666},"name":"Romana (la)"},{"country":"ES","id":2515550,"coord":{"lat":38.367531,"lon":-0.89862},"name":"La Romana"},{"country":"ES","id":6355980,"coord":{"lat":39.084332,"lon":-6.65932},"name":"Roca de la Sierra (La)"},{"country":"ES","id":2515557,"coord":{"lat":39.109661,"lon":-6.68916},"name":"La Roca de la Sierra"},{"country":"ES","id":6357252,"coord":{"lat":37.672428,"lon":-4.81261},"name":"Rambla (La)"},{"country":"ES","id":2515597,"coord":{"lat":37.607601,"lon":-4.73962},"name":"La Rambla"},{"country":"ES","id":6361033,"coord":{"lat":37.813271,"lon":-5.41071},"name":"Puebla de los Infantes (La)"},{"country":"ES","id":2515621,"coord":{"lat":37.780899,"lon":-5.38837},"name":"La Puebla de los Infantes"},{"country":"ES","id":2515622,"coord":{"lat":37.22155,"lon":-5.31153},"name":"La Puebla de Cazalla"},{"country":"ES","id":6361795,"coord":{"lat":39.607071,"lon":-3.14387},"name":"Puebla de Almoradiel (La)"},{"country":"ES","id":2515623,"coord":{"lat":39.598621,"lon":-3.11782},"name":"La Puebla de Almoradiel"},{"country":"ES","id":6533965,"coord":{"lat":39.767841,"lon":3.02158},"name":"Sa Pobla"},{"country":"ES","id":2515624,"coord":{"lat":39.769199,"lon":3.02394},"name":"sa Pobla"},{"country":"ES","id":6357732,"coord":{"lat":37.16758,"lon":-3.13016},"name":"Lanteira"},{"country":"ES","id":2515703,"coord":{"lat":37.168709,"lon":-3.13823},"name":"Lanteira"},{"country":"ES","id":6357464,"coord":{"lat":39.904259,"lon":-1.35435},"name":"Landete"},{"country":"ES","id":2515709,"coord":{"lat":39.900002,"lon":-1.36667},"name":"Landete"},{"country":"ES","id":6355955,"coord":{"lat":39.076248,"lon":-6.51479},"name":"Nava de Santiago (La)"},{"country":"ES","id":2515717,"coord":{"lat":39.063278,"lon":-6.50525},"name":"La Nava de Santiago"},{"country":"ES","id":2515772,"coord":{"lat":28.452419,"lon":-16.447201},"name":"La Matanza de Acentejo"},{"country":"ES","id":2515801,"coord":{"lat":37.52602,"lon":-5.24883},"name":"La Luisiana"},{"country":"ES","id":2515814,"coord":{"lat":37.3535,"lon":-5.22477},"name":"La Lantejuela"},{"country":"ES","id":2515900,"coord":{"lat":38.919281,"lon":-5.80034},"name":"La Haba"},{"country":"ES","id":6360628,"coord":{"lat":28.378889,"lon":-16.660351},"name":"La Guancha"},{"country":"ES","id":2515911,"coord":{"lat":28.37294,"lon":-16.660789},"name":"La Guancha"},{"country":"ES","id":2515928,"coord":{"lat":39.905571,"lon":-5.20143},"name":"Lagartera"},{"country":"ES","id":2515929,"coord":{"lat":38.919609,"lon":-6.47747},"name":"La Garrovilla"},{"country":"ES","id":2516024,"coord":{"lat":39.404598,"lon":-5.97636},"name":"La Cumbre"},{"country":"ES","id":6355904,"coord":{"lat":38.95182,"lon":-5.64725},"name":"Coronada (La)"},{"country":"ES","id":2516049,"coord":{"lat":38.92046,"lon":-5.66978},"name":"La Coronada"},{"country":"ES","id":2516228,"coord":{"lat":38.717789,"lon":-6.82326},"name":"La Albuera"},{"country":"ES","id":6357368,"coord":{"lat":39.512989,"lon":-2.49836},"name":"Alberca de Z\u00e1ncara (La)"},{"country":"ES","id":2516230,"coord":{"lat":39.51458,"lon":-2.49272},"name":"La Alberca de Zancara"},{"country":"ES","id":2516237,"coord":{"lat":36.62442,"lon":-5.16971},"name":"Juzcar"},{"country":"ES","id":6357728,"coord":{"lat":36.96632,"lon":-3.23289},"name":"Juviles"},{"country":"ES","id":2516238,"coord":{"lat":36.948792,"lon":-3.22586},"name":"Juviles"},{"country":"ES","id":6357727,"coord":{"lat":37.217209,"lon":-3.5893},"name":"Jun"},{"country":"ES","id":2516254,"coord":{"lat":37.220829,"lon":-3.59407},"name":"Jun"},{"country":"ES","id":6359469,"coord":{"lat":36.568489,"lon":-5.21867},"name":"Jubrique"},{"country":"ES","id":2516269,"coord":{"lat":36.564751,"lon":-5.2156},"name":"Jubrique"},{"country":"ES","id":6355332,"coord":{"lat":39.156281,"lon":-1.54245},"name":"Jorquera"},{"country":"ES","id":2516295,"coord":{"lat":39.166672,"lon":-1.51667},"name":"Jorquera"},{"country":"ES","id":6358503,"coord":{"lat":37.838322,"lon":-3.3487},"name":"J\u00f3dar"},{"country":"ES","id":2516304,"coord":{"lat":37.840641,"lon":-3.35262},"name":"Jodar"},{"country":"ES","id":6359468,"coord":{"lat":36.652012,"lon":-5.28069},"name":"Jimera de L\u00edbar"},{"country":"ES","id":2516313,"coord":{"lat":36.651192,"lon":-5.27412},"name":"Jimera de Libar"},{"country":"ES","id":6358502,"coord":{"lat":37.83831,"lon":-3.51921},"name":"Jimena"},{"country":"ES","id":2516317,"coord":{"lat":37.84156,"lon":-3.4771},"name":"Jimena"},{"country":"ES","id":2516318,"coord":{"lat":38.540859,"lon":-0.50263},"name":"Jijona"},{"country":"ES","id":6357022,"coord":{"lat":39.899849,"lon":-0.58597},"name":"J\u00e9rica"},{"country":"ES","id":2516324,"coord":{"lat":39.916672,"lon":-0.56667},"name":"Jerica"},{"country":"ES","id":6357725,"coord":{"lat":37.165279,"lon":-3.18807},"name":"Jerez del Marquesado"},{"country":"ES","id":2516327,"coord":{"lat":37.183819,"lon":-3.15961},"name":"Jeres del Marquesado"},{"country":"ES","id":6362011,"coord":{"lat":39.012959,"lon":-0.23503},"name":"Xeresa"},{"country":"ES","id":2516330,"coord":{"lat":39.01667,"lon":-0.21667},"name":"Xeresa"},{"country":"ES","id":6357724,"coord":{"lat":36.936909,"lon":-3.79427},"name":"Jayena"},{"country":"ES","id":2516334,"coord":{"lat":36.9492,"lon":-3.82313},"name":"Jayena"},{"country":"ES","id":6356799,"coord":{"lat":39.695068,"lon":-5.85403},"name":"Jaraicejo"},{"country":"ES","id":2516367,"coord":{"lat":39.666241,"lon":-5.81308},"name":"Jaraicejo"},{"country":"ES","id":6362009,"coord":{"lat":39.147209,"lon":-1.0824},"name":"Jarafuel"},{"country":"ES","id":2516369,"coord":{"lat":39.140129,"lon":-1.07306},"name":"Jarafuel"},{"country":"ES","id":6358501,"coord":{"lat":37.737869,"lon":-3.91638},"name":"Jamilena"},{"country":"ES","id":2516386,"coord":{"lat":37.747162,"lon":-3.91434},"name":"Jamilena"},{"country":"ES","id":2516389,"coord":{"lat":38.740631,"lon":-0.01129},"name":"Jalon"},{"country":"ES","id":6362007,"coord":{"lat":39.208721,"lon":-1.11527},"name":"Jalance"},{"country":"ES","id":2516390,"coord":{"lat":39.200001,"lon":-1.06667},"name":"Jalance"},{"country":"ES","id":6355456,"coord":{"lat":38.060799,"lon":-0.86443},"name":"Jacarilla"},{"country":"ES","id":2516399,"coord":{"lat":38.062469,"lon":-0.86822},"name":"Jacarilla"},{"country":"ES","id":6358498,"coord":{"lat":38.13538,"lon":-2.99799},"name":"Iznatoraf"},{"country":"ES","id":2516412,"coord":{"lat":38.157059,"lon":-3.03242},"name":"Iznatoraf"},{"country":"ES","id":6359467,"coord":{"lat":36.784809,"lon":-4.1879},"name":"Iznate"},{"country":"ES","id":2516413,"coord":{"lat":36.783329,"lon":-4.18333},"name":"Iznate"},{"country":"ES","id":6357722,"coord":{"lat":36.791931,"lon":-3.63596},"name":"Itrabo"},{"country":"ES","id":2516419,"coord":{"lat":36.79998,"lon":-3.639},"name":"Itrabo"},{"country":"ES","id":6355567,"coord":{"lat":36.970982,"lon":-2.68541},"name":"Instinci\u00f3n"},{"country":"ES","id":2516438,"coord":{"lat":36.993439,"lon":-2.66046},"name":"Instincion"},{"country":"ES","id":6361740,"coord":{"lat":39.9715,"lon":-4.55648},"name":"Ill\u00e1n de Vacas"},{"country":"ES","id":2516457,"coord":{"lat":39.970791,"lon":-4.55743},"name":"Illan de Vacas"},{"country":"ES","id":6359465,"coord":{"lat":36.624802,"lon":-5.09595},"name":"Igualeja"},{"country":"ES","id":2516463,"coord":{"lat":36.63208,"lon":-5.12188},"name":"Igualeja"},{"country":"ES","id":2516475,"coord":{"lat":38.021061,"lon":-3.50313},"name":"Ibros"},{"country":"ES","id":6356798,"coord":{"lat":39.32938,"lon":-5.91802},"name":"Ibahernando"},{"country":"ES","id":2516483,"coord":{"lat":39.325378,"lon":-5.91833},"name":"Ibahernando"},{"country":"ES","id":6357720,"coord":{"lat":37.148491,"lon":-3.56556},"name":"Hu\u00e9tor Vega"},{"country":"ES","id":2516498,"coord":{"lat":37.146221,"lon":-3.57011},"name":"Huetor Vega"},{"country":"ES","id":6357719,"coord":{"lat":37.187271,"lon":-4.05855},"name":"Hu\u00e9tor T\u00e1jar"},{"country":"ES","id":2516499,"coord":{"lat":37.198341,"lon":-4.04692},"name":"Huetor-Tajar"},{"country":"ES","id":6357718,"coord":{"lat":37.28418,"lon":-3.46274},"name":"Hu\u00e9tor de Santill\u00e1n"},{"country":"ES","id":2516500,"coord":{"lat":37.220909,"lon":-3.51634},"name":"Huetor Santillan"},{"country":"ES","id":2516507,"coord":{"lat":37.811039,"lon":-2.54116},"name":"Huescar"},{"country":"ES","id":6358516,"coord":{"lat":37.87711,"lon":-3.08409},"name":"Peal de Becerro"},{"country":"ES","id":2516508,"coord":{"lat":37.764339,"lon":-3.07639},"name":"Huesa"},{"country":"ES","id":6361738,"coord":{"lat":39.830372,"lon":-3.61862},"name":"Huerta de Valdecar\u00e1banos"},{"country":"ES","id":2516534,"coord":{"lat":39.863178,"lon":-3.61275},"name":"Huerta de Valdecarabanos"},{"country":"ES","id":6357458,"coord":{"lat":39.978191,"lon":-2.47857},"name":"Huerta de la Obispal\u00eda"},{"country":"ES","id":2516538,"coord":{"lat":39.98901,"lon":-2.47875},"name":"Huerta de la Obispalia"},{"country":"ES","id":6355564,"coord":{"lat":36.879082,"lon":-2.45538},"name":"Hu\u00e9rcal de Almer\u00eda"},{"country":"ES","id":2516543,"coord":{"lat":36.885071,"lon":-2.4376},"name":"Huercal de Almeria"},{"country":"ES","id":6357716,"coord":{"lat":37.189819,"lon":-2.93952},"name":"Hu\u00e9neja"},{"country":"ES","id":2516545,"coord":{"lat":37.176601,"lon":-2.95024},"name":"Hueneja"},{"country":"ES","id":6357715,"coord":{"lat":37.42028,"lon":-3.26029},"name":"Hu\u00e9lago"},{"country":"ES","id":2516551,"coord":{"lat":37.41972,"lon":-3.26226},"name":"Huelago"},{"country":"ES","id":6355563,"coord":{"lat":36.951881,"lon":-2.62899},"name":"Hu\u00e9cija"},{"country":"ES","id":2516553,"coord":{"lat":36.96804,"lon":-2.6094},"name":"Huecija"},{"country":"ES","id":6355331,"coord":{"lat":38.950142,"lon":-1.55521},"name":"Hoya-Gonzalo"},{"country":"ES","id":2516583,"coord":{"lat":38.957901,"lon":-1.55679},"name":"Hoya-Gonzalo"},{"country":"ES","id":6355934,"coord":{"lat":38.557999,"lon":-6.06463},"name":"Hornachos"},{"country":"ES","id":2516632,"coord":{"lat":38.554279,"lon":-6.06829},"name":"Hornachos"},{"country":"ES","id":6357454,"coord":{"lat":39.842449,"lon":-3.02066},"name":"Horcajo de Santiago"},{"country":"ES","id":2516641,"coord":{"lat":39.842209,"lon":-2.99724},"name":"Horcajo de Santiago"},{"country":"ES","id":6357453,"coord":{"lat":39.685162,"lon":-2.19949},"name":"Hontecillas"},{"country":"ES","id":2516649,"coord":{"lat":39.700001,"lon":-2.18333},"name":"Hontecillas"},{"country":"ES","id":6357452,"coord":{"lat":39.71172,"lon":-2.83256},"name":"Hontanaya"},{"country":"ES","id":2516650,"coord":{"lat":39.71553,"lon":-2.83516},"name":"Hontanaya"},{"country":"ES","id":6361735,"coord":{"lat":39.557739,"lon":-4.53206},"name":"Hontanar"},{"country":"ES","id":2516651,"coord":{"lat":39.612961,"lon":-4.49663},"name":"Hontanar"},{"country":"ES","id":6357451,"coord":{"lat":39.61298,"lon":-2.25441},"name":"Honrubia"},{"country":"ES","id":2516652,"coord":{"lat":39.613579,"lon":-2.28077},"name":"Honrubia"},{"country":"ES","id":6355454,"coord":{"lat":38.273499,"lon":-0.92809},"name":"Hond\u00f3n de los Frailes"},{"country":"ES","id":2516655,"coord":{"lat":38.273899,"lon":-0.92938},"name":"Hondon de los Frailes"},{"country":"ES","id":6355453,"coord":{"lat":38.30756,"lon":-0.89019},"name":"Fond\u00f3 de les Neus (el)"},{"country":"ES","id":2516656,"coord":{"lat":38.308441,"lon":-0.8533},"name":"Hondon de las Nieves"},{"country":"ES","id":6356795,"coord":{"lat":39.894878,"lon":-6.35366},"name":"Holguera"},{"country":"ES","id":2516685,"coord":{"lat":39.899158,"lon":-6.34999},"name":"Holguera"},{"country":"ES","id":6357142,"coord":{"lat":38.557098,"lon":-4.17018},"name":"Hinojosas de Calatrava"},{"country":"ES","id":2516693,"coord":{"lat":38.61446,"lon":-4.13979},"name":"Hinojosas de Calatrava"},{"country":"ES","id":6355933,"coord":{"lat":38.478859,"lon":-6.17984},"name":"Hinojosa del Valle"},{"country":"ES","id":2516694,"coord":{"lat":38.48333,"lon":-6.18333},"name":"Hinojosa del Valle"},{"country":"ES","id":6357230,"coord":{"lat":38.457142,"lon":-5.15924},"name":"Hinojosa del Duque"},{"country":"ES","id":2516695,"coord":{"lat":38.500568,"lon":-5.1465},"name":"Hinojosa del Duque"},{"country":"ES","id":2516697,"coord":{"lat":37.291729,"lon":-6.37872},"name":"Hinojos"},{"country":"ES","id":6358492,"coord":{"lat":37.730839,"lon":-3.00804},"name":"Hinojares"},{"country":"ES","id":2516700,"coord":{"lat":37.715858,"lon":-2.99769},"name":"Hinojares"},{"country":"ES","id":6358215,"coord":{"lat":37.994862,"lon":-6.55799},"name":"Hinojales"},{"country":"ES","id":2516704,"coord":{"lat":38,"lon":-6.58333},"name":"Hinojales"},{"country":"ES","id":6356794,"coord":{"lat":39.70507,"lon":-6.34187},"name":"Hinojal"},{"country":"ES","id":2516705,"coord":{"lat":39.709,"lon":-6.35566},"name":"Hinojal"},{"country":"ES","id":6362006,"coord":{"lat":39.770618,"lon":-0.86277},"name":"Higueruelas"},{"country":"ES","id":2516709,"coord":{"lat":39.783329,"lon":-0.85},"name":"Higueruelas"},{"country":"ES","id":6355330,"coord":{"lat":38.960838,"lon":-1.40114},"name":"Higueruela"},{"country":"ES","id":2516713,"coord":{"lat":38.963711,"lon":-1.4437},"name":"Higueruela"},{"country":"ES","id":6357020,"coord":{"lat":39.98814,"lon":-0.50167},"name":"Higueras"},{"country":"ES","id":2516722,"coord":{"lat":39.98333,"lon":-0.5},"name":"Higueras"},{"country":"ES","id":6355932,"coord":{"lat":38.12566,"lon":-6.72651},"name":"Higuera la Real"},{"country":"ES","id":2516723,"coord":{"lat":38.140881,"lon":-6.68922},"name":"Higuera la Real"},{"country":"ES","id":6355931,"coord":{"lat":38.429729,"lon":-6.99658},"name":"Higuera de Vargas"},{"country":"ES","id":2516728,"coord":{"lat":38.446999,"lon":-6.97517},"name":"Higuera de Vargas"},{"country":"ES","id":6358214,"coord":{"lat":37.833611,"lon":-6.43557},"name":"Higuera de la Sierra"},{"country":"ES","id":2516730,"coord":{"lat":37.833328,"lon":-6.45},"name":"Higuera de la Sierra"},{"country":"ES","id":6355929,"coord":{"lat":38.646049,"lon":-5.77201},"name":"Higuera de la Serena"},{"country":"ES","id":2516731,"coord":{"lat":38.64616,"lon":-5.74129},"name":"Higuera de la Serena"},{"country":"ES","id":6358491,"coord":{"lat":37.799511,"lon":-4.15327},"name":"Higuera de Calatrava"},{"country":"ES","id":2516732,"coord":{"lat":37.798481,"lon":-4.15737},"name":"Higuera de Calatrava"},{"country":"ES","id":6358461,"coord":{"lat":37.931591,"lon":-4.05257},"name":"Arjona"},{"country":"ES","id":2516733,"coord":{"lat":37.970638,"lon":-3.99061},"name":"Higuera de Arjona"},{"country":"ES","id":6356793,"coord":{"lat":39.73914,"lon":-5.65793},"name":"Higuera"},{"country":"ES","id":2516742,"coord":{"lat":39.72551,"lon":-5.66692},"name":"Higuera"},{"country":"ES","id":6361733,"coord":{"lat":39.898521,"lon":-5.23809},"name":"Herreruela de Oropesa"},{"country":"ES","id":2516755,"coord":{"lat":39.889278,"lon":-5.24279},"name":"Herreruela de Oropesa"},{"country":"ES","id":6356790,"coord":{"lat":39.598,"lon":-7.38085},"name":"Herrera de Alc\u00e1ntara"},{"country":"ES","id":2516769,"coord":{"lat":39.638649,"lon":-7.40619},"name":"Herrera de Alcantara"},{"country":"ES","id":6357141,"coord":{"lat":39.283112,"lon":-3.41451},"name":"Herencia"},{"country":"ES","id":2516790,"coord":{"lat":39.366161,"lon":-3.35735},"name":"Herencia"},{"country":"ES","id":6357446,"coord":{"lat":39.821152,"lon":-1.44783},"name":"Henarejos"},{"country":"ES","id":2516794,"coord":{"lat":39.866669,"lon":-1.48333},"name":"Henarejos"},{"country":"ES","id":6357714,"coord":{"lat":37.257309,"lon":-3.60004},"name":"G\u00fcev\u00e9jar"},{"country":"ES","id":2516865,"coord":{"lat":37.257591,"lon":-3.59691},"name":"Guevejar"},{"country":"ES","id":2516873,"coord":{"lat":37.159939,"lon":-3.43863},"name":"Guejar-Sierra"},{"country":"ES","id":2516887,"coord":{"lat":38.182819,"lon":-3.68697},"name":"Guarroman"},{"country":"ES","id":6359463,"coord":{"lat":36.674049,"lon":-4.83731},"name":"Guaro"},{"country":"ES","id":2516892,"coord":{"lat":36.6563,"lon":-4.83433},"name":"Guaro"},{"country":"ES","id":6362004,"coord":{"lat":39.178188,"lon":-0.51758},"name":"Guadassuar"},{"country":"ES","id":2516944,"coord":{"lat":39.183331,"lon":-0.46667},"name":"Guadassuar"},{"country":"ES","id":6362003,"coord":{"lat":38.928761,"lon":-0.49256},"name":"Guadasequies"},{"country":"ES","id":2516945,"coord":{"lat":38.925388,"lon":-0.48585},"name":"Guadasequies"},{"country":"ES","id":6356783,"coord":{"lat":39.44846,"lon":-5.31556},"name":"Guadalupe"},{"country":"ES","id":2516970,"coord":{"lat":39.450802,"lon":-5.32588},"name":"Guadalupe"},{"country":"ES","id":6357140,"coord":{"lat":38.725182,"lon":-4.95583},"name":"Guadalmez"},{"country":"ES","id":2516981,"coord":{"lat":38.72665,"lon":-4.97104},"name":"Guadalmez"},{"country":"ES","id":6357228,"coord":{"lat":37.757599,"lon":-4.96919},"name":"Guadalc\u00e1zar"},{"country":"ES","id":2517004,"coord":{"lat":37.757381,"lon":-4.94387},"name":"Guadalcazar"},{"country":"ES","id":6361003,"coord":{"lat":38.098591,"lon":-5.82036},"name":"Guadalcanal"},{"country":"ES","id":2517006,"coord":{"lat":38.099998,"lon":-5.81667},"name":"Guadalcanal"},{"country":"ES","id":2517023,"coord":{"lat":37.55711,"lon":-3.39859},"name":"Guadahortuna"},{"country":"ES","id":6355924,"coord":{"lat":38.31665,"lon":-5.56741},"name":"Granja de Torrehermosa"},{"country":"ES","id":2517059,"coord":{"lat":38.316669,"lon":-5.58333},"name":"Granja de Torrehermosa"},{"country":"ES","id":6357445,"coord":{"lat":39.515869,"lon":-1.6739},"name":"Graja de Iniesta"},{"country":"ES","id":2517123,"coord":{"lat":39.51667,"lon":-1.66667},"name":"Graja de Iniesta"},{"country":"ES","id":6357444,"coord":{"lat":39.895851,"lon":-1.2661},"name":"Graja de Campalbo"},{"country":"ES","id":2517124,"coord":{"lat":39.900002,"lon":-1.26667},"name":"Graja de Campalbo"},{"country":"ES","id":6355449,"coord":{"lat":38.724331,"lon":-0.37613},"name":"Gorga"},{"country":"ES","id":2517142,"coord":{"lat":38.71896,"lon":-0.35589},"name":"Gorga"},{"country":"ES","id":6357707,"coord":{"lat":37.36552,"lon":-2.92004},"name":"Gor"},{"country":"ES","id":2517175,"coord":{"lat":37.36937,"lon":-2.97016},"name":"Gor"},{"country":"ES","id":6355328,"coord":{"lat":39.237381,"lon":-1.63451},"name":"Golosalvo"},{"country":"ES","id":2517189,"coord":{"lat":39.23333,"lon":-1.63333},"name":"Golosalvo"},{"country":"ES","id":2517197,"coord":{"lat":37.104561,"lon":-3.60565},"name":"Gojar"},{"country":"ES","id":6357705,"coord":{"lat":37.478989,"lon":-3.29645},"name":"Gobernador"},{"country":"ES","id":2517202,"coord":{"lat":37.478451,"lon":-3.32119},"name":"Gobernador"},{"country":"ES","id":6361002,"coord":{"lat":37.387051,"lon":-6.0777},"name":"Gines"},{"country":"ES","id":2517217,"coord":{"lat":37.38678,"lon":-6.07743},"name":"Gines"},{"country":"ES","id":6361999,"coord":{"lat":39.674702,"lon":-0.3281},"name":"Gilet"},{"country":"ES","id":2517223,"coord":{"lat":39.683331,"lon":-0.31667},"name":"Gilet"},{"country":"ES","id":6361001,"coord":{"lat":37.23513,"lon":-4.92567},"name":"Gilena"},{"country":"ES","id":2517225,"coord":{"lat":37.251499,"lon":-4.91442},"name":"Gilena"},{"country":"ES","id":2517236,"coord":{"lat":37.376282,"lon":-6.96895},"name":"Gibraleon"},{"country":"ES","id":2517241,"coord":{"lat":39.599998,"lon":-0.83333},"name":"Gestalgar"},{"country":"ES","id":2517242,"coord":{"lat":39.965939,"lon":-4.30278},"name":"Gerindote"},{"country":"ES","id":6361000,"coord":{"lat":37.556061,"lon":-6.16213},"name":"Gerena"},{"country":"ES","id":2517249,"coord":{"lat":37.529572,"lon":-6.15479},"name":"Gerena"},{"country":"ES","id":6361997,"coord":{"lat":38.988209,"lon":-0.47729},"name":"Genov\u00e9s"},{"country":"ES","id":2517252,"coord":{"lat":38.989151,"lon":-0.46992},"name":"Genoves"},{"country":"ES","id":6358487,"coord":{"lat":38.44318,"lon":-2.75278},"name":"G\u00e9nave"},{"country":"ES","id":2517259,"coord":{"lat":38.430618,"lon":-2.7331},"name":"Genave"},{"country":"ES","id":6359462,"coord":{"lat":36.52631,"lon":-5.23224},"name":"Genalguacil"},{"country":"ES","id":2517260,"coord":{"lat":36.54546,"lon":-5.23572},"name":"Genalguacil"},{"country":"ES","id":6357018,"coord":{"lat":39.837559,"lon":-0.46495},"name":"Geldo"},{"country":"ES","id":2517264,"coord":{"lat":39.833328,"lon":-0.46667},"name":"Geldo"},{"country":"ES","id":6359461,"coord":{"lat":36.51313,"lon":-5.34364},"name":"Gauc\u00edn"},{"country":"ES","id":2517283,"coord":{"lat":36.517841,"lon":-5.31581},"name":"Gaucin"},{"country":"ES","id":6355447,"coord":{"lat":38.775791,"lon":0.08111},"name":"Gata de Gorgos"},{"country":"ES","id":2517298,"coord":{"lat":38.774429,"lon":0.08538},"name":"Gata de Gorgos"},{"country":"ES","id":6356779,"coord":{"lat":39.714191,"lon":-5.35519},"name":"Garv\u00edn"},{"country":"ES","id":2517307,"coord":{"lat":39.719841,"lon":-5.34678},"name":"Garvin"},{"country":"ES","id":6355561,"coord":{"lat":37.187431,"lon":-1.83493},"name":"Garrucha"},{"country":"ES","id":2517310,"coord":{"lat":37.181412,"lon":-1.82252},"name":"Garrucha"},{"country":"ES","id":6356778,"coord":{"lat":39.694889,"lon":-6.50453},"name":"Garrovillas de Alcon\u00e9tar"},{"country":"ES","id":2517311,"coord":{"lat":39.710819,"lon":-6.55034},"name":"Garrovillas"},{"country":"ES","id":6355922,"coord":{"lat":38.897079,"lon":-4.99138},"name":"Garlitos"},{"country":"ES","id":2517322,"coord":{"lat":38.880219,"lon":-5.04759},"name":"Garlitos"},{"country":"ES","id":6355921,"coord":{"lat":39.05735,"lon":-5.00763},"name":"Garbayuela"},{"country":"ES","id":2517341,"coord":{"lat":39.049561,"lon":-4.99856},"name":"Garbayuela"},{"country":"ES","id":2517349,"coord":{"lat":28.778061,"lon":-17.764589},"name":"Garachico"},{"country":"ES","id":2517350,"coord":{"lat":28.37365,"lon":-16.76342},"name":"Garachico"},{"country":"ES","id":2517355,"coord":{"lat":39.816669,"lon":-1.36667},"name":"Garaballa"},{"country":"ES","id":2517383,"coord":{"lat":39.70208,"lon":-4.27239},"name":"Galvez"},{"country":"ES","id":6356772,"coord":{"lat":39.993919,"lon":-6.28272},"name":"Galisteo"},{"country":"ES","id":2517409,"coord":{"lat":39.976421,"lon":-6.26782},"name":"Galisteo"},{"country":"ES","id":6357704,"coord":{"lat":37.70639,"lon":-2.57569},"name":"Galera"},{"country":"ES","id":2517432,"coord":{"lat":37.742619,"lon":-2.55175},"name":"Galera"},{"country":"ES","id":6358210,"coord":{"lat":37.928242,"lon":-6.68219},"name":"Galaroza"},{"country":"ES","id":2517440,"coord":{"lat":37.928638,"lon":-6.7073},"name":"Galaroza"},{"country":"ES","id":6357017,"coord":{"lat":39.933418,"lon":-0.50659},"name":"Gaibiel"},{"country":"ES","id":2517454,"coord":{"lat":39.933331,"lon":-0.48333},"name":"Gaibiel"},{"country":"ES","id":2517460,"coord":{"lat":36.95322,"lon":-2.49254},"name":"Gador"},{"country":"ES","id":6361995,"coord":{"lat":39.085331,"lon":-0.55086},"name":"Gavarda"},{"country":"ES","id":2517473,"coord":{"lat":39.083328,"lon":-0.55},"name":"Gavarda"},{"country":"ES","id":6357441,"coord":{"lat":39.644619,"lon":-1.96159},"name":"Gabald\u00f3n"},{"country":"ES","id":2517476,"coord":{"lat":39.616669,"lon":-1.93333},"name":"Gabaldon"},{"country":"ES","id":6358486,"coord":{"lat":37.909962,"lon":-3.90649},"name":"Fuerte del Rey"},{"country":"ES","id":2517482,"coord":{"lat":37.87492,"lon":-3.88389},"name":"Fuerte del Rey"},{"country":"ES","id":6357703,"coord":{"lat":37.21978,"lon":-3.78108},"name":"Fuente Vaqueros"},{"country":"ES","id":2517493,"coord":{"lat":37.220188,"lon":-3.78294},"name":"Fuente Vaqueros"},{"country":"ES","id":6357226,"coord":{"lat":37.52272,"lon":-4.12203},"name":"Fuente-T\u00f3jar"},{"country":"ES","id":2517494,"coord":{"lat":37.510948,"lon":-4.14631},"name":"Fuente-Tojar"},{"country":"ES","id":6357439,"coord":{"lat":39.940338,"lon":-2.0134},"name":"Fuentes"},{"country":"ES","id":2517505,"coord":{"lat":39.966671,"lon":-2.01667},"name":"Fuentes"},{"country":"ES","id":6361994,"coord":{"lat":39.586071,"lon":-1.36613},"name":"Fuenterrobles"},{"country":"ES","id":2517509,"coord":{"lat":39.583328,"lon":-1.35},"name":"Fuenterrobles"},{"country":"ES","id":6357438,"coord":{"lat":39.935188,"lon":-1.46692},"name":"Fuentelespino de Moya"},{"country":"ES","id":2517519,"coord":{"lat":39.916672,"lon":-1.46667},"name":"Fuentelespino de Moya"},{"country":"ES","id":6357437,"coord":{"lat":39.688431,"lon":-2.63532},"name":"Fuentelespino de Haro"},{"country":"ES","id":2517520,"coord":{"lat":39.689339,"lon":-2.66869},"name":"Fuentelespino de Haro"},{"country":"ES","id":6357223,"coord":{"lat":38.420971,"lon":-5.04403},"name":"Fuente la Lancha"},{"country":"ES","id":2517522,"coord":{"lat":38.416672,"lon":-5.03333},"name":"Fuente la Lancha"},{"country":"ES","id":6361993,"coord":{"lat":38.824509,"lon":-0.86417},"name":"Font de la Figuera (la)"},{"country":"ES","id":2517523,"coord":{"lat":38.799999,"lon":-0.88333},"name":"La Font de la Figuera"},{"country":"ES","id":6358209,"coord":{"lat":37.910381,"lon":-6.66335},"name":"Fuenteheridos"},{"country":"ES","id":2517527,"coord":{"lat":37.905449,"lon":-6.66108},"name":"Fuenteheridos"},{"country":"ES","id":6359460,"coord":{"lat":37.1259,"lon":-4.75107},"name":"Fuente de Piedra"},{"country":"ES","id":2517534,"coord":{"lat":37.135262,"lon":-4.73},"name":"Fuente de Piedra"},{"country":"ES","id":6357436,"coord":{"lat":39.931709,"lon":-3.04708},"name":"Fuente de Pedro Naharro"},{"country":"ES","id":2517535,"coord":{"lat":39.924381,"lon":-3.00916},"name":"Fuente de Pedro Naharro"},{"country":"ES","id":2517560,"coord":{"lat":38.25,"lon":-6.3},"name":"Fuente de Cantos"},{"country":"ES","id":6355325,"coord":{"lat":38.696918,"lon":-1.433},"name":"Fuente-\u00c1lamo"},{"country":"ES","id":2517576,"coord":{"lat":38.692879,"lon":-1.43158},"name":"Fuente-Alamo"},{"country":"ES","id":6355324,"coord":{"lat":39.241402,"lon":-2.06734},"name":"Fuensanta"},{"country":"ES","id":2517585,"coord":{"lat":39.23333,"lon":-2.06667},"name":"Fuensanta"},{"country":"ES","id":6357137,"coord":{"lat":38.760159,"lon":-2.97073},"name":"Fuenllana"},{"country":"ES","id":2517589,"coord":{"lat":38.755901,"lon":-2.95814},"name":"Fuenllana"},{"country":"ES","id":6355916,"coord":{"lat":39.122108,"lon":-4.89463},"name":"Fuenlabrada de los Montes"},{"country":"ES","id":2517591,"coord":{"lat":39.132881,"lon":-4.93513},"name":"Fuenlabrada de los Montes"},{"country":"ES","id":2517603,"coord":{"lat":39.186241,"lon":-4.02576},"name":"Fuencaliente"},{"country":"ES","id":6357136,"coord":{"lat":38.425968,"lon":-4.28512},"name":"Fuencaliente"},{"country":"ES","id":2517604,"coord":{"lat":38.406021,"lon":-4.30492},"name":"Fuencaliente"},{"country":"ES","id":2517611,"coord":{"lat":27.75404,"lon":-18.00367},"name":"Frontera"},{"country":"ES","id":6356771,"coord":{"lat":39.68932,"lon":-5.52669},"name":"Fresnedoso de Ibor"},{"country":"ES","id":2517626,"coord":{"lat":39.684181,"lon":-5.50899},"name":"Fresnedoso de Ibor"},{"country":"ES","id":6357433,"coord":{"lat":39.925949,"lon":-2.2875},"name":"Fresneda de Altarejos"},{"country":"ES","id":2517634,"coord":{"lat":39.92577,"lon":-2.31498},"name":"Fresneda de Altarejos"},{"country":"ES","id":6357702,"coord":{"lat":37.544621,"lon":-2.95377},"name":"Freila"},{"country":"ES","id":2517641,"coord":{"lat":37.5299,"lon":-2.90828},"name":"Freila"},{"country":"ES","id":2517643,"coord":{"lat":38.16922,"lon":-6.6537},"name":"Fregenal de la Sierra"},{"country":"ES","id":2517675,"coord":{"lat":39.533329,"lon":-0.35},"name":"Foios"},{"country":"ES","id":6361990,"coord":{"lat":39.178631,"lon":-0.31432},"name":"Fortaleny"},{"country":"ES","id":2517682,"coord":{"lat":39.183331,"lon":-0.3},"name":"Fortaleny"},{"country":"ES","id":6533947,"coord":{"lat":39.781731,"lon":2.7401},"name":"Fornalutx"},{"country":"ES","id":2517684,"coord":{"lat":39.782318,"lon":2.74107},"name":"Fornalutx"},{"country":"ES","id":6361989,"coord":{"lat":38.777359,"lon":-0.78013},"name":"Fontanars dels Alforins"},{"country":"ES","id":2517702,"coord":{"lat":38.783329,"lon":-0.78333},"name":"Fontanars dels Alforins"},{"country":"ES","id":6357135,"coord":{"lat":39.197338,"lon":-4.55444},"name":"Fontanarejo"},{"country":"ES","id":2517704,"coord":{"lat":39.220139,"lon":-4.51753},"name":"Fontanarejo"},{"country":"ES","id":6355556,"coord":{"lat":37.368019,"lon":-2.26719},"name":"Fines"},{"country":"ES","id":2517720,"coord":{"lat":37.360741,"lon":-2.2581},"name":"Fines"},{"country":"ES","id":6355557,"coord":{"lat":37.184731,"lon":-2.85826},"name":"Fi\u00f1ana"},{"country":"ES","id":2517722,"coord":{"lat":37.171501,"lon":-2.84011},"name":"Finana"},{"country":"ES","id":6533946,"coord":{"lat":39.994629,"lon":3.99902},"name":"Ferreries"},{"country":"ES","id":2517733,"coord":{"lat":39.983238,"lon":4.01181},"name":"Ferreries"},{"country":"ES","id":6357700,"coord":{"lat":37.18187,"lon":-3.02164},"name":"Ferreira"},{"country":"ES","id":2517737,"coord":{"lat":37.17247,"lon":-3.03538},"name":"Ferreira"},{"country":"ES","id":6357222,"coord":{"lat":37.688358,"lon":-4.72468},"name":"Fern\u00e1n-N\u00fa\u00f1ez"},{"country":"ES","id":2517740,"coord":{"lat":37.670441,"lon":-4.7264},"name":"Fernan-Nunez"},{"country":"ES","id":6355914,"coord":{"lat":38.500629,"lon":-6.54356},"name":"Feria"},{"country":"ES","id":2517744,"coord":{"lat":38.511509,"lon":-6.56416},"name":"Feria"},{"country":"ES","id":6355323,"coord":{"lat":38.382702,"lon":-1.94759},"name":"F\u00e9rez"},{"country":"ES","id":2517745,"coord":{"lat":38.349998,"lon":-2},"name":"Ferez"},{"country":"ES","id":6361988,"coord":{"lat":39.118542,"lon":-0.30005},"name":"Favara"},{"country":"ES","id":2517753,"coord":{"lat":39.116669,"lon":-0.28333},"name":"Favara"},{"country":"ES","id":2517755,"coord":{"lat":39.716671,"lon":-0.25},"name":"Faura"},{"country":"ES","id":6359457,"coord":{"lat":36.61245,"lon":-5.19657},"name":"Faraj\u00e1n"},{"country":"ES","id":2517772,"coord":{"lat":36.616951,"lon":-5.18839},"name":"Farajan"},{"country":"ES","id":6355444,"coord":{"lat":38.728588,"lon":-0.23428},"name":"Famorca"},{"country":"ES","id":2517778,"coord":{"lat":38.73101,"lon":-0.24726},"name":"Famorca"},{"country":"ES","id":6355443,"coord":{"lat":38.73988,"lon":-0.27845},"name":"Facheca"},{"country":"ES","id":2517792,"coord":{"lat":38.735001,"lon":-0.26766},"name":"Facheca"},{"country":"ES","id":6361986,"coord":{"lat":39.012321,"lon":-0.6141},"name":"Estubeny"},{"country":"ES","id":2517803,"coord":{"lat":39.017921,"lon":-0.62379},"name":"Estubeny"},{"country":"ES","id":6361985,"coord":{"lat":39.718769,"lon":-0.36304},"name":"Estivella"},{"country":"ES","id":2517812,"coord":{"lat":39.716671,"lon":-0.35},"name":"Estivella"},{"country":"ES","id":6360996,"coord":{"lat":37.311161,"lon":-4.88297},"name":"Estepa"},{"country":"ES","id":2517820,"coord":{"lat":37.292629,"lon":-4.87896},"name":"Estepa"},{"country":"ES","id":6356032,"coord":{"lat":39.652721,"lon":2.48081},"name":"Estellencs"},{"country":"ES","id":2517827,"coord":{"lat":39.653381,"lon":2.4813},"name":"Estellencs"},{"country":"ES","id":6361723,"coord":{"lat":39.643059,"lon":-4.79146},"name":"Espinoso del Rey"},{"country":"ES","id":2517884,"coord":{"lat":39.653332,"lon":-4.78371},"name":"Espinoso del Rey"},{"country":"ES","id":2517897,"coord":{"lat":36.874458,"lon":-5.806},"name":"Espera"},{"country":"ES","id":6358483,"coord":{"lat":38.021961,"lon":-3.86182},"name":"Espel\u00fay"},{"country":"ES","id":2517898,"coord":{"lat":38.031799,"lon":-3.86309},"name":"Espeluy"},{"country":"ES","id":6357220,"coord":{"lat":37.673409,"lon":-4.54914},"name":"Espejo"},{"country":"ES","id":2517900,"coord":{"lat":37.679798,"lon":-4.55355},"name":"Espejo"},{"country":"ES","id":6355912,"coord":{"lat":38.65836,"lon":-5.59174},"name":"Esparragosa de la Serena"},{"country":"ES","id":2517909,"coord":{"lat":38.651001,"lon":-5.60657},"name":"Esparragosa de la Serena"},{"country":"ES","id":2517910,"coord":{"lat":38.97517,"lon":-5.26968},"name":"Esparragosa de Lares"},{"country":"ES","id":6355911,"coord":{"lat":38.954781,"lon":-6.43197},"name":"Esparragalejo"},{"country":"ES","id":2517913,"coord":{"lat":38.943298,"lon":-6.43549},"name":"Esparragalejo"},{"country":"ES","id":6357010,"coord":{"lat":39.884571,"lon":-0.30928},"name":"Eslida"},{"country":"ES","id":2517923,"coord":{"lat":39.883331,"lon":-0.3},"name":"Eslida"},{"country":"ES","id":6357699,"coord":{"lat":37.051491,"lon":-3.77482},"name":"Esc\u00fazar"},{"country":"ES","id":2517925,"coord":{"lat":37.062191,"lon":-3.76126},"name":"Escuzar"},{"country":"ES","id":6356770,"coord":{"lat":39.188019,"lon":-5.91068},"name":"Escurial"},{"country":"ES","id":2517926,"coord":{"lat":39.16856,"lon":-5.88465},"name":"Escurial"},{"country":"ES","id":6533943,"coord":{"lat":39.82037,"lon":2.86838},"name":"Escorca"},{"country":"ES","id":2517936,"coord":{"lat":39.821381,"lon":2.86941},"name":"Escorca"},{"country":"ES","id":6358482,"coord":{"lat":37.877689,"lon":-4.02848},"name":"Esca\u00f1uela"},{"country":"ES","id":2517951,"coord":{"lat":37.878849,"lon":-4.03376},"name":"Escanuela"},{"country":"ES","id":6361722,"coord":{"lat":39.921909,"lon":-4.3418},"name":"Escalonilla"},{"country":"ES","id":2517955,"coord":{"lat":39.925701,"lon":-4.35095},"name":"Escalonilla"},{"country":"ES","id":2517964,"coord":{"lat":37.40836,"lon":-6.3887},"name":"Escacena del Campo"},{"country":"ES","id":6361720,"coord":{"lat":39.955391,"lon":-4.49856},"name":"Erustes"},{"country":"ES","id":2517965,"coord":{"lat":39.956669,"lon":-4.49656},"name":"Erustes"},{"country":"ES","id":6355554,"coord":{"lat":36.859249,"lon":-2.58586},"name":"Enix"},{"country":"ES","id":2518008,"coord":{"lat":36.877319,"lon":-2.6018},"name":"Enix"},{"country":"ES","id":6357432,"coord":{"lat":39.69117,"lon":-1.61551},"name":"Engu\u00eddanos"},{"country":"ES","id":2518009,"coord":{"lat":39.666672,"lon":-1.6},"name":"Enguidanos"},{"country":"ES","id":6358207,"coord":{"lat":38.117748,"lon":-6.89929},"name":"Encinasola"},{"country":"ES","id":2518020,"coord":{"lat":38.134129,"lon":-6.86675},"name":"Encinasola"},{"country":"ES","id":6361982,"coord":{"lat":39.55518,"lon":-0.33725},"name":"Emperador"},{"country":"ES","id":2518033,"coord":{"lat":39.549999,"lon":-0.33333},"name":"Emperador"},{"country":"ES","id":6357218,"coord":{"lat":38.48608,"lon":-4.83078},"name":"Dos Torres"},{"country":"ES","id":2518042,"coord":{"lat":38.48333,"lon":-4.95},"name":"El Viso"},{"country":"ES","id":2518052,"coord":{"lat":36.725208,"lon":-3.52183},"name":"El Varadero"},{"country":"ES","id":6361827,"coord":{"lat":39.545181,"lon":-2.97791},"name":"Toboso (El)"},{"country":"ES","id":2518078,"coord":{"lat":39.513329,"lon":-2.99726},"name":"El Toboso"},{"country":"ES","id":6361039,"coord":{"lat":37.342609,"lon":-5.00582},"name":"Rubio (El)"},{"country":"ES","id":2518129,"coord":{"lat":37.356171,"lon":-4.98896},"name":"El Rubio"},{"country":"ES","id":6361038,"coord":{"lat":37.743328,"lon":-6.17136},"name":"Ronquillo (El)"},{"country":"ES","id":2518146,"coord":{"lat":37.72628,"lon":-6.1762},"name":"El Ronquillo"},{"country":"ES","id":6357192,"coord":{"lat":39.205978,"lon":-4.28938},"name":"Robledo (El)"},{"country":"ES","id":2518158,"coord":{"lat":39.218979,"lon":-4.28099},"name":"El Robledo"},{"country":"ES","id":6361798,"coord":{"lat":39.804119,"lon":-5.17185},"name":"Puente del Arzobispo (El)"},{"country":"ES","id":2518221,"coord":{"lat":39.801739,"lon":-5.17178},"name":"El Puente del Arzobispo"},{"country":"ES","id":6357509,"coord":{"lat":39.386391,"lon":-2.58071},"name":"Provencio (El)"},{"country":"ES","id":2518224,"coord":{"lat":39.377399,"lon":-2.57448},"name":"El Provencio"},{"country":"ES","id":6357494,"coord":{"lat":39.478821,"lon":-2.77266},"name":"Pedernoso (El)"},{"country":"ES","id":2518273,"coord":{"lat":39.485802,"lon":-2.74642},"name":"El Pedernoso"},{"country":"ES","id":2518277,"coord":{"lat":28.65007,"lon":-17.88274},"name":"El Paso"},{"country":"ES","id":6356933,"coord":{"lat":36.843109,"lon":-5.35137},"name":"Gastor (El)"},{"country":"ES","id":2518455,"coord":{"lat":36.854778,"lon":-5.32334},"name":"El Gastor"},{"country":"ES","id":2518521,"coord":{"lat":37.07954,"lon":-5.6341},"name":"El Coronil"},{"country":"ES","id":2518591,"coord":{"lat":37.693138,"lon":-6.31503},"name":"El Castillo de las Guardas"},{"country":"ES","id":2518597,"coord":{"lat":38.530891,"lon":-5.92513},"name":"El Casar"},{"country":"ES","id":2518606,"coord":{"lat":39.887959,"lon":-4.45388},"name":"El Carpio de Tajo"},{"country":"ES","id":6357213,"coord":{"lat":37.945671,"lon":-4.49432},"name":"Carpio (El)"},{"country":"ES","id":2518607,"coord":{"lat":37.940849,"lon":-4.49696},"name":"El Carpio"},{"country":"ES","id":6356926,"coord":{"lat":36.74514,"lon":-5.51048},"name":"Bosque (El)"},{"country":"ES","id":2518682,"coord":{"lat":36.758282,"lon":-5.50535},"name":"El Bosque"},{"country":"ES","id":6357697,"coord":{"lat":37.187752,"lon":-3.4895},"name":"D\u00fadar"},{"country":"ES","id":2518782,"coord":{"lat":37.185791,"lon":-3.48347},"name":"Dudar"},{"country":"ES","id":2518791,"coord":{"lat":38.450001,"lon":-4.9},"name":"Dos Torres"},{"country":"ES","id":6361719,"coord":{"lat":39.84885,"lon":-3.49435},"name":"Dosbarrios"},{"country":"ES","id":2518796,"coord":{"lat":39.881981,"lon":-3.48419},"name":"Dosbarrios"},{"country":"ES","id":6361980,"coord":{"lat":39.268398,"lon":-0.79449},"name":"Dos Aguas"},{"country":"ES","id":2518797,"coord":{"lat":39.283329,"lon":-0.8},"name":"Dos Aguas"},{"country":"ES","id":6357217,"coord":{"lat":37.55777,"lon":-4.3694},"name":"Do\u00f1a Menc\u00eda"},{"country":"ES","id":2518825,"coord":{"lat":37.553459,"lon":-4.35602},"name":"Dona Mencia"},{"country":"ES","id":6355908,"coord":{"lat":38.856491,"lon":-6.26676},"name":"Don \u00c1lvaro"},{"country":"ES","id":2518828,"coord":{"lat":38.848381,"lon":-6.27475},"name":"Don Alvaro"},{"country":"ES","id":6361718,"coord":{"lat":39.981682,"lon":-4.50367},"name":"Domingo P\u00e9rez"},{"country":"ES","id":2518837,"coord":{"lat":39.976608,"lon":-4.50554},"name":"Domingo Perez"},{"country":"ES","id":6361979,"coord":{"lat":39.689892,"lon":-0.92745},"name":"Dome\u00f1o"},{"country":"ES","id":2518840,"coord":{"lat":39.661152,"lon":-0.67077},"name":"Domeno"},{"country":"ES","id":6355440,"coord":{"lat":38.135368,"lon":-0.7587},"name":"Dolores"},{"country":"ES","id":2518842,"coord":{"lat":38.140018,"lon":-0.77088},"name":"Dolores"},{"country":"ES","id":6357695,"coord":{"lat":37.06105,"lon":-3.49621},"name":"D\u00edlar"},{"country":"ES","id":2518849,"coord":{"lat":37.072819,"lon":-3.60134},"name":"Dilar"},{"country":"ES","id":2518850,"coord":{"lat":37.31982,"lon":-3.33256},"name":"Diezma"},{"country":"ES","id":6533942,"coord":{"lat":39.747391,"lon":2.64723},"name":"Dei\u00e0"},{"country":"ES","id":2518859,"coord":{"lat":39.748058,"lon":2.64823},"name":"Deia"},{"country":"ES","id":2518881,"coord":{"lat":39.643589,"lon":-5.64576},"name":"Deleitosa"},{"country":"ES","id":2518882,"coord":{"lat":37.326199,"lon":-3.59568},"name":"Deifontes"},{"country":"ES","id":6357692,"coord":{"lat":37.600979,"lon":-3.09434},"name":"Dehesas de Guadix"},{"country":"ES","id":2518893,"coord":{"lat":37.58876,"lon":-3.10318},"name":"Dehesas de Guadix"},{"country":"ES","id":6355438,"coord":{"lat":38.107761,"lon":-0.73164},"name":"Daya Vieja"},{"country":"ES","id":2518912,"coord":{"lat":38.104801,"lon":-0.73804},"name":"Daya Vieja"},{"country":"ES","id":6357691,"coord":{"lat":37.36071,"lon":-3.27524},"name":"Darro"},{"country":"ES","id":2518917,"coord":{"lat":37.349869,"lon":-3.29465},"name":"Darro"},{"country":"ES","id":2518921,"coord":{"lat":36.821789,"lon":-2.87138},"name":"Dalias"},{"country":"ES","id":6359455,"coord":{"lat":36.865452,"lon":-4.22422},"name":"C\u00fatar"},{"country":"ES","id":2518931,"coord":{"lat":36.831341,"lon":-4.22739},"name":"Cutar"},{"country":"ES","id":6358205,"coord":{"lat":38.04034,"lon":-6.68064},"name":"Cumbres Mayores"},{"country":"ES","id":2518942,"coord":{"lat":38.061939,"lon":-6.64565},"name":"Cumbres Mayores"},{"country":"ES","id":6357687,"coord":{"lat":37.159801,"lon":-3.68002},"name":"C\u00fallar Vega"},{"country":"ES","id":2518950,"coord":{"lat":37.15361,"lon":-3.67072},"name":"Cullar-Vega"},{"country":"ES","id":6359454,"coord":{"lat":37.260719,"lon":-4.42695},"name":"Cuevas de San Marcos"},{"country":"ES","id":2518969,"coord":{"lat":37.266659,"lon":-4.41432},"name":"Cuevas de San Marcos"},{"country":"ES","id":6359453,"coord":{"lat":36.8773,"lon":-5.03863},"name":"Cuevas del Becerro"},{"country":"ES","id":2518982,"coord":{"lat":36.87537,"lon":-5.04488},"name":"Cuevas del Becerro"},{"country":"ES","id":2518988,"coord":{"lat":37.296459,"lon":-1.88466},"name":"Cuevas del Almanzora"},{"country":"ES","id":6359452,"coord":{"lat":37.230011,"lon":-4.47931},"name":"Cuevas Bajas"},{"country":"ES","id":2518993,"coord":{"lat":37.23526,"lon":-4.48714},"name":"Cuevas Bajas"},{"country":"ES","id":6361715,"coord":{"lat":39.662312,"lon":-4.21075},"name":"Cuerva"},{"country":"ES","id":2519028,"coord":{"lat":39.663738,"lon":-4.21085},"name":"Cuerva"},{"country":"ES","id":6361969,"coord":{"lat":38.96302,"lon":-0.39547},"name":"Quatretonda"},{"country":"ES","id":2519061,"coord":{"lat":38.950001,"lon":-0.4},"name":"Quatretonda"},{"country":"ES","id":6361923,"coord":{"lat":39.724319,"lon":-0.27135},"name":"Benifair\u00f3 de les Valls"},{"country":"ES","id":2519066,"coord":{"lat":39.73333,"lon":-0.26667},"name":"Quartell"},{"country":"ES","id":2519069,"coord":{"lat":39.73333,"lon":-0.26667},"name":"Quart de les Valls"},{"country":"ES","id":6355906,"coord":{"lat":38.825359,"lon":-6.10084},"name":"Cristina"},{"country":"ES","id":2519105,"coord":{"lat":38.837448,"lon":-6.09867},"name":"Cristina"},{"country":"ES","id":6357131,"coord":{"lat":38.666641,"lon":-3.07656},"name":"C\u00f3zar"},{"country":"ES","id":2519118,"coord":{"lat":38.662189,"lon":-3.07205},"name":"Cozar"},{"country":"ES","id":6355434,"coord":{"lat":38.147541,"lon":-0.89086},"name":"Cox"},{"country":"ES","id":2519120,"coord":{"lat":38.14164,"lon":-0.88736},"name":"Cox"},{"country":"ES","id":6355320,"coord":{"lat":38.426689,"lon":-2.49891},"name":"Cotillas"},{"country":"ES","id":2519134,"coord":{"lat":38.431149,"lon":-2.5055},"name":"Cotillas"},{"country":"ES","id":6361965,"coord":{"lat":39.06469,"lon":-0.58639},"name":"Cotes"},{"country":"ES","id":2519137,"coord":{"lat":39.070099,"lon":-0.57449},"name":"Cotes"},{"country":"ES","id":6533941,"coord":{"lat":39.655659,"lon":2.94794},"name":"Costitx"},{"country":"ES","id":2519139,"coord":{"lat":39.65675,"lon":2.94953},"name":"Costitx"},{"country":"ES","id":6361964,"coord":{"lat":39.24411,"lon":-0.90619},"name":"Cortes de Pall\u00e1s"},{"country":"ES","id":2519197,"coord":{"lat":39.25,"lon":-0.93333},"name":"Cortes de Pallas"},{"country":"ES","id":2519199,"coord":{"lat":37.65514,"lon":-2.77166},"name":"Cortes de Baza"},{"country":"ES","id":6358202,"coord":{"lat":37.943062,"lon":-6.61572},"name":"Cortelazor"},{"country":"ES","id":2519203,"coord":{"lat":37.93639,"lon":-6.62462},"name":"Cortelazor"},{"country":"ES","id":6355905,"coord":{"lat":38.73188,"lon":-6.65084},"name":"Corte de Peleas"},{"country":"ES","id":2519207,"coord":{"lat":38.726311,"lon":-6.67035},"name":"Corte de Peleas"},{"country":"ES","id":6358200,"coord":{"lat":37.940361,"lon":-6.49212},"name":"Corteconcepci\u00f3n"},{"country":"ES","id":2519208,"coord":{"lat":37.900002,"lon":-6.5},"name":"Corteconcepcion"},{"country":"ES","id":6355319,"coord":{"lat":38.811062,"lon":-1.44696},"name":"Corral-Rubio"},{"country":"ES","id":2519211,"coord":{"lat":38.834621,"lon":-1.46034},"name":"Corral-Rubio"},{"country":"ES","id":6357129,"coord":{"lat":38.877232,"lon":-4.12599},"name":"Corral de Calatrava"},{"country":"ES","id":2519219,"coord":{"lat":38.857929,"lon":-4.0814},"name":"Corral de Calatrava"},{"country":"ES","id":6361714,"coord":{"lat":39.754471,"lon":-3.18649},"name":"Corral de Almaguer"},{"country":"ES","id":2519221,"coord":{"lat":39.759869,"lon":-3.16452},"name":"Corral de Almaguer"},{"country":"ES","id":6360990,"coord":{"lat":36.996368,"lon":-5.39837},"name":"Coripe"},{"country":"ES","id":2519232,"coord":{"lat":36.973351,"lon":-5.44022},"name":"Coripe"},{"country":"ES","id":6355903,"coord":{"lat":39.14463,"lon":-6.44336},"name":"Cordobilla de L\u00e1cara"},{"country":"ES","id":2519237,"coord":{"lat":39.147629,"lon":-6.43619},"name":"Cordobilla de Lacara"},{"country":"ES","id":6361963,"coord":{"lat":39.16011,"lon":-0.34471},"name":"Corbera"},{"country":"ES","id":2519264,"coord":{"lat":39.150002,"lon":-0.35},"name":"Corbera"},{"country":"ES","id":6360988,"coord":{"lat":37.849579,"lon":-5.60296},"name":"Constantina"},{"country":"ES","id":2519278,"coord":{"lat":37.866669,"lon":-5.61667},"name":"Constantina"},{"country":"ES","id":6533940,"coord":{"lat":39.66766,"lon":2.81138},"name":"Consell"},{"country":"ES","id":2519283,"coord":{"lat":39.66861,"lon":2.81267},"name":"Consell"},{"country":"ES","id":2519284,"coord":{"lat":39.3507,"lon":-5.73464},"name":"Conquista de la Sierra"},{"country":"ES","id":6357215,"coord":{"lat":38.40609,"lon":-4.48579},"name":"Conquista"},{"country":"ES","id":2519286,"coord":{"lat":38.400002,"lon":-4.5},"name":"Conquista"},{"country":"ES","id":2519293,"coord":{"lat":38.684509,"lon":-0.2689},"name":"Confrides"},{"country":"ES","id":2519319,"coord":{"lat":36.833519,"lon":-3.9743},"name":"Competa"},{"country":"ES","id":6359449,"coord":{"lat":36.855549,"lon":-4.26198},"name":"Comares"},{"country":"ES","id":2519325,"coord":{"lat":36.849289,"lon":-4.24664},"name":"Comares"},{"country":"ES","id":6357683,"coord":{"lat":37.388142,"lon":-3.69468},"name":"Colomera"},{"country":"ES","id":2519343,"coord":{"lat":37.371559,"lon":-3.71393},"name":"Colomera"},{"country":"ES","id":6357681,"coord":{"lat":37.224491,"lon":-3.17844},"name":"Cogollos de Guadix"},{"country":"ES","id":2519370,"coord":{"lat":37.225208,"lon":-3.16094},"name":"Cogollos de Guadix"},{"country":"ES","id":2519373,"coord":{"lat":39.229259,"lon":-1.06061},"name":"Cofrentes"},{"country":"ES","id":2519382,"coord":{"lat":38.73975,"lon":-0.43976},"name":"Cocentaina"},{"country":"ES","id":6361710,"coord":{"lat":39.946819,"lon":-3.62017},"name":"Ciruelos"},{"country":"ES","id":2519409,"coord":{"lat":39.938808,"lon":-3.61383},"name":"Ciruelos"},{"country":"ES","id":6357680,"coord":{"lat":37.178379,"lon":-3.82701},"name":"Cijuela"},{"country":"ES","id":2519421,"coord":{"lat":37.198002,"lon":-3.81174},"name":"Cijuela"},{"country":"ES","id":6357690,"coord":{"lat":37.154099,"lon":-3.63801},"name":"Churriana de la Vega"},{"country":"ES","id":2519436,"coord":{"lat":37.144989,"lon":-3.64617},"name":"Churriana de la Vega"},{"country":"ES","id":6357431,"coord":{"lat":39.773071,"lon":-2.02819},"name":"Chumillas"},{"country":"ES","id":2519441,"coord":{"lat":39.76667,"lon":-2.03333},"name":"Chumillas"},{"country":"ES","id":6361977,"coord":{"lat":39.651348,"lon":-0.85005},"name":"Chulilla"},{"country":"ES","id":2519444,"coord":{"lat":39.650002,"lon":-0.88333},"name":"Chulilla"},{"country":"ES","id":6361717,"coord":{"lat":39.728619,"lon":-3.939},"name":"Chueca"},{"country":"ES","id":2519445,"coord":{"lat":39.731911,"lon":-3.94365},"name":"Chueca"},{"country":"ES","id":6358206,"coord":{"lat":37.358261,"lon":-6.39004},"name":"Chucena"},{"country":"ES","id":2519447,"coord":{"lat":37.363049,"lon":-6.39304},"name":"Chucena"},{"country":"ES","id":6357009,"coord":{"lat":39.85239,"lon":-0.32898},"name":"Ch\u00f3var"},{"country":"ES","id":2519450,"coord":{"lat":39.849998,"lon":-0.31667},"name":"Chovar"},{"country":"ES","id":6355552,"coord":{"lat":37.608002,"lon":-2.28227},"name":"Chirivel"},{"country":"ES","id":2519468,"coord":{"lat":37.595268,"lon":-2.26844},"name":"Chirivel"},{"country":"ES","id":6357689,"coord":{"lat":37.12228,"lon":-3.82458},"name":"Chimeneas"},{"country":"ES","id":2519491,"coord":{"lat":37.131248,"lon":-3.8213},"name":"Chimeneas"},{"country":"ES","id":6358481,"coord":{"lat":37.990082,"lon":-3.03107},"name":"Chillu\u00e9var"},{"country":"ES","id":2519495,"coord":{"lat":38.000881,"lon":-3.0324},"name":"Chilluevar"},{"country":"ES","id":6357132,"coord":{"lat":38.806862,"lon":-4.86471},"name":"Chill\u00f3n"},{"country":"ES","id":2519497,"coord":{"lat":38.795952,"lon":-4.86628},"name":"Chillon"},{"country":"ES","id":6356970,"coord":{"lat":39.749931,"lon":-0.22771},"name":"Almenara"},{"country":"ES","id":2519503,"coord":{"lat":39.782379,"lon":-0.18742},"name":"Chilches"},{"country":"ES","id":6355551,"coord":{"lat":37.262959,"lon":-2.26719},"name":"Chercos"},{"country":"ES","id":2519525,"coord":{"lat":37.254501,"lon":-2.26657},"name":"Chercos"},{"country":"ES","id":6361973,"coord":{"lat":39.58049,"lon":-0.93547},"name":"Chera"},{"country":"ES","id":2519526,"coord":{"lat":39.599998,"lon":-0.96667},"name":"Chera"},{"country":"ES","id":6361972,"coord":{"lat":39.0462,"lon":-0.69487},"name":"Chella"},{"country":"ES","id":2519529,"coord":{"lat":39.04203,"lon":-0.65916},"name":"Chella"},{"country":"ES","id":6355907,"coord":{"lat":38.549759,"lon":-7.25974},"name":"Cheles"},{"country":"ES","id":2519530,"coord":{"lat":38.512249,"lon":-7.28176},"name":"Cheles"},{"country":"ES","id":6357427,"coord":{"lat":39.788521,"lon":-2.43251},"name":"Cervera del Llano"},{"country":"ES","id":2519584,"coord":{"lat":39.783119,"lon":-2.42019},"name":"Cervera del Llano"},{"country":"ES","id":6361961,"coord":{"lat":38.987492,"lon":-0.59304},"name":"Cerd\u00e0"},{"country":"ES","id":2519623,"coord":{"lat":38.98333,"lon":-0.56667},"name":"Cerda"},{"country":"ES","id":6355318,"coord":{"lat":39.303501,"lon":-1.6563},"name":"Cenizate"},{"country":"ES","id":2519632,"coord":{"lat":39.299999,"lon":-1.65},"name":"Cenizate"},{"country":"ES","id":6357679,"coord":{"lat":37.156441,"lon":-3.53649},"name":"Cenes de la Vega"},{"country":"ES","id":2519634,"coord":{"lat":37.160061,"lon":-3.53548},"name":"Cenes de la Vega"},{"country":"ES","id":6356759,"coord":{"lat":39.630951,"lon":-7.47503},"name":"Cedillo"},{"country":"ES","id":2519656,"coord":{"lat":39.65099,"lon":-7.49817},"name":"Cedillo"},{"country":"ES","id":6356758,"coord":{"lat":39.832539,"lon":-6.7322},"name":"Ceclav\u00edn"},{"country":"ES","id":2519659,"coord":{"lat":39.822311,"lon":-6.77329},"name":"Ceclavin"},{"country":"ES","id":6361706,"coord":{"lat":39.937649,"lon":-4.56109},"name":"Cebolla"},{"country":"ES","id":2519664,"coord":{"lat":39.948971,"lon":-4.57175},"name":"Cebolla"},{"country":"ES","id":6360987,"coord":{"lat":37.945999,"lon":-5.76233},"name":"Cazalla de la Sierra"},{"country":"ES","id":2519675,"coord":{"lat":37.933331,"lon":-5.75},"name":"Cazalla de la Sierra"},{"country":"ES","id":2519677,"coord":{"lat":37.983891,"lon":-3.88296},"name":"Cazalilla"},{"country":"ES","id":6361960,"coord":{"lat":39.551121,"lon":-1.29275},"name":"Caudete de las Fuentes"},{"country":"ES","id":2519683,"coord":{"lat":39.566669,"lon":-1.25},"name":"Caudete de las Fuentes"},{"country":"ES","id":6355317,"coord":{"lat":38.706219,"lon":-1.04109},"name":"Caudete"},{"country":"ES","id":2519685,"coord":{"lat":38.706799,"lon":-0.98722},"name":"Caudete"},{"country":"ES","id":6355431,"coord":{"lat":38.157982,"lon":-0.79689},"name":"Catral"},{"country":"ES","id":2519688,"coord":{"lat":38.16061,"lon":-0.80209},"name":"Catral"},{"country":"ES","id":6361958,"coord":{"lat":39.26479,"lon":-0.57862},"name":"Catadau"},{"country":"ES","id":2519694,"coord":{"lat":39.26667,"lon":-0.56667},"name":"Catadau"},{"country":"ES","id":2519696,"coord":{"lat":38.73204,"lon":-5.5439},"name":"Castuera"},{"country":"ES","id":6355548,"coord":{"lat":37.183762,"lon":-2.45118},"name":"Castro de Filabres"},{"country":"ES","id":2519698,"coord":{"lat":37.184841,"lon":-2.44024},"name":"Castro de Filabres"},{"country":"ES","id":6357678,"coord":{"lat":37.853409,"lon":-2.77545},"name":"Castril"},{"country":"ES","id":2519703,"coord":{"lat":37.795811,"lon":-2.78002},"name":"Castril"},{"country":"ES","id":6357426,"coord":{"lat":39.679249,"lon":-2.35973},"name":"Castillo de Garcimu\u00f1oz"},{"country":"ES","id":2519713,"coord":{"lat":39.659279,"lon":-2.3803},"name":"Castillo de Garcimunoz"},{"country":"ES","id":6357423,"coord":{"lat":39.536652,"lon":-1.74727},"name":"Castillejo de Iniesta"},{"country":"ES","id":2519730,"coord":{"lat":39.533329,"lon":-1.76667},"name":"Castillejo de Iniesta"},{"country":"ES","id":6357677,"coord":{"lat":37.72575,"lon":-2.65187},"name":"Castill\u00e9jar"},{"country":"ES","id":2519736,"coord":{"lat":37.716969,"lon":-2.6406},"name":"Castillejar"},{"country":"ES","id":6360982,"coord":{"lat":37.725979,"lon":-6.00028},"name":"Castilblanco de los Arroyos"},{"country":"ES","id":2519746,"coord":{"lat":37.675758,"lon":-5.98886},"name":"Castilblanco de los Arroyos"},{"country":"ES","id":6355900,"coord":{"lat":39.31424,"lon":-5.08196},"name":"Castilblanco"},{"country":"ES","id":2519747,"coord":{"lat":39.28487,"lon":-5.09098},"name":"Castilblanco"},{"country":"ES","id":6361956,"coord":{"lat":38.908508,"lon":-0.26401},"name":"Castellonet de la Conquesta"},{"country":"ES","id":2519749,"coord":{"lat":38.916672,"lon":-0.26667},"name":"Castellonet de la Conquesta"},{"country":"ES","id":6361955,"coord":{"lat":38.879101,"lon":-0.38497},"name":"Castell\u00f3 de Rugat"},{"country":"ES","id":2519751,"coord":{"lat":38.883331,"lon":-0.36667},"name":"Castello de Rugat"},{"country":"ES","id":6356994,"coord":{"lat":39.849331,"lon":-0.45286},"name":"Castellnovo"},{"country":"ES","id":2519753,"coord":{"lat":39.866669,"lon":-0.45},"name":"Castellnovo"},{"country":"ES","id":6355430,"coord":{"lat":38.737808,"lon":-0.19534},"name":"Castell de Castells"},{"country":"ES","id":2519758,"coord":{"lat":38.725559,"lon":-0.19242},"name":"Castell de Castells"},{"country":"ES","id":6357127,"coord":{"lat":38.51572,"lon":-3.2917},"name":"Castellar de Santiago"},{"country":"ES","id":2519762,"coord":{"lat":38.53928,"lon":-3.27573},"name":"Castellar de Santiago"},{"country":"ES","id":6357676,"coord":{"lat":36.91169,"lon":-3.23511},"name":"C\u00e1staras"},{"country":"ES","id":2519770,"coord":{"lat":36.931641,"lon":-3.25406},"name":"Castaras"},{"country":"ES","id":2519780,"coord":{"lat":39.628429,"lon":-5.41709},"name":"Castanar de Ibor"},{"country":"ES","id":6355429,"coord":{"lat":38.566719,"lon":-0.64583},"name":"Castalla"},{"country":"ES","id":2519783,"coord":{"lat":38.596939,"lon":-0.67207},"name":"Castalla"},{"country":"ES","id":6361954,"coord":{"lat":39.695259,"lon":-0.73946},"name":"Casinos"},{"country":"ES","id":2519786,"coord":{"lat":39.700001,"lon":-0.7},"name":"Casinos"},{"country":"ES","id":6356756,"coord":{"lat":39.967251,"lon":-6.66324},"name":"Casillas de Coria"},{"country":"ES","id":2519795,"coord":{"lat":39.965431,"lon":-6.63711},"name":"Casillas de Coria"},{"country":"ES","id":2519861,"coord":{"lat":39.886421,"lon":-5.68193},"name":"Casatejada"},{"country":"ES","id":6357421,"coord":{"lat":39.388271,"lon":-2.0667},"name":"Casasimarro"},{"country":"ES","id":2519879,"coord":{"lat":39.366669,"lon":-2.03333},"name":"Casasimarro"},{"country":"ES","id":2519882,"coord":{"lat":39.25,"lon":-1.33333},"name":"Casas de Ves"},{"country":"ES","id":6355899,"coord":{"lat":38.192009,"lon":-5.9624},"name":"Casas de Reina"},{"country":"ES","id":2519889,"coord":{"lat":38.200001,"lon":-5.96667},"name":"Casas de Reina"},{"country":"ES","id":6356754,"coord":{"lat":39.74435,"lon":-5.77164},"name":"Casas de Miravete"},{"country":"ES","id":2519898,"coord":{"lat":39.726879,"lon":-5.74363},"name":"Casas de Miravete"},{"country":"ES","id":6356753,"coord":{"lat":39.786121,"lon":-6.30286},"name":"Casas de Mill\u00e1n"},{"country":"ES","id":2519899,"coord":{"lat":39.81757,"lon":-6.32966},"name":"Casas de Millan"},{"country":"ES","id":6357420,"coord":{"lat":39.288799,"lon":-2.36912},"name":"Casas de los Pinos"},{"country":"ES","id":2519908,"coord":{"lat":39.333759,"lon":-2.36984},"name":"Casas de los Pinos"},{"country":"ES","id":2519927,"coord":{"lat":38.770561,"lon":-2.24044},"name":"Casas de Lazaro"},{"country":"ES","id":6355313,"coord":{"lat":39.09333,"lon":-1.55946},"name":"Casas de Juan N\u00fa\u00f1ez"},{"country":"ES","id":2519937,"coord":{"lat":39.101898,"lon":-1.55822},"name":"Casas de Juan Nunez"},{"country":"ES","id":6357419,"coord":{"lat":39.291519,"lon":-2.26154},"name":"Casas de Haro"},{"country":"ES","id":2519943,"coord":{"lat":39.333549,"lon":-2.27273},"name":"Casas de Haro"},{"country":"ES","id":6357418,"coord":{"lat":39.340569,"lon":-2.15296},"name":"Casas de Guijarro"},{"country":"ES","id":2519944,"coord":{"lat":39.349998,"lon":-2.16667},"name":"Casas de Guijarro"},{"country":"ES","id":6357417,"coord":{"lat":40.012531,"lon":-1.41758},"name":"Casas de Garcimolina"},{"country":"ES","id":2519945,"coord":{"lat":40,"lon":-1.41667},"name":"Casas de Garcimolina"},{"country":"ES","id":6357416,"coord":{"lat":39.34235,"lon":-2.33613},"name":"Casas de Fernando Alonso"},{"country":"ES","id":2519946,"coord":{"lat":39.350651,"lon":-2.32402},"name":"Casas de Fernando Alonso"},{"country":"ES","id":2519949,"coord":{"lat":39.108219,"lon":-5.33077},"name":"Casas de Don Pedro"},{"country":"ES","id":6356749,"coord":{"lat":39.233021,"lon":-6.28072},"name":"Casas de Don Antonio"},{"country":"ES","id":2519952,"coord":{"lat":39.235779,"lon":-6.29143},"name":"Casas de Don Antonio"},{"country":"ES","id":6357415,"coord":{"lat":39.319221,"lon":-2.10229},"name":"Casas de Ben\u00edtez"},{"country":"ES","id":2519954,"coord":{"lat":39.366669,"lon":-2.13333},"name":"Casas de Benitez"},{"country":"ES","id":6361703,"coord":{"lat":39.76511,"lon":-4.09733},"name":"Casasbuenas"},{"country":"ES","id":2519967,"coord":{"lat":39.761169,"lon":-4.12558},"name":"Casasbuenas"},{"country":"ES","id":6360981,"coord":{"lat":37.303699,"lon":-4.75817},"name":"Casariche"},{"country":"ES","id":2519979,"coord":{"lat":37.293892,"lon":-4.75972},"name":"Casariche"},{"country":"ES","id":6359446,"coord":{"lat":36.430882,"lon":-5.26922},"name":"Casares"},{"country":"ES","id":2519980,"coord":{"lat":36.446892,"lon":-5.2858},"name":"Casares"},{"country":"ES","id":6359444,"coord":{"lat":36.866058,"lon":-4.42681},"name":"Casabermeja"},{"country":"ES","id":2520045,"coord":{"lat":36.892601,"lon":-4.42938},"name":"Casabermeja"},{"country":"ES","id":2520053,"coord":{"lat":36.73333,"lon":-4.61667},"name":"Estacion de Cartama"},{"country":"ES","id":6359442,"coord":{"lat":36.65271,"lon":-5.15113},"name":"Cartajima"},{"country":"ES","id":2520056,"coord":{"lat":36.645481,"lon":-5.1541},"name":"Cartajima"},{"country":"ES","id":6357126,"coord":{"lat":38.841572,"lon":-2.99288},"name":"Carrizosa"},{"country":"ES","id":2520064,"coord":{"lat":38.842041,"lon":-2.9925},"name":"Carrizosa"},{"country":"ES","id":6360980,"coord":{"lat":37.363251,"lon":-6.32792},"name":"Carri\u00f3n de los C\u00e9spedes"},{"country":"ES","id":2520071,"coord":{"lat":37.370071,"lon":-6.32923},"name":"Carrion de los Cespedes"},{"country":"ES","id":6357125,"coord":{"lat":39.05978,"lon":-3.83144},"name":"Carri\u00f3n de Calatrava"},{"country":"ES","id":2520072,"coord":{"lat":39.018978,"lon":-3.81683},"name":"Carrion de Calatrava"},{"country":"ES","id":6361951,"coord":{"lat":38.84396,"lon":-0.47028},"name":"Carr\u00edcola"},{"country":"ES","id":2520077,"coord":{"lat":38.841331,"lon":-0.4726},"name":"Carricola"},{"country":"ES","id":6361700,"coord":{"lat":39.964771,"lon":-4.45717},"name":"Carriches"},{"country":"ES","id":2520078,"coord":{"lat":39.964169,"lon":-4.45864},"name":"Carriches"},{"country":"ES","id":6359441,"coord":{"lat":36.846802,"lon":-4.82179},"name":"Carratraca"},{"country":"ES","id":2520083,"coord":{"lat":36.852901,"lon":-4.81998},"name":"Carratraca"},{"country":"ES","id":6357414,"coord":{"lat":39.585949,"lon":-2.53843},"name":"Carrascosa de Haro"},{"country":"ES","id":2520087,"coord":{"lat":39.597569,"lon":-2.54182},"name":"Carrascosa de Haro"},{"country":"ES","id":6356745,"coord":{"lat":39.63979,"lon":-5.21363},"name":"Carrascalejo"},{"country":"ES","id":2520092,"coord":{"lat":39.633331,"lon":-5.21667},"name":"Carrascalejo"},{"country":"ES","id":6361697,"coord":{"lat":39.935131,"lon":-4.39432},"name":"Carmena"},{"country":"ES","id":2520119,"coord":{"lat":39.95562,"lon":-4.40148},"name":"Carmena"},{"country":"ES","id":6357412,"coord":{"lat":39.807781,"lon":-1.70244},"name":"Cardenete"},{"country":"ES","id":2520131,"coord":{"lat":39.76667,"lon":-1.68333},"name":"Cardenete"},{"country":"ES","id":6361949,"coord":{"lat":39.062889,"lon":-0.57215},"name":"C\u00e0rcer"},{"country":"ES","id":2520144,"coord":{"lat":39.066669,"lon":-0.56667},"name":"Carcer"},{"country":"ES","id":6355312,"coord":{"lat":39.109921,"lon":-1.28877},"name":"Carcel\u00e9n"},{"country":"ES","id":2520145,"coord":{"lat":39.10202,"lon":-1.30879},"name":"Carcelen"},{"country":"ES","id":6357210,"coord":{"lat":37.44083,"lon":-4.29916},"name":"Carcabuey"},{"country":"ES","id":2520151,"coord":{"lat":37.444199,"lon":-4.27471},"name":"Carcabuey"},{"country":"ES","id":6357411,"coord":{"lat":39.906761,"lon":-1.81583},"name":"Carboneras de Guadaza\u00f3n"},{"country":"ES","id":2520156,"coord":{"lat":39.883331,"lon":-1.8},"name":"Carboneras de Guadazaon"},{"country":"ES","id":2520163,"coord":{"lat":36.996658,"lon":-1.89651},"name":"Carboneras"},{"country":"ES","id":6356743,"coord":{"lat":39.627419,"lon":-7.17521},"name":"Carbajo"},{"country":"ES","id":2520169,"coord":{"lat":39.603329,"lon":-7.19565},"name":"Carbajo"},{"country":"ES","id":6357675,"coord":{"lat":36.921909,"lon":-3.39361},"name":"Carataunas"},{"country":"ES","id":2520172,"coord":{"lat":36.922039,"lon":-3.40834},"name":"Carataunas"},{"country":"ES","id":6355895,"coord":{"lat":38.798141,"lon":-5.05222},"name":"Capilla"},{"country":"ES","id":2520192,"coord":{"lat":38.820358,"lon":-5.08417},"name":"Capilla"},{"country":"ES","id":6357674,"coord":{"lat":37.005959,"lon":-3.35056},"name":"Capileira"},{"country":"ES","id":2520194,"coord":{"lat":36.961479,"lon":-3.35864},"name":"Capileira"},{"country":"ES","id":6360978,"coord":{"lat":37.620911,"lon":-5.81939},"name":"Cantillana"},{"country":"ES","id":2520215,"coord":{"lat":37.610321,"lon":-5.82472},"name":"Cantillana"},{"country":"ES","id":6355545,"coord":{"lat":37.003471,"lon":-2.73871},"name":"Canj\u00e1yar"},{"country":"ES","id":2520248,"coord":{"lat":37.00959,"lon":-2.73943},"name":"Canjayar"},{"country":"ES","id":6359439,"coord":{"lat":36.850391,"lon":-3.97937},"name":"Canillas de Albaida"},{"country":"ES","id":2520253,"coord":{"lat":36.846649,"lon":-3.98678},