[{"country":"DE","id":2876092,"coord":{"lat":48.616669,"lon":12.43333},"name":"Loiching"},{"country":"DE","id":6548721,"coord":{"lat":51.383301,"lon":14.4},"name":"Lohsa"},{"country":"DE","id":2876117,"coord":{"lat":51.383331,"lon":14.4},"name":"Lohsa"},{"country":"DE","id":6555122,"coord":{"lat":49.633301,"lon":7.6},"name":"Lohnweiler"},{"country":"DE","id":2876158,"coord":{"lat":49.633331,"lon":7.6},"name":"Lohnweiler"},{"country":"DE","id":6547896,"coord":{"lat":53.6833,"lon":12.1},"name":"Lohmen"},{"country":"DE","id":2876211,"coord":{"lat":53.68298,"lon":12.0944},"name":"Lohmen"},{"country":"DE","id":6548421,"coord":{"lat":54.583302,"lon":13.6167},"name":"Lohme"},{"country":"DE","id":2876215,"coord":{"lat":54.583328,"lon":13.61667},"name":"Lohme"},{"country":"DE","id":6556648,"coord":{"lat":49.178619,"lon":13.10274},"name":"Lohberg"},{"country":"DE","id":2876357,"coord":{"lat":49.176041,"lon":13.10549},"name":"Lohberg"},{"country":"DE","id":6547401,"coord":{"lat":50.997601,"lon":12.3891},"name":"L\u00f6dla"},{"country":"DE","id":2876489,"coord":{"lat":51,"lon":12.38333},"name":"Lodla"},{"country":"DE","id":6548286,"coord":{"lat":54.033298,"lon":14.0167},"name":"Loddin"},{"country":"DE","id":2876510,"coord":{"lat":54.033329,"lon":14.01667},"name":"Loddin"},{"country":"DE","id":6548196,"coord":{"lat":53.833302,"lon":10.8667},"name":"Lockwisch"},{"country":"DE","id":2876523,"coord":{"lat":53.833328,"lon":10.86667},"name":"Lockwisch"},{"country":"DE","id":6548465,"coord":{"lat":53.4856,"lon":14.2239},"name":"L\u00f6cknitz"},{"country":"DE","id":2876538,"coord":{"lat":53.453918,"lon":14.21116},"name":"Locknitz"},{"country":"DE","id":2876539,"coord":{"lat":53.283329,"lon":11.78333},"name":"Locknitz"},{"country":"DE","id":2876645,"coord":{"lat":51.397381,"lon":12.05303},"name":"Lochau"},{"country":"DE","id":7602440,"coord":{"lat":54.295368,"lon":12.71929},"name":"L\u00f6bnitz"},{"country":"DE","id":2876697,"coord":{"lat":54.295368,"lon":12.71929},"name":"Lobnitz"},{"country":"DE","id":6548743,"coord":{"lat":51.599998,"lon":12.4667},"name":"L\u00f6bnitz"},{"country":"DE","id":2876698,"coord":{"lat":51.592381,"lon":12.46347},"name":"Lobnitz"},{"country":"DE","id":6550547,"coord":{"lat":50.894299,"lon":12.309},"name":"L\u00f6bichau"},{"country":"DE","id":2876708,"coord":{"lat":50.900002,"lon":12.26667},"name":"Lobichau"},{"country":"DE","id":6552596,"coord":{"lat":53.599998,"lon":8.88333},"name":"Lintig"},{"country":"DE","id":2876963,"coord":{"lat":53.603409,"lon":8.87876},"name":"Lintig"},{"country":"DE","id":6547674,"coord":{"lat":52.197498,"lon":12.7851},"name":"Linthe"},{"country":"DE","id":2876965,"coord":{"lat":52.150002,"lon":12.78333},"name":"Linthe"},{"country":"DE","id":6552776,"coord":{"lat":52.616699,"lon":9.68333},"name":"Lindwedel"},{"country":"DE","id":2877104,"coord":{"lat":52.607841,"lon":9.68737},"name":"Lindwedel"},{"country":"DE","id":2877126,"coord":{"lat":52.966888,"lon":12.98498},"name":"Lindow"},{"country":"DE","id":6549799,"coord":{"lat":51.3167,"lon":9.95},"name":"Lindewerra"},{"country":"DE","id":2877205,"coord":{"lat":51.316669,"lon":9.95},"name":"Lindewerra"},{"country":"DE","id":6553924,"coord":{"lat":49.900002,"lon":7.4},"name":"Lindenschied"},{"country":"DE","id":2877251,"coord":{"lat":49.900002,"lon":7.4},"name":"Lindenschied"},{"country":"DE","id":6547841,"coord":{"lat":53.766701,"lon":13.0167},"name":"Lindenberg"},{"country":"DE","id":2877342,"coord":{"lat":53.76667,"lon":13.01667},"name":"Lindenberg"},{"country":"DE","id":6551348,"coord":{"lat":54.25,"lon":9.18333},"name":"Linden"},{"country":"DE","id":2877441,"coord":{"lat":54.25,"lon":9.18333},"name":"Linden"},{"country":"DE","id":6554238,"coord":{"lat":50.599998,"lon":7.85},"name":"Linden"},{"country":"DE","id":2877448,"coord":{"lat":50.599998,"lon":7.85},"name":"Linden"},{"country":"DE","id":6555045,"coord":{"lat":49.349998,"lon":7.65},"name":"Linden"},{"country":"DE","id":2877455,"coord":{"lat":49.349998,"lon":7.65},"name":"Linden"},{"country":"DE","id":6556549,"coord":{"lat":49.033298,"lon":13.25},"name":"Lindberg"},{"country":"DE","id":2877525,"coord":{"lat":49.0368,"lon":13.25423},"name":"Lindberg"},{"country":"DE","id":6551874,"coord":{"lat":54.383301,"lon":9.9},"name":"Lindau"},{"country":"DE","id":2877545,"coord":{"lat":54.383331,"lon":9.9},"name":"Lindau"},{"country":"DE","id":6553321,"coord":{"lat":50.495251,"lon":6.93915},"name":"Lind"},{"country":"DE","id":2877616,"coord":{"lat":50.5,"lon":6.93333},"name":"Lind"},{"country":"DE","id":6553766,"coord":{"lat":50.3167,"lon":7.03333},"name":"Lind"},{"country":"DE","id":2877617,"coord":{"lat":50.316669,"lon":7.03333},"name":"Lind"},{"country":"DE","id":6554237,"coord":{"lat":50.700001,"lon":7.8},"name":"Limbach"},{"country":"DE","id":2877681,"coord":{"lat":50.700001,"lon":7.8},"name":"Limbach"},{"country":"DE","id":6548536,"coord":{"lat":50.583302,"lon":12.25},"name":"Limbach"},{"country":"DE","id":2877683,"coord":{"lat":50.583328,"lon":12.25},"name":"Limbach"},{"country":"DE","id":6553510,"coord":{"lat":49.741459,"lon":7.54263},"name":"Limbach"},{"country":"DE","id":2877690,"coord":{"lat":49.73333,"lon":7.55},"name":"Limbach"},{"country":"DE","id":6555647,"coord":{"lat":49.461899,"lon":9.21111},"name":"Limbach"},{"country":"DE","id":2877693,"coord":{"lat":49.461941,"lon":9.21111},"name":"Limbach"},{"country":"DE","id":6548420,"coord":{"lat":54.483299,"lon":13.5167},"name":"Lietzow"},{"country":"DE","id":2877728,"coord":{"lat":54.481709,"lon":13.50718},"name":"Lietzow"},{"country":"DE","id":6547609,"coord":{"lat":52.467701,"lon":14.3455},"name":"Lietzen"},{"country":"DE","id":2877732,"coord":{"lat":52.466671,"lon":14.35},"name":"Lietzen"},{"country":"DE","id":6551347,"coord":{"lat":54.150002,"lon":9.05},"name":"Lieth"},{"country":"DE","id":2877747,"coord":{"lat":54.150002,"lon":9.05},"name":"Lieth"},{"country":"DE","id":6554459,"coord":{"lat":50.033298,"lon":6.48333},"name":"Lie\u00dfem"},{"country":"DE","id":2877759,"coord":{"lat":50.033329,"lon":6.48333},"name":"Liessem"},{"country":"DE","id":6553703,"coord":{"lat":50.083302,"lon":7.28333},"name":"Liesenich"},{"country":"DE","id":2877773,"coord":{"lat":50.083328,"lon":7.28333},"name":"Liesenich"},{"country":"DE","id":6554566,"coord":{"lat":50.133301,"lon":6.36667},"name":"Lierfeld"},{"country":"DE","id":2877792,"coord":{"lat":50.133331,"lon":6.36667},"name":"Lierfeld"},{"country":"DE","id":6548285,"coord":{"lat":53.883301,"lon":13.4667},"name":"Liepen"},{"country":"DE","id":2877815,"coord":{"lat":53.883331,"lon":13.46667},"name":"Liepen"},{"country":"DE","id":6547551,"coord":{"lat":52.866699,"lon":13.9667},"name":"Liepe"},{"country":"DE","id":2877826,"coord":{"lat":52.862129,"lon":13.96946},"name":"Liepe"},{"country":"DE","id":6553702,"coord":{"lat":50.133301,"lon":7.35},"name":"Lieg"},{"country":"DE","id":2877863,"coord":{"lat":50.133331,"lon":7.35},"name":"Lieg"},{"country":"DE","id":2877979,"coord":{"lat":52.603619,"lon":9.09719},"name":"Liebenau"},{"country":"DE","id":2877980,"coord":{"lat":51.49699,"lon":9.28207},"name":"Liebenau"},{"country":"DE","id":6548600,"coord":{"lat":50.700001,"lon":12.4333},"name":"Lichtentanne"},{"country":"DE","id":2878027,"coord":{"lat":50.700001,"lon":12.43333},"name":"Lichtentanne"},{"country":"DE","id":2878037,"coord":{"lat":50.75,"lon":12.65},"name":"Lichtenstein"},{"country":"DE","id":6548720,"coord":{"lat":51.1833,"lon":13.9667},"name":"Lichtenberg"},{"country":"DE","id":2878109,"coord":{"lat":51.183331,"lon":13.96667},"name":"Lichtenberg"},{"country":"DE","id":2878111,"coord":{"lat":50.833328,"lon":13.41667},"name":"Lichtenberg"},{"country":"DE","id":2878114,"coord":{"lat":50.38335,"lon":11.67624},"name":"Lichtenberg"},{"country":"DE","id":2878138,"coord":{"lat":49.166672,"lon":10.4},"name":"Lichtenau"},{"country":"DE","id":6550324,"coord":{"lat":50.519402,"lon":11.1697},"name":"Lichte"},{"country":"DE","id":2878153,"coord":{"lat":50.51667,"lon":11.18333},"name":"Lichte"},{"country":"DE","id":6548678,"coord":{"lat":50.950001,"lon":14.65},"name":"Leutersdorf"},{"country":"DE","id":2878290,"coord":{"lat":50.950001,"lon":14.65},"name":"Leutersdorf"},{"country":"DE","id":6550021,"coord":{"lat":50.516701,"lon":10.55},"name":"Leutersdorf"},{"country":"DE","id":2878291,"coord":{"lat":50.51667,"lon":10.55},"name":"Leutersdorf"},{"country":"DE","id":6554151,"coord":{"lat":50.483299,"lon":7.81667},"name":"Leuterod"},{"country":"DE","id":2878295,"coord":{"lat":50.48333,"lon":7.81667},"name":"Leuterod"},{"country":"DE","id":6550259,"coord":{"lat":51.049999,"lon":11.3667},"name":"Leutenthal"},{"country":"DE","id":2878298,"coord":{"lat":51.049999,"lon":11.36667},"name":"Leutenthal"},{"country":"DE","id":2878308,"coord":{"lat":50.549999,"lon":11.45},"name":"Leutenberg"},{"country":"DE","id":6556789,"coord":{"lat":49.716702,"lon":11.1667},"name":"Leutenbach"},{"country":"DE","id":2878310,"coord":{"lat":49.709499,"lon":11.17224},"name":"Leutenbach"},{"country":"DE","id":6556805,"coord":{"lat":50.299999,"lon":11.8},"name":"Leupoldsgr\u00fcn"},{"country":"DE","id":2878342,"coord":{"lat":50.299999,"lon":11.8},"name":"Leupoldsgrun"},{"country":"DE","id":2878387,"coord":{"lat":50.716671,"lon":12.36667},"name":"Leubnitz"},{"country":"DE","id":6556721,"coord":{"lat":49.948292,"lon":12.28246},"name":"Leonberg"},{"country":"DE","id":2878693,"coord":{"lat":49.947079,"lon":12.2852},"name":"Leonberg"},{"country":"DE","id":6555751,"coord":{"lat":47.868401,"lon":8.20202},"name":"Lenzkirch"},{"country":"DE","id":2878702,"coord":{"lat":47.86832,"lon":8.20211},"name":"Lenzkirch"},{"country":"DE","id":6549798,"coord":{"lat":51.333302,"lon":10.0667},"name":"Lenterode"},{"country":"DE","id":2878760,"coord":{"lat":51.333328,"lon":10.06667},"name":"Lenterode"},{"country":"DE","id":6552514,"coord":{"lat":51.900002,"lon":9.68333},"name":"Lenne"},{"country":"DE","id":2878795,"coord":{"lat":51.893871,"lon":9.68299},"name":"Lenne"},{"country":"DE","id":6556127,"coord":{"lat":47.6833,"lon":11.5667},"name":"Lenggries"},{"country":"DE","id":2878824,"coord":{"lat":47.683331,"lon":11.56667},"name":"Lenggries"},{"country":"DE","id":6552906,"coord":{"lat":52.549999,"lon":7.51667},"name":"Lengerich"},{"country":"DE","id":2878838,"coord":{"lat":52.55381,"lon":7.53164},"name":"Lengerich"},{"country":"DE","id":6557219,"coord":{"lat":47.700001,"lon":10.6},"name":"Lengenwang"},{"country":"DE","id":2878844,"coord":{"lat":47.700001,"lon":10.6},"name":"Lengenwang"},{"country":"DE","id":6552743,"coord":{"lat":53.299999,"lon":9.51667},"name":"Lengenbostel"},{"country":"DE","id":2878863,"coord":{"lat":53.299999,"lon":9.51667},"name":"Lengenbostel"},{"country":"DE","id":6556187,"coord":{"lat":48.266701,"lon":12.05},"name":"Lengdorf"},{"country":"DE","id":2878881,"coord":{"lat":48.26667,"lon":12.05},"name":"Lengdorf"},{"country":"DE","id":2878918,"coord":{"lat":53.68998,"lon":10.09648},"name":"Lemsahl-Mellingstedt"},{"country":"DE","id":6550450,"coord":{"lat":50.716702,"lon":11.8333},"name":"Lemnitz"},{"country":"DE","id":2878927,"coord":{"lat":50.716671,"lon":11.83333},"name":"Lemnitz"},{"country":"DE","id":6555338,"coord":{"lat":49.166698,"lon":7.66667},"name":"Lemberg"},{"country":"DE","id":2878948,"coord":{"lat":49.166672,"lon":7.66667},"name":"Lemberg"},{"country":"DE","id":2879109,"coord":{"lat":51.166672,"lon":12.91667},"name":"Leisnig"},{"country":"DE","id":2879150,"coord":{"lat":48.450039,"lon":10.22278},"name":"Leipheim"},{"country":"DE","id":6553922,"coord":{"lat":50.133301,"lon":7.56667},"name":"Leiningen"},{"country":"DE","id":2879173,"coord":{"lat":50.133331,"lon":7.56667},"name":"Leiningen"},{"country":"DE","id":2879193,"coord":{"lat":51.383331,"lon":10.33333},"name":"Leinefelde"},{"country":"DE","id":6555337,"coord":{"lat":49.283298,"lon":7.76667},"name":"Leimen"},{"country":"DE","id":2879242,"coord":{"lat":49.283329,"lon":7.76667},"name":"Leimen"},{"country":"DE","id":6553320,"coord":{"lat":50.400002,"lon":6.93333},"name":"Leimbach"},{"country":"DE","id":2879262,"coord":{"lat":50.403919,"lon":6.92774},"name":"Leimbach"},{"country":"DE","id":6554458,"coord":{"lat":50.016701,"lon":6.25},"name":"Leimbach"},{"country":"DE","id":2879263,"coord":{"lat":50.01667,"lon":6.25},"name":"Leimbach"},{"country":"DE","id":6552310,"coord":{"lat":52.4333,"lon":10.4333},"name":"Leiferde"},{"country":"DE","id":2879275,"coord":{"lat":52.43948,"lon":10.43461},"name":"Leiferde"},{"country":"DE","id":6556585,"coord":{"lat":48.766701,"lon":12.5167},"name":"Leiblfing"},{"country":"DE","id":2879326,"coord":{"lat":48.76667,"lon":12.51667},"name":"Leiblfing"},{"country":"DE","id":2879381,"coord":{"lat":49.333328,"lon":10.51667},"name":"Lehrberg"},{"country":"DE","id":6550258,"coord":{"lat":50.9333,"lon":11.4333},"name":"Lehnstedt"},{"country":"DE","id":2879391,"coord":{"lat":50.933331,"lon":11.43333},"name":"Lehnstedt"},{"country":"DE","id":6553815,"coord":{"lat":50.283298,"lon":7.45},"name":"Lehmen"},{"country":"DE","id":2879498,"coord":{"lat":50.283329,"lon":7.45},"name":"Lehmen"},{"country":"DE","id":6550376,"coord":{"lat":50.983299,"lon":11.5833},"name":"Lehesten"},{"country":"DE","id":2879543,"coord":{"lat":50.98333,"lon":11.58333},"name":"Lehesten"},{"country":"DE","id":6551346,"coord":{"lat":54.333302,"lon":9.01667},"name":"Lehe"},{"country":"DE","id":2879620,"coord":{"lat":54.333328,"lon":9.01667},"name":"Lehe"},{"country":"DE","id":6552905,"coord":{"lat":53,"lon":7.33333},"name":"Lehe"},{"country":"DE","id":2879621,"coord":{"lat":53,"lon":7.33333},"name":"Lehe"},{"country":"DE","id":2879657,"coord":{"lat":47.856281,"lon":10.12981},"name":"Legau"},{"country":"DE","id":6548370,"coord":{"lat":53.662651,"lon":11.49874},"name":"Leezen"},{"country":"DE","id":2879667,"coord":{"lat":53.662651,"lon":11.49874},"name":"Leezen"},{"country":"DE","id":6551571,"coord":{"lat":54.766899,"lon":8.9785},"name":"Leck"},{"country":"DE","id":2879758,"coord":{"lat":54.76667,"lon":8.98333},"name":"Leck"},{"country":"DE","id":2879789,"coord":{"lat":47.701618,"lon":10.79493},"name":"Lechbruck"},{"country":"DE","id":6557251,"coord":{"lat":47.900002,"lon":10.1333},"name":"Lautrach"},{"country":"DE","id":2879865,"coord":{"lat":47.898048,"lon":10.11806},"name":"Lautrach"},{"country":"DE","id":3208084,"coord":{"lat":50.583328,"lon":9.28333},"name":"Lautertal"},{"country":"DE","id":2879870,"coord":{"lat":50.583328,"lon":9.28333},"name":"Lautertal"},{"country":"DE","id":6554057,"coord":{"lat":50.166698,"lon":7.83333},"name":"Lautert"},{"country":"DE","id":2879872,"coord":{"lat":50.166672,"lon":7.83333},"name":"Lautert"},{"country":"DE","id":6549883,"coord":{"lat":51.0667,"lon":10.35},"name":"Lauterbach"},{"country":"DE","id":2879926,"coord":{"lat":51.066669,"lon":10.35},"name":"Lauterbach"},{"country":"DE","id":6555979,"coord":{"lat":48.256111,"lon":9.58029},"name":"Lauterach"},{"country":"DE","id":2879950,"coord":{"lat":48.256199,"lon":9.58034},"name":"Lauterach"},{"country":"DE","id":6556737,"coord":{"lat":49.966702,"lon":10.7833},"name":"Lauter"},{"country":"DE","id":2879966,"coord":{"lat":49.966671,"lon":10.78333},"name":"Lauter"},{"country":"DE","id":2879981,"coord":{"lat":48.48185,"lon":8.02732},"name":"Lautenbach"},{"country":"DE","id":6555787,"coord":{"lat":48.516701,"lon":8.1},"name":"Lautenbach"},{"country":"DE","id":2879989,"coord":{"lat":48.51667,"lon":8.1},"name":"Lautenbach"},{"country":"DE","id":6554056,"coord":{"lat":50.333302,"lon":7.91667},"name":"Laurenburg"},{"country":"DE","id":2880073,"coord":{"lat":50.333328,"lon":7.91667},"name":"Laurenburg"},{"country":"DE","id":6554563,"coord":{"lat":50.083302,"lon":6.33333},"name":"Lauperath"},{"country":"DE","id":2880079,"coord":{"lat":50.083328,"lon":6.33333},"name":"Lauperath"},{"country":"DE","id":6557025,"coord":{"lat":49.7458,"lon":9.17611},"name":"Laudenbach"},{"country":"DE","id":2880203,"coord":{"lat":49.745831,"lon":9.17611},"name":"Laudenbach"},{"country":"DE","id":6555667,"coord":{"lat":49.6133,"lon":8.65389},"name":"Laudenbach"},{"country":"DE","id":2880204,"coord":{"lat":49.613331,"lon":8.65389},"name":"Laudenbach"},{"country":"DE","id":6550088,"coord":{"lat":50.928799,"lon":10.5841},"name":"Laucha"},{"country":"DE","id":2880230,"coord":{"lat":50.933331,"lon":10.53333},"name":"Laucha"},{"country":"DE","id":6557250,"coord":{"lat":48.049999,"lon":10.2833},"name":"Lauben"},{"country":"DE","id":2880280,"coord":{"lat":48.049999,"lon":10.28333},"name":"Lauben"},{"country":"DE","id":6557308,"coord":{"lat":47.783298,"lon":10.3},"name":"Lauben"},{"country":"DE","id":2880282,"coord":{"lat":47.783329,"lon":10.3},"name":"Lauben"},{"country":"DE","id":6553701,"coord":{"lat":50.233299,"lon":7.08333},"name":"Laubach"},{"country":"DE","id":2880310,"coord":{"lat":50.23333,"lon":7.08333},"name":"Laubach"},{"country":"DE","id":6553918,"coord":{"lat":50.049999,"lon":7.5},"name":"Laubach"},{"country":"DE","id":2880311,"coord":{"lat":50.049999,"lon":7.5},"name":"Laubach"},{"country":"DE","id":6554561,"coord":{"lat":50.116699,"lon":6.41667},"name":"Lascheid"},{"country":"DE","id":2880396,"coord":{"lat":50.116669,"lon":6.41667},"name":"Lascheid"},{"country":"DE","id":6551476,"coord":{"lat":53.38707,"lon":10.60515},"name":"Lanze"},{"country":"DE","id":2880483,"coord":{"lat":53.387131,"lon":10.60492},"name":"Lanze"},{"country":"DE","id":2880489,"coord":{"lat":51.575039,"lon":7.56752},"name":"Lanstrop"},{"country":"DE","id":2880503,"coord":{"lat":53.64983,"lon":11.36913},"name":"Lankow"},{"country":"DE","id":7602412,"coord":{"lat":49.783329,"lon":7.18333},"name":"Langweiler"},{"country":"DE","id":2880536,"coord":{"lat":49.783329,"lon":7.18333},"name":"Langweiler"},{"country":"DE","id":6551873,"coord":{"lat":54.216702,"lon":9.93333},"name":"Langwedel"},{"country":"DE","id":2880546,"coord":{"lat":54.216671,"lon":9.93333},"name":"Langwedel"},{"country":"DE","id":6554759,"coord":{"lat":49.716702,"lon":6.5},"name":"Langsur"},{"country":"DE","id":2880565,"coord":{"lat":49.716671,"lon":6.5},"name":"Langsur"},{"country":"DE","id":6553765,"coord":{"lat":50.383301,"lon":7.11667},"name":"Langscheid"},{"country":"DE","id":2880589,"coord":{"lat":50.383331,"lon":7.11667},"name":"Langscheid"},{"country":"DE","id":6547894,"coord":{"lat":53.6833,"lon":12.4333},"name":"Langhagen"},{"country":"DE","id":2880666,"coord":{"lat":53.686241,"lon":12.43627},"name":"Langhagen"},{"country":"DE","id":6550504,"coord":{"lat":50.633301,"lon":11.9667},"name":"Langenwolschendorf"},{"country":"DE","id":2880864,"coord":{"lat":50.633331,"lon":11.96667},"name":"Langenwolschendorf"},{"country":"DE","id":6556788,"coord":{"lat":49.650002,"lon":11.0667},"name":"Langensendelbach"},{"country":"DE","id":2880912,"coord":{"lat":49.640511,"lon":11.07104},"name":"Langensendelbach"},{"country":"DE","id":6556186,"coord":{"lat":48.4333,"lon":11.9667},"name":"Langenpreising"},{"country":"DE","id":2880957,"coord":{"lat":48.433331,"lon":11.96667},"name":"Langenpreising"},{"country":"DE","id":6551570,"coord":{"lat":54.693401,"lon":8.9161},"name":"Langenhorn"},{"country":"DE","id":2881019,"coord":{"lat":54.666672,"lon":8.91667},"name":"Langenhorn"},{"country":"DE","id":6554234,"coord":{"lat":50.583302,"lon":7.91667},"name":"Langenhahn"},{"country":"DE","id":2881057,"coord":{"lat":50.583328,"lon":7.91667},"name":"Langenhahn"},{"country":"DE","id":6553764,"coord":{"lat":50.383301,"lon":7.1},"name":"Langenfeld"},{"country":"DE","id":2881087,"coord":{"lat":50.383331,"lon":7.1},"name":"Langenfeld"},{"country":"DE","id":6556909,"coord":{"lat":49.616699,"lon":10.5167},"name":"Langenfeld"},{"country":"DE","id":2881088,"coord":{"lat":49.616669,"lon":10.51667},"name":"Langenfeld"},{"country":"DE","id":6551569,"coord":{"lat":54.633301,"lon":8.63333},"name":"Langene\u00df"},{"country":"DE","id":2881091,"coord":{"lat":54.633331,"lon":8.63333},"name":"Langeness"},{"country":"DE","id":6552660,"coord":{"lat":53.099998,"lon":11.25},"name":"Langendorf"},{"country":"DE","id":2881106,"coord":{"lat":53.099998,"lon":11.25},"name":"Langendorf"},{"country":"DE","id":2881107,"coord":{"lat":51.183331,"lon":11.96667},"name":"Langendorf"},{"country":"DE","id":2881150,"coord":{"lat":51.48333,"lon":11.78333},"name":"Langenbogen"},{"country":"DE","id":2881226,"coord":{"lat":50.633331,"lon":7.95},"name":"Langenbach bei Marienberg"},{"country":"DE","id":6555120,"coord":{"lat":49.483299,"lon":7.31667},"name":"Langenbach"},{"country":"DE","id":2881243,"coord":{"lat":49.493549,"lon":7.32771},"name":"Langenbach"},{"country":"DE","id":6552902,"coord":{"lat":52.533298,"lon":7.46667},"name":"Langen"},{"country":"DE","id":2881278,"coord":{"lat":52.533329,"lon":7.46667},"name":"Langen"},{"country":"DE","id":2881303,"coord":{"lat":51.916672,"lon":10.78333},"name":"Langeln"},{"country":"DE","id":6556548,"coord":{"lat":49.016701,"lon":13.15},"name":"Langdorf"},{"country":"DE","id":2881377,"coord":{"lat":49.015018,"lon":13.14651},"name":"Langdorf"},{"country":"DE","id":6552213,"coord":{"lat":53.920109,"lon":9.25289},"name":"Landscheide"},{"country":"DE","id":2881499,"coord":{"lat":53.920109,"lon":9.25292},"name":"Landscheide"},{"country":"DE","id":6556225,"coord":{"lat":48.166698,"lon":11.1667},"name":"Landsberied"},{"country":"DE","id":2881505,"coord":{"lat":48.166672,"lon":11.16667},"name":"Landsberied"},{"country":"DE","id":2881508,"coord":{"lat":51.51667,"lon":12.16667},"name":"Landsberg"},{"country":"DE","id":6552212,"coord":{"lat":53.9333,"lon":9.36667},"name":"Landrecht"},{"country":"DE","id":2881519,"coord":{"lat":53.933331,"lon":9.36667},"name":"Landrecht"},{"country":"DE","id":6557218,"coord":{"lat":48.083302,"lon":10.7333},"name":"Lamerdingen"},{"country":"DE","id":2881764,"coord":{"lat":48.091949,"lon":10.73982},"name":"Lamerdingen"},{"country":"DE","id":6554560,"coord":{"lat":50.083302,"lon":6.38333},"name":"Lambertsberg"},{"country":"DE","id":2881776,"coord":{"lat":50.083328,"lon":6.38333},"name":"Lambertsberg"},{"country":"DE","id":2881786,"coord":{"lat":49.196651,"lon":13.05051},"name":"Lam"},{"country":"DE","id":6556462,"coord":{"lat":48.849998,"lon":13.1333},"name":"Lalling"},{"country":"DE","id":2881787,"coord":{"lat":48.845249,"lon":13.14008},"name":"Lalling"},{"country":"DE","id":6553699,"coord":{"lat":50.116699,"lon":7.36667},"name":"Lahr"},{"country":"DE","id":2881882,"coord":{"lat":50.125092,"lon":7.36539},"name":"Lahr"},{"country":"DE","id":6554457,"coord":{"lat":49.9333,"lon":6.28333},"name":"Lahr"},{"country":"DE","id":2881883,"coord":{"lat":49.933331,"lon":6.28333},"name":"Lahr"},{"country":"DE","id":6552901,"coord":{"lat":52.8167,"lon":7.61667},"name":"Lahn"},{"country":"DE","id":2881910,"coord":{"lat":52.816669,"lon":7.61667},"name":"Lahn"},{"country":"DE","id":6552940,"coord":{"lat":52.466702,"lon":6.96667},"name":"Lage"},{"country":"DE","id":2881953,"coord":{"lat":52.466671,"lon":6.96667},"name":"Lage"},{"country":"DE","id":6551568,"coord":{"lat":54.849998,"lon":9.01667},"name":"Ladelund"},{"country":"DE","id":2881984,"coord":{"lat":54.849998,"lon":9.01667},"name":"Ladelund"},{"country":"DE","id":6548948,"coord":{"lat":51.666698,"lon":12.9667},"name":"Labrun"},{"country":"DE","id":2882057,"coord":{"lat":51.666672,"lon":12.96667},"name":"Labrun"},{"country":"DE","id":6556584,"coord":{"lat":48.799999,"lon":12.3167},"name":"Laberweinting"},{"country":"DE","id":2882061,"coord":{"lat":48.799999,"lon":12.31667},"name":"Laberweinting"},{"country":"DE","id":6550375,"coord":{"lat":50.866699,"lon":11.6667},"name":"Laasdorf"},{"country":"DE","id":2882103,"coord":{"lat":50.866669,"lon":11.66667},"name":"Laasdorf"},{"country":"DE","id":6552939,"coord":{"lat":52.616699,"lon":6.73333},"name":"Laar"},{"country":"DE","id":2882114,"coord":{"lat":52.616669,"lon":6.73333},"name":"Laar"},{"country":"DE","id":2882115,"coord":{"lat":52.349998,"lon":8.25},"name":"Laar"},{"country":"DE","id":6554456,"coord":{"lat":50.049999,"lon":6.61667},"name":"Kyllburgweiler"},{"country":"DE","id":2882166,"coord":{"lat":50.049999,"lon":6.61667},"name":"Kyllburgweiler"},{"country":"DE","id":2882167,"coord":{"lat":50.033329,"lon":6.58333},"name":"Kyllburg"},{"country":"DE","id":6549930,"coord":{"lat":51.200001,"lon":10.75},"name":"Kutzleben"},{"country":"DE","id":2882184,"coord":{"lat":51.200001,"lon":10.75},"name":"Kutzleben"},{"country":"DE","id":6558468,"coord":{"lat":52.983299,"lon":11.0667},"name":"K\u00fcsten"},{"country":"DE","id":2882243,"coord":{"lat":52.98333,"lon":11.06667},"name":"Kusten"},{"country":"DE","id":2882329,"coord":{"lat":50.650002,"lon":13.45},"name":"Seiffen"},{"country":"DE","id":2882331,"coord":{"lat":50.849998,"lon":14.75},"name":"Kurort Oybin"},{"country":"DE","id":2882332,"coord":{"lat":50.416672,"lon":12.98333},"name":"Kurort Oberwiesenthal"},{"country":"DE","id":6555611,"coord":{"lat":49.077499,"lon":8.84556},"name":"K\u00fcrnbach"},{"country":"DE","id":2882342,"coord":{"lat":49.077499,"lon":8.84556},"name":"Kurnbach"},{"country":"DE","id":2882464,"coord":{"lat":50.23333,"lon":11.53333},"name":"Kunreuth"},{"country":"DE","id":6554232,"coord":{"lat":50.716702,"lon":7.78333},"name":"Kundert"},{"country":"DE","id":2882500,"coord":{"lat":50.716671,"lon":7.78333},"name":"Kundert"},{"country":"DE","id":6548127,"coord":{"lat":54.29549,"lon":12.88216},"name":"Kummerow"},{"country":"DE","id":2882532,"coord":{"lat":54.295689,"lon":12.88164},"name":"Kummerow"},{"country":"DE","id":6547840,"coord":{"lat":53.766701,"lon":12.8333},"name":"Kummerow"},{"country":"DE","id":2882533,"coord":{"lat":53.76667,"lon":12.83333},"name":"Kummerow"},{"country":"DE","id":6553917,"coord":{"lat":49.983299,"lon":7.51667},"name":"K\u00fcmbdchen"},{"country":"DE","id":2882567,"coord":{"lat":49.98333,"lon":7.51667},"name":"Kumbdchen"},{"country":"DE","id":6551472,"coord":{"lat":53.700001,"lon":10.7},"name":"Kulpin"},{"country":"DE","id":2882577,"coord":{"lat":53.709919,"lon":10.69502},"name":"Kulpin"},{"country":"DE","id":6547951,"coord":{"lat":53.383301,"lon":11.25},"name":"Kuhstorf"},{"country":"DE","id":2882660,"coord":{"lat":53.383331,"lon":11.25},"name":"Kuhstorf"},{"country":"DE","id":6552594,"coord":{"lat":53.5667,"lon":8.8},"name":"K\u00fchrstedt"},{"country":"DE","id":2882681,"coord":{"lat":53.577469,"lon":8.80091},"name":"Kuhrstedt"},{"country":"DE","id":6551747,"coord":{"lat":54.19875,"lon":10.25994},"name":"K\u00fchren"},{"country":"DE","id":2882692,"coord":{"lat":54.19878,"lon":10.25956},"name":"Kuhren"},{"country":"DE","id":6554231,"coord":{"lat":50.533298,"lon":7.86667},"name":"Kuhnh\u00f6fen"},{"country":"DE","id":2882708,"coord":{"lat":50.533329,"lon":7.86667},"name":"Kuhnhofen"},{"country":"DE","id":6549685,"coord":{"lat":52.783298,"lon":11.1167},"name":"Kuhfelde"},{"country":"DE","id":2882875,"coord":{"lat":52.783329,"lon":11.11667},"name":"Kuhfelde"},{"country":"DE","id":6550502,"coord":{"lat":50.70668,"lon":12.11028},"name":"K\u00fchdorf"},{"country":"DE","id":2882879,"coord":{"lat":50.706791,"lon":12.11062},"name":"Kuhdorf"},{"country":"DE","id":2883000,"coord":{"lat":48.491009,"lon":11.18691},"name":"Kuhbach"},{"country":"DE","id":6547891,"coord":{"lat":53.6833,"lon":12.3667},"name":"Kuchelmi\u00df"},{"country":"DE","id":2883156,"coord":{"lat":53.68227,"lon":12.36168},"name":"Kuchelmiss"},{"country":"DE","id":6548195,"coord":{"lat":53.950001,"lon":11.5333},"name":"Krusenhagen"},{"country":"DE","id":2883211,"coord":{"lat":53.950001,"lon":11.53333},"name":"Krusenhagen"},{"country":"DE","id":2883246,"coord":{"lat":51.297241,"lon":11.84412},"name":"Krumpa"},{"country":"DE","id":6551872,"coord":{"lat":54.333302,"lon":9.9},"name":"Krummwisch"},{"country":"DE","id":2883247,"coord":{"lat":54.333328,"lon":9.9},"name":"Krummwisch"},{"country":"DE","id":6552209,"coord":{"lat":53.946621,"lon":9.41664},"name":"Krummendiek"},{"country":"DE","id":2883326,"coord":{"lat":53.946651,"lon":9.41655},"name":"Krummendiek"},{"country":"DE","id":6552805,"coord":{"lat":53.833302,"lon":9.21667},"name":"Krummendeich"},{"country":"DE","id":2883329,"coord":{"lat":53.833328,"lon":9.21667},"name":"Krummendeich"},{"country":"DE","id":6554150,"coord":{"lat":50.533298,"lon":7.71667},"name":"Kr\u00fcmmel"},{"country":"DE","id":2883350,"coord":{"lat":50.533329,"lon":7.71667},"name":"Krummel"},{"country":"DE","id":6551746,"coord":{"lat":54.383301,"lon":10.4},"name":"Krummbek"},{"country":"DE","id":2883366,"coord":{"lat":54.383331,"lon":10.4},"name":"Krummbek"},{"country":"DE","id":6548070,"coord":{"lat":53.516701,"lon":13.1333},"name":"Krukow"},{"country":"DE","id":2883431,"coord":{"lat":53.51667,"lon":13.13333},"name":"Krukow"},{"country":"DE","id":6548462,"coord":{"lat":53.516701,"lon":14.0833},"name":"Krugsdorf"},{"country":"DE","id":2883444,"coord":{"lat":53.525509,"lon":14.08464},"name":"Krugsdorf"},{"country":"DE","id":6554455,"coord":{"lat":49.900002,"lon":6.31667},"name":"Kruchten"},{"country":"DE","id":2883495,"coord":{"lat":49.900002,"lon":6.31667},"name":"Kruchten"},{"country":"DE","id":6548741,"coord":{"lat":51.4701,"lon":12.4519},"name":"Krostitz"},{"country":"DE","id":2883552,"coord":{"lat":51.462078,"lon":12.4536},"name":"Krostitz"},{"country":"DE","id":6548281,"coord":{"lat":54.116699,"lon":13.7667},"name":"Kr\u00f6slin"},{"country":"DE","id":2883560,"coord":{"lat":54.116669,"lon":13.76667},"name":"Kroslin"},{"country":"DE","id":6547632,"coord":{"lat":51.383301,"lon":13.8},"name":"Kroppen"},{"country":"DE","id":2883583,"coord":{"lat":51.383331,"lon":13.8},"name":"Kroppen"},{"country":"DE","id":6555336,"coord":{"lat":49.150002,"lon":7.53333},"name":"Kr\u00f6ppen"},{"country":"DE","id":2883584,"coord":{"lat":49.150002,"lon":7.53333},"name":"Kroppen"},{"country":"DE","id":6552208,"coord":{"lat":53.9076,"lon":9.59392},"name":"Kronsmoor"},{"country":"DE","id":2883640,"coord":{"lat":53.907619,"lon":9.59389},"name":"Kronsmoor"},{"country":"DE","id":6551871,"coord":{"lat":54.3433,"lon":10.0994},"name":"Kronshagen"},{"country":"DE","id":2883647,"coord":{"lat":54.333328,"lon":10.08333},"name":"Kronshagen"},{"country":"DE","id":6547459,"coord":{"lat":47.916698,"lon":10.1667},"name":"Kronburg"},{"country":"DE","id":2883749,"coord":{"lat":47.90432,"lon":10.1572},"name":"Kronburg"},{"country":"DE","id":6549796,"coord":{"lat":51.299999,"lon":10.1333},"name":"Krombach"},{"country":"DE","id":2883791,"coord":{"lat":51.299999,"lon":10.13333},"name":"Krombach"},{"country":"DE","id":6556952,"coord":{"lat":50.083302,"lon":9.21667},"name":"Krombach"},{"country":"DE","id":2883793,"coord":{"lat":50.083328,"lon":9.21667},"name":"Krombach"},{"country":"DE","id":6550481,"coord":{"lat":50.6777,"lon":11.53976},"name":"Kr\u00f6lpa"},{"country":"DE","id":2883794,"coord":{"lat":50.677429,"lon":11.53848},"name":"Krolpa"},{"country":"DE","id":6551745,"coord":{"lat":54.400002,"lon":10.35},"name":"Krokau"},{"country":"DE","id":2883801,"coord":{"lat":54.400002,"lon":10.35},"name":"Krokau"},{"country":"DE","id":6547838,"coord":{"lat":53.733299,"lon":13.05},"name":"Kriesow"},{"country":"DE","id":2883927,"coord":{"lat":53.73333,"lon":13.05},"name":"Kriesow"},{"country":"DE","id":6548567,"coord":{"lat":51.049999,"lon":13.0167},"name":"Kriebstein"},{"country":"DE","id":2883986,"coord":{"lat":51.049999,"lon":13.01667},"name":"Kriebstein"},{"country":"DE","id":6547448,"coord":{"lat":47.650002,"lon":11.75},"name":"Kreuth"},{"country":"DE","id":2884280,"coord":{"lat":47.650002,"lon":11.75},"name":"Kreuth"},{"country":"DE","id":2884296,"coord":{"lat":47.798679,"lon":11.48312},"name":"Kreut"},{"country":"DE","id":6549017,"coord":{"lat":51.049999,"lon":12.0667},"name":"Kretzschau"},{"country":"DE","id":2884308,"coord":{"lat":51.049999,"lon":12.06667},"name":"Kretzschau"},{"country":"DE","id":6552207,"coord":{"lat":53.877102,"lon":9.48079},"name":"Krempermoor"},{"country":"DE","id":2884377,"coord":{"lat":53.877102,"lon":9.48084},"name":"Krempermoor"},{"country":"DE","id":2884393,"coord":{"lat":53.833328,"lon":9.48333},"name":"Krempe"},{"country":"DE","id":6547950,"coord":{"lat":53.25,"lon":11.6},"name":"Kremmin"},{"country":"DE","id":2884396,"coord":{"lat":53.25,"lon":11.6},"name":"Kremmin"},{"country":"DE","id":6548707,"coord":{"lat":50.950001,"lon":13.7667},"name":"Kreischa"},{"country":"DE","id":2884451,"coord":{"lat":50.945339,"lon":13.75514},"name":"Kreischa"},{"country":"DE","id":6552381,"coord":{"lat":51.866699,"lon":9.96667},"name":"Kreiensen"},{"country":"DE","id":2884482,"coord":{"lat":51.866669,"lon":9.96667},"name":"Kreiensen"},{"country":"DE","id":6548365,"coord":{"lat":53.400002,"lon":12.05},"name":"Kreien"},{"country":"DE","id":2884490,"coord":{"lat":53.40749,"lon":12.05544},"name":"Kreien"},{"country":"DE","id":6550256,"coord":{"lat":51.083302,"lon":11.3},"name":"Krautheim"},{"country":"DE","id":2884623,"coord":{"lat":51.083328,"lon":11.3},"name":"Krautheim"},{"country":"DE","id":6549244,"coord":{"lat":51.116699,"lon":11.9667},"name":"Krauschwitz"},{"country":"DE","id":2884657,"coord":{"lat":51.116669,"lon":11.96667},"name":"Krauschwitz"},{"country":"DE","id":6552804,"coord":{"lat":53.599998,"lon":9.2},"name":"Kranenburg"},{"country":"DE","id":2884778,"coord":{"lat":53.599998,"lon":9.2},"name":"Kranenburg"},{"country":"DE","id":6553033,"coord":{"lat":51.783298,"lon":6.01667},"name":"Kranenburg"},{"country":"DE","id":2884779,"coord":{"lat":51.783329,"lon":6.01667},"name":"Kranenburg"},{"country":"DE","id":2884885,"coord":{"lat":48.181911,"lon":12.43073},"name":"Kraiburg am Inn"},{"country":"DE","id":6557217,"coord":{"lat":47.783298,"lon":10.4667},"name":"Kraftisried"},{"country":"DE","id":2885018,"coord":{"lat":47.783329,"lon":10.46667},"name":"Kraftisried"},{"country":"DE","id":6554646,"coord":{"lat":50.25,"lon":6.85},"name":"Kradenbach"},{"country":"DE","id":2885026,"coord":{"lat":50.25,"lon":6.85},"name":"Kradenbach"},{"country":"DE","id":6554454,"coord":{"lat":49.983299,"lon":6.23333},"name":"Koxhausen"},{"country":"DE","id":2885054,"coord":{"lat":49.98333,"lon":6.23333},"name":"Koxhausen"},{"country":"DE","id":2885070,"coord":{"lat":49.176941,"lon":12.85556},"name":"Kotzting"},{"country":"DE","id":2885074,"coord":{"lat":51.316669,"lon":12.13333},"name":"Kotzschau"},{"country":"DE","id":6551567,"coord":{"lat":54.33329,"lon":8.9045},"name":"Kotzenb\u00fcll"},{"country":"DE","id":2885092,"coord":{"lat":54.33329,"lon":8.9045},"name":"Kotzenbull"},{"country":"DE","id":6555043,"coord":{"lat":49.483299,"lon":7.53333},"name":"Kottweiler-Schwanden"},{"country":"DE","id":2885104,"coord":{"lat":49.48333,"lon":7.53333},"name":"Kottweiler-Schwanden"},{"country":"DE","id":6554697,"coord":{"lat":50.240181,"lon":6.98435},"name":"K\u00f6tterichen"},{"country":"DE","id":2885155,"coord":{"lat":50.24007,"lon":6.9843},"name":"Kotterichen"},{"country":"DE","id":6559301,"coord":{"lat":50.714512,"lon":11.72176},"name":"Kospoda"},{"country":"DE","id":2885327,"coord":{"lat":50.716671,"lon":11.75},"name":"Kospoda"},{"country":"DE","id":6551869,"coord":{"lat":54.5,"lon":9.76667},"name":"Kosel"},{"country":"DE","id":2885350,"coord":{"lat":54.5,"lon":9.76667},"name":"Kosel"},{"country":"DE","id":6553915,"coord":{"lat":50.099998,"lon":7.41667},"name":"Korweiler"},{"country":"DE","id":2885367,"coord":{"lat":50.099998,"lon":7.41667},"name":"Korweiler"},{"country":"DE","id":6554453,"coord":{"lat":49.916698,"lon":6.25},"name":"K\u00f6rperich"},{"country":"DE","id":2885407,"coord":{"lat":49.916672,"lon":6.25},"name":"Korperich"},{"country":"DE","id":7602405,"coord":{"lat":49.727139,"lon":6.72475},"name":"Korlingen"},{"country":"DE","id":2885477,"coord":{"lat":49.727139,"lon":6.72475},"name":"Korlingen"},{"country":"DE","id":6554699,"coord":{"lat":50.1833,"lon":6.58333},"name":"Kopp"},{"country":"DE","id":2885619,"coord":{"lat":50.183331,"lon":6.58333},"name":"Kopp"},{"country":"DE","id":6556583,"coord":{"lat":49.0667,"lon":12.7167},"name":"Konzell"},{"country":"DE","id":2885671,"coord":{"lat":49.066669,"lon":12.71667},"name":"Konzell"},{"country":"DE","id":6556804,"coord":{"lat":50.266701,"lon":11.85},"name":"Konradsreuth"},{"country":"DE","id":2885688,"coord":{"lat":50.26667,"lon":11.85},"name":"Konradsreuth"},{"country":"DE","id":6552641,"coord":{"lat":53.233299,"lon":9.65},"name":"K\u00f6nigsmoor"},{"country":"DE","id":2885797,"coord":{"lat":53.22628,"lon":9.67964},"name":"Konigsmoor"},{"country":"DE","id":2885829,"coord":{"lat":50.299999,"lon":10.48333},"name":"Bad Konigshofen im Grabfeld"},{"country":"DE","id":6548640,"coord":{"lat":51.1833,"lon":14.8667},"name":"K\u00f6nigshain"},{"country":"DE","id":2885863,"coord":{"lat":51.183331,"lon":14.86667},"name":"Konigshain"},{"country":"DE","id":6548565,"coord":{"lat":51.0667,"lon":12.75},"name":"K\u00f6nigsfeld"},{"country":"DE","id":2885883,"coord":{"lat":51.066669,"lon":12.75},"name":"Konigsfeld"},{"country":"DE","id":6556736,"coord":{"lat":49.950001,"lon":11.1667},"name":"K\u00f6nigsfeld"},{"country":"DE","id":2885885,"coord":{"lat":49.94603,"lon":11.1652},"name":"Konigsfeld"},{"country":"DE","id":6556069,"coord":{"lat":47.9333,"lon":9.41667},"name":"K\u00f6nigseggwald"},{"country":"DE","id":2885892,"coord":{"lat":47.933331,"lon":9.41667},"name":"Konigseggwald"},{"country":"DE","id":6548277,"coord":{"lat":53.966702,"lon":13.45},"name":"K\u00f6lzin"},{"country":"DE","id":2886059,"coord":{"lat":53.963261,"lon":13.45001},"name":"Kolzin"},{"country":"DE","id":6554698,"coord":{"lat":50.266701,"lon":6.96667},"name":"Kolverath"},{"country":"DE","id":2886065,"coord":{"lat":50.26667,"lon":6.96667},"name":"Kolverath"},{"country":"DE","id":6555042,"coord":{"lat":49.516701,"lon":7.58333},"name":"Kollweiler"},{"country":"DE","id":2886269,"coord":{"lat":49.51667,"lon":7.58333},"name":"Kollweiler"},{"country":"DE","id":6551695,"coord":{"lat":53.766701,"lon":9.7},"name":"K\u00f6lln-Reisiek"},{"country":"DE","id":2886281,"coord":{"lat":53.757481,"lon":9.69772},"name":"Kolln-Reisiek"},{"country":"DE","id":6552204,"coord":{"lat":53.92028,"lon":9.59424},"name":"Kollmoor"},{"country":"DE","id":2886292,"coord":{"lat":53.920231,"lon":9.59411},"name":"Kollmoor"},{"country":"DE","id":6552261,"coord":{"lat":53.732769,"lon":9.49519},"name":"Kollmar"},{"country":"DE","id":2886303,"coord":{"lat":53.75,"lon":9.5},"name":"Kollmar"},{"country":"DE","id":6553760,"coord":{"lat":50.266701,"lon":7.28333},"name":"Kollig"},{"country":"DE","id":2886321,"coord":{"lat":50.26667,"lon":7.28333},"name":"Kollig"},{"country":"DE","id":6557062,"coord":{"lat":49.916698,"lon":10.2333},"name":"Kolitzheim"},{"country":"DE","id":2886404,"coord":{"lat":49.916672,"lon":10.23333},"name":"Kolitzheim"},{"country":"DE","id":6551565,"coord":{"lat":54.383301,"lon":9.06667},"name":"Koldenb\u00fcttel"},{"country":"DE","id":2886419,"coord":{"lat":54.383331,"lon":9.06667},"name":"Koldenbuttel"},{"country":"DE","id":6554229,"coord":{"lat":50.549,"lon":7.9231},"name":"K\u00f6lbingen"},{"country":"DE","id":2886434,"coord":{"lat":50.549999,"lon":7.93333},"name":"Kolbingen"},{"country":"DE","id":6552593,"coord":{"lat":53.54031,"lon":8.87635},"name":"K\u00f6hlen"},{"country":"DE","id":2886705,"coord":{"lat":53.541069,"lon":8.87524},"name":"Kohlen"},{"country":"DE","id":2886730,"coord":{"lat":49.599998,"lon":12.01667},"name":"Kohlberg"},{"country":"DE","id":6555424,"coord":{"lat":48.55917,"lon":9.33426},"name":"Kohlberg"},{"country":"DE","id":2886731,"coord":{"lat":48.558449,"lon":9.33576},"name":"Kohlberg"},{"country":"DE","id":6547948,"coord":{"lat":53.49752,"lon":10.95042},"name":"Kogel"},{"country":"DE","id":2886821,"coord":{"lat":53.49752,"lon":10.95041},"name":"Kogel"},{"country":"DE","id":6556818,"coord":{"lat":50.099998,"lon":11.5333},"name":"K\u00f6dnitz"},{"country":"DE","id":2886839,"coord":{"lat":50.099998,"lon":11.53333},"name":"Kodnitz"},{"country":"DE","id":6556803,"coord":{"lat":50.333302,"lon":11.85},"name":"K\u00f6ditz"},{"country":"DE","id":2886843,"coord":{"lat":50.333328,"lon":11.85},"name":"Koditz"},{"country":"DE","id":6550255,"coord":{"lat":51.083302,"lon":11.5},"name":"K\u00f6dderitzsch"},{"country":"DE","id":2886850,"coord":{"lat":51.083328,"lon":11.5},"name":"Kodderitzsch"},{"country":"DE","id":6549684,"coord":{"lat":52.516701,"lon":11.1333},"name":"K\u00f6ckte"},{"country":"DE","id":2886854,"coord":{"lat":52.52541,"lon":11.12881},"name":"Kockte"},{"country":"DE","id":6555377,"coord":{"lat":49.333302,"lon":7.5},"name":"Knopp-Labach"},{"country":"DE","id":2887061,"coord":{"lat":49.333328,"lon":7.5},"name":"Knopp-Labach"},{"country":"DE","id":2887290,"coord":{"lat":53.966671,"lon":11.16667},"name":"Klutz"},{"country":"DE","id":6552899,"coord":{"lat":52.916698,"lon":7.33333},"name":"Kluse"},{"country":"DE","id":2887315,"coord":{"lat":52.936329,"lon":7.34093},"name":"Kluse"},{"country":"DE","id":6550174,"coord":{"lat":50.5,"lon":10.65},"name":"Kloster Ve\u00dfra"},{"country":"DE","id":2887408,"coord":{"lat":50.5,"lon":10.65},"name":"Kloster Vessra"},{"country":"DE","id":6557141,"coord":{"lat":48.159,"lon":10.8263},"name":"Klosterlechfeld"},{"country":"DE","id":2887449,"coord":{"lat":48.166672,"lon":10.83333},"name":"Klosterlechfeld"},{"country":"DE","id":6549881,"coord":{"lat":50.650002,"lon":10.1167},"name":"Klings"},{"country":"DE","id":2887691,"coord":{"lat":50.650002,"lon":10.11667},"name":"Klings"},{"country":"DE","id":2887713,"coord":{"lat":50.366669,"lon":12.46667},"name":"Klingenthal"},{"country":"DE","id":6551341,"coord":{"lat":54.299999,"lon":9.13333},"name":"Kleve"},{"country":"DE","id":2887833,"coord":{"lat":54.299999,"lon":9.13333},"name":"Kleve"},{"country":"DE","id":6552203,"coord":{"lat":53.966702,"lon":9.4},"name":"Kleve"},{"country":"DE","id":2887834,"coord":{"lat":53.966671,"lon":9.4},"name":"Kleve"},{"country":"DE","id":6547865,"coord":{"lat":53.9333,"lon":13.1667},"name":"Kletzin"},{"country":"DE","id":2887843,"coord":{"lat":53.933331,"lon":13.16667},"name":"Kletzin"},{"country":"DE","id":6549928,"coord":{"lat":51.150002,"lon":10.75},"name":"Klettstedt"},{"country":"DE","id":2887847,"coord":{"lat":51.150002,"lon":10.75},"name":"Klettstedt"},{"country":"DE","id":2888015,"coord":{"lat":51.416672,"lon":10.66667},"name":"Kleinwenden"},{"country":"DE","id":6549927,"coord":{"lat":51.1833,"lon":10.6667},"name":"Kleinwelsbach"},{"country":"DE","id":2888018,"coord":{"lat":51.183331,"lon":10.66667},"name":"Kleinwelsbach"},{"country":"DE","id":6548192,"coord":{"lat":53.700001,"lon":11.3833},"name":"Klein Trebbow"},{"country":"DE","id":2888112,"coord":{"lat":53.700001,"lon":11.38333},"name":"Klein Trebbow"},{"country":"DE","id":6556786,"coord":{"lat":49.595131,"lon":11.15816},"name":"Kleinsendelbach"},{"country":"DE","id":2888210,"coord":{"lat":49.595581,"lon":11.15773},"name":"Kleinsendelbach"},{"country":"DE","id":2888222,"coord":{"lat":52.34153,"lon":10.42903},"name":"Klein Schwulper"},{"country":"DE","id":6550253,"coord":{"lat":50.9333,"lon":11.4667},"name":"Kleinschwabhausen"},{"country":"DE","id":2888240,"coord":{"lat":50.931599,"lon":11.46114},"name":"Kleinschwabhausen"},{"country":"DE","id":6552111,"coord":{"lat":53.966702,"lon":10.3167},"name":"Klein R\u00f6nnau"},{"country":"DE","id":2888309,"coord":{"lat":53.966671,"lon":10.31667},"name":"Klein Ronnau"},{"country":"DE","id":6551693,"coord":{"lat":53.716702,"lon":9.65},"name":"Klein Nordende"},{"country":"DE","id":2888436,"coord":{"lat":53.716671,"lon":9.65},"name":"Klein Nordende"},{"country":"DE","id":6550140,"coord":{"lat":51.033298,"lon":11.1167},"name":"Kleinm\u00f6lsen"},{"country":"DE","id":2888484,"coord":{"lat":51.033329,"lon":11.11667},"name":"Kleinmolsen"},{"country":"DE","id":6548067,"coord":{"lat":53.533298,"lon":13.0333},"name":"Klein Lukow"},{"country":"DE","id":2888527,"coord":{"lat":53.533329,"lon":13.03333},"name":"Klein Lukow"},{"country":"DE","id":6547779,"coord":{"lat":54.133301,"lon":12.2333},"name":"Klein Kussewitz"},{"country":"DE","id":2888594,"coord":{"lat":54.133331,"lon":12.23333},"name":"Klein Kussewitz"},{"country":"DE","id":6547456,"coord":{"lat":50.116699,"lon":9.26667},"name":"Kleinkahl"},{"country":"DE","id":2888684,"coord":{"lat":50.116669,"lon":9.26667},"name":"Kleinkahl"},{"country":"DE","id":6554341,"coord":{"lat":49.894779,"lon":7.18695},"name":"Kleinich"},{"country":"DE","id":2888707,"coord":{"lat":49.900002,"lon":7.18333},"name":"Kleinich"},{"country":"DE","id":2888812,"coord":{"lat":53.083328,"lon":11.2},"name":"Klein Gusborn"},{"country":"DE","id":6552110,"coord":{"lat":53.916698,"lon":10.3167},"name":"Klein Gladebr\u00fcgge"},{"country":"DE","id":2888853,"coord":{"lat":53.916672,"lon":10.31667},"name":"Klein Gladebrugge"},{"country":"DE","id":6550374,"coord":{"lat":50.783298,"lon":11.5833},"name":"Kleineutersdorf"},{"country":"DE","id":2888937,"coord":{"lat":50.783329,"lon":11.58333},"name":"Kleineutersdorf"},{"country":"DE","id":6550373,"coord":{"lat":50.8167,"lon":11.8333},"name":"Kleinebersdorf"},{"country":"DE","id":2889572,"coord":{"lat":50.816669,"lon":11.83333},"name":"Kleinebersdorf"},{"country":"DE","id":6549844,"coord":{"lat":51.466702,"lon":10.5333},"name":"Kleinbodungen"},{"country":"DE","id":2889701,"coord":{"lat":51.466671,"lon":10.53333},"name":"Kleinbodungen"},{"country":"DE","id":6551972,"coord":{"lat":54.400002,"lon":9.45},"name":"Klein Bennebek"},{"country":"DE","id":2889746,"coord":{"lat":54.400002,"lon":9.45},"name":"Klein Bennebek"},{"country":"DE","id":6549794,"coord":{"lat":51.349998,"lon":10.3833},"name":"Kleinbartloff"},{"country":"DE","id":2889756,"coord":{"lat":51.349998,"lon":10.38333},"name":"Kleinbartloff"},{"country":"DE","id":6554340,"coord":{"lat":49.900002,"lon":6.88333},"name":"Klausen"},{"country":"DE","id":2889975,"coord":{"lat":49.900002,"lon":6.88333},"name":"Klausen"},{"country":"DE","id":6548125,"coord":{"lat":54.403851,"lon":13.01365},"name":"Klausdorf"},{"country":"DE","id":2889989,"coord":{"lat":54.40424,"lon":13.01331},"name":"Klausdorf"},{"country":"DE","id":2889990,"coord":{"lat":54.30899,"lon":10.21372},"name":"Klausdorf"},{"country":"DE","id":6551563,"coord":{"lat":54.883301,"lon":8.68333},"name":"Klanxb\u00fcll"},{"country":"DE","id":2890086,"coord":{"lat":54.883331,"lon":8.68333},"name":"Klanxbull"},{"country":"DE","id":6551740,"coord":{"lat":54.299999,"lon":10.5333},"name":"Klamp"},{"country":"DE","id":2890093,"coord":{"lat":54.299999,"lon":10.53333},"name":"Klamp"},{"country":"DE","id":6548764,"coord":{"lat":51.216702,"lon":12.2333},"name":"Kitzen"},{"country":"DE","id":2890168,"coord":{"lat":51.216671,"lon":12.23333},"name":"Kitzen"},{"country":"DE","id":6551459,"coord":{"lat":53.666698,"lon":10.9167},"name":"Kittlitz"},{"country":"DE","id":2890178,"coord":{"lat":53.66407,"lon":10.91698},"name":"Kittlitz"},{"country":"DE","id":6553504,"coord":{"lat":49.766701,"lon":7.56667},"name":"Kirschroth"},{"country":"DE","id":2890230,"coord":{"lat":49.76667,"lon":7.56667},"name":"Kirschroth"},{"country":"DE","id":6550447,"coord":{"lat":50.599998,"lon":11.9},"name":"Kirschkau"},{"country":"DE","id":2890235,"coord":{"lat":50.599998,"lon":11.9},"name":"Kirschkau"},{"country":"DE","id":6548614,"coord":{"lat":51.099998,"lon":14.4167},"name":"Kirschau"},{"country":"DE","id":2890273,"coord":{"lat":51.09317,"lon":14.4284},"name":"Kirschau"},{"country":"DE","id":6554696,"coord":{"lat":50.333302,"lon":7},"name":"Kirsbach"},{"country":"DE","id":2890276,"coord":{"lat":50.333328,"lon":7},"name":"Kirsbach"},{"country":"DE","id":6555115,"coord":{"lat":49.633301,"lon":7.5},"name":"Kirrweiler"},{"country":"DE","id":2890277,"coord":{"lat":49.633331,"lon":7.5},"name":"Kirrweiler"},{"country":"DE","id":6554753,"coord":{"lat":49.549999,"lon":6.48333},"name":"Kirf"},{"country":"DE","id":2890324,"coord":{"lat":49.549999,"lon":6.48333},"name":"Kirf"},{"country":"DE","id":6549793,"coord":{"lat":51.400002,"lon":10.4},"name":"Kirchworbis"},{"country":"DE","id":2890329,"coord":{"lat":51.400002,"lon":10.4},"name":"Kirchworbis"},{"country":"DE","id":6556101,"coord":{"lat":48.087601,"lon":12.6459},"name":"Kirchweidach"},{"country":"DE","id":2890336,"coord":{"lat":48.083328,"lon":12.63333},"name":"Kirchweidach"},{"country":"DE","id":6556582,"coord":{"lat":48.950001,"lon":12.55},"name":"Kirchroth"},{"country":"DE","id":2890394,"coord":{"lat":48.950001,"lon":12.55},"name":"Kirchroth"},{"country":"DE","id":6551739,"coord":{"lat":54.200001,"lon":10.6833},"name":"Kirchn\u00fcchel"},{"country":"DE","id":2890405,"coord":{"lat":54.200001,"lon":10.68333},"name":"Kirchnuchel"},{"country":"DE","id":6547945,"coord":{"lat":53.4333,"lon":11.2833},"name":"Kirch Jesar"},{"country":"DE","id":2890439,"coord":{"lat":53.433331,"lon":11.28333},"name":"Kirch Jesar"},{"country":"DE","id":6553142,"coord":{"lat":51.099998,"lon":8.1},"name":"Kirchhundem"},{"country":"DE","id":2890442,"coord":{"lat":51.099998,"lon":8.1},"name":"Kirchhundem"},{"country":"DE","id":6550211,"coord":{"lat":50.883301,"lon":11.0167},"name":"Kirchheim"},{"country":"DE","id":2890484,"coord":{"lat":50.883331,"lon":11.01667},"name":"Kirchheim"},{"country":"DE","id":6557088,"coord":{"lat":49.650002,"lon":9.86667},"name":"Kirchheim"},{"country":"DE","id":2890487,"coord":{"lat":49.650002,"lon":9.86667},"name":"Kirchheim"},{"country":"DE","id":2890488,"coord":{"lat":48.1749,"lon":10.47461},"name":"Kirchheim"},{"country":"DE","id":2890526,"coord":{"lat":49.75,"lon":11.71667},"name":"Kirchenthumbach"},{"country":"DE","id":6556762,"coord":{"lat":49.9333,"lon":11.7833},"name":"Kirchenpingarten"},{"country":"DE","id":2890539,"coord":{"lat":49.933331,"lon":11.78333},"name":"Kirchenpingarten"},{"country":"DE","id":6556658,"coord":{"lat":49.783298,"lon":12.1},"name":"Kirchendemenreuth"},{"country":"DE","id":2890567,"coord":{"lat":49.783329,"lon":12.1},"name":"Kirchendemenreuth"},{"country":"DE","id":6556361,"coord":{"lat":48.049999,"lon":12.2333},"name":"Eiselfing"},{"country":"DE","id":2890590,"coord":{"lat":48.041142,"lon":12.24272},"name":"Eiselfing"},{"country":"DE","id":6553412,"coord":{"lat":50.716702,"lon":7.45},"name":"Kircheib"},{"country":"DE","id":2890591,"coord":{"lat":50.709209,"lon":7.45967},"name":"Kircheib"},{"country":"DE","id":2890599,"coord":{"lat":48.916672,"lon":13.26667},"name":"Kirchdorf im Wald"},{"country":"DE","id":2890602,"coord":{"lat":48.25,"lon":12.98333},"name":"Kirchdorf am Inn"},{"country":"DE","id":6552448,"coord":{"lat":52.579601,"lon":8.8224},"name":"Kirchdorf"},{"country":"DE","id":2890609,"coord":{"lat":52.59523,"lon":8.8349},"name":"Kirchdorf"},{"country":"DE","id":6556493,"coord":{"lat":48.766701,"lon":11.9167},"name":"Kirchdorf"},{"country":"DE","id":2890613,"coord":{"lat":48.76667,"lon":11.91667},"name":"Kirchdorf"},{"country":"DE","id":2890615,"coord":{"lat":48.466671,"lon":11.65},"name":"Kirchdorf"},{"country":"DE","id":6556289,"coord":{"lat":48.1833,"lon":12.2},"name":"Kirchdorf"},{"country":"DE","id":2890616,"coord":{"lat":48.175419,"lon":12.19646},"name":"Kirchdorf"},{"country":"DE","id":2890617,"coord":{"lat":48.083328,"lon":10.13333},"name":"Kirchdorf"},{"country":"DE","id":6555499,"coord":{"lat":48.942692,"lon":9.34052},"name":"Kirchberg an der Murr"},{"country":"DE","id":2890645,"coord":{"lat":48.94297,"lon":9.34083},"name":"Kirchberg an der Murr"},{"country":"DE","id":2890646,"coord":{"lat":49.201389,"lon":9.98139},"name":"Kirchberg an der Jagst"},{"country":"DE","id":2890660,"coord":{"lat":49.950001,"lon":7.4},"name":"Kirchberg"},{"country":"DE","id":6556185,"coord":{"lat":48.400002,"lon":12.05},"name":"Kirchberg"},{"country":"DE","id":2890670,"coord":{"lat":48.400002,"lon":12.05},"name":"Kirchberg"},{"country":"DE","id":6556402,"coord":{"lat":47.950001,"lon":12.85},"name":"Kirchansch\u00f6ring"},{"country":"DE","id":2890770,"coord":{"lat":47.95303,"lon":12.83435},"name":"Kirchanschoring"},{"country":"DE","id":6554557,"coord":{"lat":50.116699,"lon":6.35},"name":"Kinzenburg"},{"country":"DE","id":2890827,"coord":{"lat":50.116669,"lon":6.35},"name":"Kinzenburg"},{"country":"DE","id":6554339,"coord":{"lat":49.966702,"lon":7.05},"name":"Kinheim"},{"country":"DE","id":2890845,"coord":{"lat":49.966671,"lon":7.05},"name":"Kinheim"},{"country":"DE","id":6554338,"coord":{"lat":50,"lon":7.01667},"name":"Kinderbeuern"},{"country":"DE","id":2890873,"coord":{"lat":50,"lon":7.01667},"name":"Kinderbeuern"},{"country":"DE","id":6548066,"coord":{"lat":53.283298,"lon":12.6},"name":"Kieve"},{"country":"DE","id":2890943,"coord":{"lat":53.274559,"lon":12.59377},"name":"Kieve"},{"country":"DE","id":6551970,"coord":{"lat":54.616699,"lon":9.81667},"name":"Kiesby"},{"country":"DE","id":2890996,"coord":{"lat":54.616669,"lon":9.81667},"name":"Kiesby"},{"country":"DE","id":6556370,"coord":{"lat":47.61845,"lon":12.1659},"name":"Kiefersfelden"},{"country":"DE","id":2891175,"coord":{"lat":47.61409,"lon":12.19096},"name":"Kiefersfelden"},{"country":"DE","id":6554556,"coord":{"lat":50.0667,"lon":6.25},"name":"Kickeshausen"},{"country":"DE","id":2891234,"coord":{"lat":50.066669,"lon":6.25},"name":"Kickeshausen"},{"country":"DE","id":6554859,"coord":{"lat":49.721699,"lon":8.11333},"name":"Kettenheim"},{"country":"DE","id":2891313,"coord":{"lat":49.721668,"lon":8.11333},"name":"Kettenheim"},{"country":"DE","id":6553411,"coord":{"lat":50.716702,"lon":7.63333},"name":"Kettenhausen"},{"country":"DE","id":2891314,"coord":{"lat":50.716671,"lon":7.63333},"name":"Kettenhausen"},{"country":"DE","id":6554052,"coord":{"lat":50.1833,"lon":7.65},"name":"Kestert"},{"country":"DE","id":2891352,"coord":{"lat":50.183331,"lon":7.65},"name":"Kestert"},{"country":"DE","id":6554452,"coord":{"lat":49.966702,"lon":6.16667},"name":"Keppeshausen"},{"country":"DE","id":2891585,"coord":{"lat":49.966671,"lon":6.16667},"name":"Keppeshausen"},{"country":"DE","id":2891668,"coord":{"lat":49.868889,"lon":11.895},"name":"Kemnath"},{"country":"DE","id":2891814,"coord":{"lat":54.183331,"lon":11.06667},"name":"Kellenhusen"},{"country":"DE","id":6553564,"coord":{"lat":49.849998,"lon":7.48333},"name":"Kellenbach"},{"country":"DE","id":2891818,"coord":{"lat":49.849998,"lon":7.48333},"name":"Kellenbach"},{"country":"DE","id":6554694,"coord":{"lat":50.299999,"lon":6.91667},"name":"Kelberg"},{"country":"DE","id":2891846,"coord":{"lat":50.291641,"lon":6.9195},"name":"Kelberg"},{"country":"DE","id":6550446,"coord":{"lat":50.636829,"lon":11.66199},"name":"Keila"},{"country":"DE","id":2891887,"coord":{"lat":50.637379,"lon":11.66182},"name":"Keila"},{"country":"DE","id":6553911,"coord":{"lat":49.983299,"lon":7.5},"name":"Keidelheim"},{"country":"DE","id":2891889,"coord":{"lat":49.98333,"lon":7.5},"name":"Keidelheim"},{"country":"DE","id":2891991,"coord":{"lat":50.98333,"lon":12.23333},"name":"Kayna"},{"country":"DE","id":6553409,"coord":{"lat":50.779701,"lon":7.8899},"name":"Kausen"},{"country":"DE","id":2892029,"coord":{"lat":50.73333,"lon":7.86667},"name":"Kausen"},{"country":"DE","id":6550322,"coord":{"lat":50.633301,"lon":11.4333},"name":"Kaulsdorf"},{"country":"DE","id":2892052,"coord":{"lat":50.633331,"lon":11.43333},"name":"Kaulsdorf"},{"country":"DE","id":6554959,"coord":{"lat":49.650002,"lon":7.81667},"name":"Katzenbach"},{"country":"DE","id":2892256,"coord":{"lat":49.650002,"lon":7.81667},"name":"Katzenbach"},{"country":"DE","id":6556718,"coord":{"lat":49.833302,"lon":11.9},"name":"Kastl"},{"country":"DE","id":2892459,"coord":{"lat":49.833328,"lon":11.9},"name":"Kastl"},{"country":"DE","id":2892460,"coord":{"lat":49.366669,"lon":11.68333},"name":"Kastl"},{"country":"DE","id":6556100,"coord":{"lat":48.200001,"lon":12.7},"name":"Kastl"},{"country":"DE","id":2892461,"coord":{"lat":48.200001,"lon":12.7},"name":"Kastl"},{"country":"DE","id":6554750,"coord":{"lat":49.5667,"lon":6.56667},"name":"Kastel-Staadt"},{"country":"DE","id":2892484,"coord":{"lat":49.566669,"lon":6.56667},"name":"Kastel-Staadt"},{"country":"DE","id":6549677,"coord":{"lat":52.583302,"lon":11.4833},"name":"Kassieck"},{"country":"DE","id":2892502,"coord":{"lat":52.583328,"lon":11.48333},"name":"Kassieck"},{"country":"DE","id":6547566,"coord":{"lat":51.9333,"lon":13.7},"name":"Kasel-Golzig"},{"country":"DE","id":2892570,"coord":{"lat":51.933331,"lon":13.7},"name":"Kasel-Golzig"},{"country":"DE","id":6554049,"coord":{"lat":50.200001,"lon":7.78333},"name":"Kasdorf"},{"country":"DE","id":2892581,"coord":{"lat":50.200001,"lon":7.78333},"name":"Kasdorf"},{"country":"DE","id":6554451,"coord":{"lat":49.883301,"lon":6.48333},"name":"Kaschenbach"},{"country":"DE","id":2892585,"coord":{"lat":49.876049,"lon":6.47987},"name":"Kaschenbach"},{"country":"DE","id":6558467,"coord":{"lat":53.088402,"lon":11.0166},"name":"Karwitz"},{"country":"DE","id":2892612,"coord":{"lat":53.083328,"lon":11.01667},"name":"Karwitz"},{"country":"DE","id":6547944,"coord":{"lat":53.283298,"lon":11.4833},"name":"Karst\u00e4dt"},{"country":"DE","id":2892647,"coord":{"lat":53.283329,"lon":11.48333},"name":"Karstadt"},{"country":"DE","id":6549013,"coord":{"lat":51.283298,"lon":11.65},"name":"Karsdorf"},{"country":"DE","id":2892652,"coord":{"lat":51.283329,"lon":11.65},"name":"Karsdorf"},{"country":"DE","id":6548361,"coord":{"lat":53.533298,"lon":12.2667},"name":"Karow"},{"country":"DE","id":2892709,"coord":{"lat":53.537659,"lon":12.25782},"name":"Karow"},{"country":"DE","id":6551340,"coord":{"lat":54.283298,"lon":8.96667},"name":"Karolinenkoog"},{"country":"DE","id":2892711,"coord":{"lat":54.283329,"lon":8.96667},"name":"Karolinenkoog"},{"country":"DE","id":6548123,"coord":{"lat":54.299999,"lon":12.8},"name":"Karnin"},{"country":"DE","id":2892748,"coord":{"lat":54.301899,"lon":12.79058},"name":"Karnin"},{"country":"DE","id":6554450,"coord":{"lat":50.016701,"lon":6.23333},"name":"Karlshausen"},{"country":"DE","id":2892863,"coord":{"lat":50.01667,"lon":6.23333},"name":"Karlshausen"},{"country":"DE","id":2892867,"coord":{"lat":51.642632,"lon":9.45477},"name":"Bad Karlshafen"},{"country":"DE","id":6550371,"coord":{"lat":50.799999,"lon":11.8},"name":"Karlsdorf"},{"country":"DE","id":2892879,"coord":{"lat":50.799999,"lon":11.8},"name":"Karlsdorf"},{"country":"DE","id":6547943,"coord":{"lat":53.233299,"lon":11.35},"name":"Karenz"},{"country":"DE","id":2892961,"coord":{"lat":53.23333,"lon":11.35},"name":"Karenz"},{"country":"DE","id":6551866,"coord":{"lat":54.616699,"lon":9.96667},"name":"Karby"},{"country":"DE","id":2892974,"coord":{"lat":54.616669,"lon":9.96667},"name":"Karby"},{"country":"DE","id":6553910,"coord":{"lat":50.150002,"lon":7.61667},"name":"Karbach"},{"country":"DE","id":2892986,"coord":{"lat":50.150002,"lon":7.61667},"name":"Karbach"},{"country":"DE","id":6555785,"coord":{"lat":48.599998,"lon":8.11667},"name":"Kappelrodeck"},{"country":"DE","id":2893022,"coord":{"lat":48.59182,"lon":8.11692},"name":"Kappelrodeck"},{"country":"DE","id":6555114,"coord":{"lat":49.6833,"lon":7.56667},"name":"Kappeln"},{"country":"DE","id":2893024,"coord":{"lat":49.683331,"lon":7.56667},"name":"Kappeln"},{"country":"DE","id":6554693,"coord":{"lat":50.25,"lon":7.03333},"name":"Kaperich"},{"country":"DE","id":2893112,"coord":{"lat":50.25,"lon":7.03333},"name":"Kaperich"},{"country":"DE","id":6554748,"coord":{"lat":49.666698,"lon":6.56667},"name":"Kanzem"},{"country":"DE","id":2893175,"coord":{"lat":49.666672,"lon":6.56667},"name":"Kanzem"},{"country":"DE","id":6550320,"coord":{"lat":50.650002,"lon":11.4433},"name":"Kamsdorf"},{"country":"DE","id":2893255,"coord":{"lat":50.650002,"lon":11.43333},"name":"Kamsdorf"},{"country":"DE","id":6548271,"coord":{"lat":53.866699,"lon":14.2},"name":"Kamminke"},{"country":"DE","id":2893322,"coord":{"lat":53.866669,"lon":14.2},"name":"Kamminke"},{"country":"DE","id":6556922,"coord":{"lat":49.292889,"lon":10.97388},"name":"Kammerstein"},{"country":"DE","id":2893328,"coord":{"lat":49.293171,"lon":10.97277},"name":"Kammerstein"},{"country":"DE","id":6549925,"coord":{"lat":51.133301,"lon":10.4167},"name":"Kammerforst"},{"country":"DE","id":2893378,"coord":{"lat":51.133331,"lon":10.41667},"name":"Kammerforst"},{"country":"DE","id":6554149,"coord":{"lat":50.450001,"lon":7.68333},"name":"Kammerforst"},{"country":"DE","id":2893379,"coord":{"lat":50.450001,"lon":7.68333},"name":"Kammerforst"},{"country":"DE","id":6550018,"coord":{"lat":50.616699,"lon":10.1667},"name":"Kaltensundheim"},{"country":"DE","id":2893524,"coord":{"lat":50.616669,"lon":10.16667},"name":"Kaltensundheim"},{"country":"DE","id":6549880,"coord":{"lat":50.650002,"lon":10.2},"name":"Kaltenlengsfeld"},{"country":"DE","id":2893542,"coord":{"lat":50.650002,"lon":10.2},"name":"Kaltenlengsfeld"},{"country":"DE","id":6549789,"coord":{"lat":51.349998,"lon":10.3},"name":"Kallmerode"},{"country":"DE","id":2893723,"coord":{"lat":51.349998,"lon":10.3},"name":"Kallmerode"},{"country":"DE","id":6554958,"coord":{"lat":49.733299,"lon":7.83333},"name":"Kalkofen"},{"country":"DE","id":2893779,"coord":{"lat":49.73333,"lon":7.83333},"name":"Kalkofen"},{"country":"DE","id":6548238,"coord":{"lat":53.966702,"lon":11.0667},"name":"Kalkhorst"},{"country":"DE","id":2893792,"coord":{"lat":53.970119,"lon":11.04469},"name":"Kalkhorst"},{"country":"DE","id":6553314,"coord":{"lat":50.549999,"lon":7},"name":"Kalenborn"},{"country":"DE","id":2893859,"coord":{"lat":50.549999,"lon":7},"name":"Kalenborn"},{"country":"DE","id":6553696,"coord":{"lat":50.266701,"lon":7.08333},"name":"Kalenborn"},{"country":"DE","id":2893860,"coord":{"lat":50.26667,"lon":7.08333},"name":"Kalenborn"},{"country":"DE","id":6549973,"coord":{"lat":51.349998,"lon":11.3333},"name":"Kalbsrieth"},{"country":"DE","id":2893884,"coord":{"lat":51.349998,"lon":11.33333},"name":"Kalbsrieth"},{"country":"DE","id":6552738,"coord":{"lat":53.299999,"lon":9.55},"name":"Kalbe"},{"country":"DE","id":2893938,"coord":{"lat":53.299999,"lon":9.55},"name":"Kalbe"},{"country":"DE","id":2893939,"coord":{"lat":52.650002,"lon":11.4},"name":"Kalbe"},{"country":"DE","id":6548820,"coord":{"lat":51.799999,"lon":12.4333},"name":"Kakau"},{"country":"DE","id":2893963,"coord":{"lat":51.799999,"lon":12.43333},"name":"Kakau"},{"country":"DE","id":2894245,"coord":{"lat":50.069809,"lon":9.00553},"name":"Kahl am Main"},{"country":"DE","id":6554227,"coord":{"lat":50.549999,"lon":7.9},"name":"Kaden"},{"country":"DE","id":2894338,"coord":{"lat":50.549999,"lon":7.9},"name":"Kaden"},{"country":"DE","id":6549788,"coord":{"lat":51.516701,"lon":10.3667},"name":"J\u00fctzenbach"},{"country":"DE","id":2894390,"coord":{"lat":51.525509,"lon":10.37968},"name":"Jutzenbach"},{"country":"DE","id":6547835,"coord":{"lat":53.666698,"lon":12.9},"name":"J\u00fcrgenstorf"},{"country":"DE","id":2894409,"coord":{"lat":53.666672,"lon":12.9},"name":"Jurgenstorf"},{"country":"DE","id":6554642,"coord":{"lat":50.333302,"lon":6.58333},"name":"J\u00fcnkerath"},{"country":"DE","id":2894456,"coord":{"lat":50.333328,"lon":6.58333},"name":"Junkerath"},{"country":"DE","id":6556562,"coord":{"lat":48.25,"lon":12.9667},"name":"Julbach"},{"country":"DE","id":2894566,"coord":{"lat":48.25,"lon":12.96667},"name":"Julbach"},{"country":"DE","id":6552862,"coord":{"lat":53.6768,"lon":6.99253},"name":"Juist"},{"country":"DE","id":2894569,"coord":{"lat":53.683331,"lon":7},"name":"Juist"},{"country":"DE","id":6550300,"coord":{"lat":50.400002,"lon":11.2167},"name":"Judenbach"},{"country":"DE","id":2894617,"coord":{"lat":50.400002,"lon":11.21667},"name":"Judenbach"},{"country":"DE","id":6554554,"coord":{"lat":50.049999,"lon":6.23333},"name":"Jucken"},{"country":"DE","id":2894620,"coord":{"lat":50.049999,"lon":6.23333},"name":"Jucken"},{"country":"DE","id":6549674,"coord":{"lat":52.700001,"lon":10.9167},"name":"J\u00fcbar"},{"country":"DE","id":2894646,"coord":{"lat":52.700001,"lon":10.91667},"name":"Jubar"},{"country":"DE","id":6552803,"coord":{"lat":53.533298,"lon":9.68333},"name":"Jork"},{"country":"DE","id":2894702,"coord":{"lat":53.533329,"lon":9.68333},"name":"Jork"},{"country":"DE","id":6556561,"coord":{"lat":48.533298,"lon":12.95},"name":"Johanniskirchen"},{"country":"DE","id":2894771,"coord":{"lat":48.533329,"lon":12.95},"name":"Johanniskirchen"},{"country":"DE","id":2894814,"coord":{"lat":50.433331,"lon":12.73333},"name":"Johanngeorgenstadt"},{"country":"DE","id":6556950,"coord":{"lat":50.033298,"lon":9.13333},"name":"Johannesberg"},{"country":"DE","id":2894833,"coord":{"lat":50.033329,"lon":9.13333},"name":"Johannesberg"},{"country":"DE","id":6556349,"coord":{"lat":48.4333,"lon":11.4167},"name":"Jetzendorf"},{"country":"DE","id":2894907,"coord":{"lat":48.433331,"lon":11.41667},"name":"Jetzendorf"},{"country":"DE","id":6555113,"coord":{"lat":49.533298,"lon":7.55},"name":"Jettenbach"},{"country":"DE","id":2894924,"coord":{"lat":49.533329,"lon":7.55},"name":"Jettenbach"},{"country":"DE","id":6548739,"coord":{"lat":51.4333,"lon":12.5},"name":"Jesewitz"},{"country":"DE","id":2894970,"coord":{"lat":51.42276,"lon":12.56312},"name":"Jesewitz"},{"country":"DE","id":6552277,"coord":{"lat":53.733299,"lon":10.2167},"name":"Jersbek"},{"country":"DE","id":2894998,"coord":{"lat":53.73333,"lon":10.21667},"name":"Jersbek"},{"country":"DE","id":6549672,"coord":{"lat":52.466702,"lon":11.3167},"name":"Jerchel"},{"country":"DE","id":2895015,"coord":{"lat":52.468349,"lon":11.3209},"name":"Jerchel"},{"country":"DE","id":6550370,"coord":{"lat":50.950001,"lon":11.7},"name":"Jenal\u00f6bnitz"},{"country":"DE","id":2895040,"coord":{"lat":50.950001,"lon":11.7},"name":"Jenalobnitz"},{"country":"DE","id":6549671,"coord":{"lat":52.766701,"lon":11.3},"name":"Jeggeleben"},{"country":"DE","id":2895072,"coord":{"lat":52.76667,"lon":11.3},"name":"Jeggeleben"},{"country":"DE","id":6552030,"coord":{"lat":54.833302,"lon":9.2},"name":"Jardelund"},{"country":"DE","id":2895174,"coord":{"lat":54.833328,"lon":9.2},"name":"Jardelund"},{"country":"DE","id":6552029,"coord":{"lat":54.633301,"lon":9.3},"name":"Janneby"},{"country":"DE","id":2895200,"coord":{"lat":54.633331,"lon":9.3},"name":"Janneby"},{"country":"DE","id":6547565,"coord":{"lat":52,"lon":14.3667},"name":"Jamlitz"},{"country":"DE","id":2895221,"coord":{"lat":52,"lon":14.36667},"name":"Jamlitz"},{"country":"DE","id":6548122,"coord":{"lat":54.233299,"lon":12.9333},"name":"Jakobsdorf"},{"country":"DE","id":2895246,"coord":{"lat":54.23333,"lon":12.93333},"name":"Jakobsdorf"},{"country":"DE","id":2895284,"coord":{"lat":50.75,"lon":12.85},"name":"Jahnsdorf"},{"country":"DE","id":6555587,"coord":{"lat":49.030472,"lon":10.09747},"name":"Jagstzell"},{"country":"DE","id":2895304,"coord":{"lat":49.030548,"lon":10.09751},"name":"Jagstzell"},{"country":"DE","id":6555521,"coord":{"lat":49.3106,"lon":9.46833},"name":"Jagsthausen"},{"country":"DE","id":2895309,"coord":{"lat":49.310558,"lon":9.46833},"name":"Jagsthausen"},{"country":"DE","id":6556125,"coord":{"lat":47.599998,"lon":11.4333},"name":"Jachenau"},{"country":"DE","id":2895517,"coord":{"lat":47.60574,"lon":11.43381},"name":"Jachenau"},{"country":"DE","id":6548062,"coord":{"lat":53.549999,"lon":12.55},"name":"Jabel"},{"country":"DE","id":2895524,"coord":{"lat":53.549999,"lon":12.55},"name":"Jabel"},{"country":"DE","id":6556802,"coord":{"lat":50.375771,"lon":11.72224},"name":"Issigau"},{"country":"DE","id":2895619,"coord":{"lat":50.375252,"lon":11.7207},"name":"Issigau"},{"country":"DE","id":6556317,"coord":{"lat":48.2174,"lon":11.6629},"name":"Ismaning"},{"country":"DE","id":2895643,"coord":{"lat":48.23333,"lon":11.68333},"name":"Ismaning"},{"country":"DE","id":6553408,"coord":{"lat":50.733299,"lon":7.7},"name":"Isert"},{"country":"DE","id":2895659,"coord":{"lat":50.73333,"lon":7.7},"name":"Isert"},{"country":"DE","id":2895702,"coord":{"lat":48.212029,"lon":12.05672},"name":"Isen"},{"country":"DE","id":6553502,"coord":{"lat":49.866699,"lon":7.63333},"name":"Ippenschied"},{"country":"DE","id":2895875,"coord":{"lat":49.866669,"lon":7.63333},"name":"Ippenschied"},{"country":"DE","id":6556400,"coord":{"lat":47.757252,"lon":12.7498},"name":"Inzell"},{"country":"DE","id":2895898,"coord":{"lat":47.76667,"lon":12.75},"name":"Inzell"},{"country":"DE","id":2895937,"coord":{"lat":48.349998,"lon":12.08333},"name":"Inning am Holz"},{"country":"DE","id":6556475,"coord":{"lat":48.849998,"lon":13.2667},"name":"Innernzell"},{"country":"DE","id":2895946,"coord":{"lat":48.851501,"lon":13.27539},"name":"Innernzell"},{"country":"DE","id":6556015,"coord":{"lat":48.016701,"lon":9.73333},"name":"Ingoldingen"},{"country":"DE","id":2895993,"coord":{"lat":48.02552,"lon":9.74195},"name":"Ingoldingen"},{"country":"DE","id":6554448,"coord":{"lat":49.9333,"lon":6.45},"name":"Ingendorf"},{"country":"DE","id":2896011,"coord":{"lat":49.933331,"lon":6.45},"name":"Ingendorf"},{"country":"DE","id":2896021,"coord":{"lat":49.301029,"lon":9.65123},"name":"Ingelfingen"},{"country":"DE","id":6554954,"coord":{"lat":49.636398,"lon":8.10528},"name":"Immesheim"},{"country":"DE","id":2896239,"coord":{"lat":49.636391,"lon":8.10528},"name":"Immesheim"},{"country":"DE","id":6554641,"coord":{"lat":50.133301,"lon":6.95},"name":"Immerath"},{"country":"DE","id":2896253,"coord":{"lat":50.133331,"lon":6.95},"name":"Immerath"},{"country":"DE","id":6555441,"coord":{"lat":54.5383,"lon":9.14949},"name":"Immenstedt"},{"country":"DE","id":2896259,"coord":{"lat":54.5383,"lon":9.14948},"name":"Immenstedt"},{"country":"DE","id":6555703,"coord":{"lat":48.953701,"lon":8.9156},"name":"Illingen"},{"country":"DE","id":2896539,"coord":{"lat":48.950001,"lon":8.91667},"name":"Illingen"},{"country":"DE","id":6554953,"coord":{"lat":49.689999,"lon":8.07528},"name":"Ilbesheim"},{"country":"DE","id":2896599,"coord":{"lat":49.689999,"lon":8.07528},"name":"Ilbesheim"},{"country":"DE","id":6547726,"coord":{"lat":51.883301,"lon":13.3333},"name":"Ihlow"},{"country":"DE","id":2896643,"coord":{"lat":51.883331,"lon":13.33333},"name":"Ihlow"},{"country":"DE","id":6556460,"coord":{"lat":48.730202,"lon":13.1382},"name":"Iggensbach"},{"country":"DE","id":2896679,"coord":{"lat":48.73333,"lon":13.13333},"name":"Iggensbach"},{"country":"DE","id":2896689,"coord":{"lat":49.623219,"lon":11.23137},"name":"Igensdorf"},{"country":"DE","id":6554746,"coord":{"lat":49.716702,"lon":6.55},"name":"Igel"},{"country":"DE","id":2896721,"coord":{"lat":49.716671,"lon":6.55},"name":"Igel"},{"country":"DE","id":6555630,"coord":{"lat":48.799999,"lon":8.13333},"name":"Iffezheim"},{"country":"DE","id":2896727,"coord":{"lat":48.821671,"lon":8.1431},"name":"Iffezheim"},{"country":"DE","id":6553406,"coord":{"lat":50.716702,"lon":7.71667},"name":"Idelberg"},{"country":"DE","id":2896748,"coord":{"lat":50.716671,"lon":7.71667},"name":"Idelberg"},{"country":"DE","id":6555914,"coord":{"lat":47.733299,"lon":8.06667},"name":"Ibach"},{"country":"DE","id":2896823,"coord":{"lat":47.73333,"lon":8.06667},"name":"Ibach"},{"country":"DE","id":2896834,"coord":{"lat":51.966671,"lon":10.91667},"name":"Huy-Neinstedt"},{"country":"DE","id":2896933,"coord":{"lat":51.76667,"lon":10.9},"name":"Huttenrode"},{"country":"DE","id":6551862,"coord":{"lat":54.4333,"lon":9.71667},"name":"H\u00fctten"},{"country":"DE","id":2897020,"coord":{"lat":54.433331,"lon":9.71667},"name":"Hutten"},{"country":"DE","id":6554443,"coord":{"lat":50.016701,"lon":6.25},"name":"H\u00fctten"},{"country":"DE","id":2897028,"coord":{"lat":50.01667,"lon":6.25},"name":"Hutten"},{"country":"DE","id":6552529,"coord":{"lat":52.565201,"lon":9.25335},"name":"Husum"},{"country":"DE","id":2897136,"coord":{"lat":52.566669,"lon":9.25},"name":"Husum"},{"country":"DE","id":6552028,"coord":{"lat":54.766701,"lon":9.58333},"name":"Husby"},{"country":"DE","id":2897200,"coord":{"lat":54.76667,"lon":9.58333},"name":"Husby"},{"country":"DE","id":6551966,"coord":{"lat":54.5,"lon":9.48333},"name":"H\u00fcsby"},{"country":"DE","id":2897201,"coord":{"lat":54.5,"lon":9.48333},"name":"Husby"},{"country":"DE","id":6553501,"coord":{"lat":49.716702,"lon":7.55},"name":"Hundsbach"},{"country":"DE","id":2897555,"coord":{"lat":49.716671,"lon":7.55},"name":"Hundsbach"},{"country":"DE","id":6556459,"coord":{"lat":48.849998,"lon":13.1833},"name":"Hunding"},{"country":"DE","id":2897564,"coord":{"lat":48.84227,"lon":13.17681},"name":"Hunding"},{"country":"DE","id":6549787,"coord":{"lat":51.4333,"lon":10.2833},"name":"Hundeshagen"},{"country":"DE","id":2897583,"coord":{"lat":51.433331,"lon":10.28333},"name":"Hundeshagen"},{"country":"DE","id":2897593,"coord":{"lat":48.900002,"lon":12.66667},"name":"Hunderdorf"},{"country":"DE","id":6556580,"coord":{"lat":48.948799,"lon":12.727},"name":"Hunderdorf"},{"country":"DE","id":2897594,"coord":{"lat":48.950001,"lon":12.73333},"name":"Hunderdorf"},{"country":"DE","id":6551559,"coord":{"lat":54.866699,"lon":8.86667},"name":"Humptrup"},{"country":"DE","id":2897635,"coord":{"lat":54.866669,"lon":8.86667},"name":"Humptrup"},{"country":"DE","id":6550016,"coord":{"lat":50.666698,"lon":10.2333},"name":"H\u00fcmpfershausen"},{"country":"DE","id":2897639,"coord":{"lat":50.666672,"lon":10.23333},"name":"Humpfershausen"},{"country":"DE","id":6548121,"coord":{"lat":54.150002,"lon":12.75},"name":"Hugoldsdorf"},{"country":"DE","id":2897986,"coord":{"lat":54.149521,"lon":12.75367},"name":"Hugoldsdorf"},{"country":"DE","id":6551558,"coord":{"lat":54.383301,"lon":9.21667},"name":"Hude"},{"country":"DE","id":2898076,"coord":{"lat":54.383331,"lon":9.21667},"name":"Hude"},{"country":"DE","id":2898081,"coord":{"lat":52.48333,"lon":8.35},"name":"Huede"},{"country":"DE","id":6554225,"coord":{"lat":50.5667,"lon":8.08333},"name":"H\u00fcblingen"},{"country":"DE","id":2898149,"coord":{"lat":50.566669,"lon":8.08333},"name":"Hublingen"},{"country":"DE","id":6554145,"coord":{"lat":50.366699,"lon":7.83333},"name":"H\u00fcbingen"},{"country":"DE","id":2898151,"coord":{"lat":50.366669,"lon":7.83333},"name":"Hubingen"},{"country":"DE","id":6552494,"coord":{"lat":52.033298,"lon":9.75},"name":"Hoyershausen"},{"country":"DE","id":2898308,"coord":{"lat":52.01886,"lon":9.75346},"name":"Hoyershausen"},{"country":"DE","id":6554442,"coord":{"lat":49.900002,"lon":6.61667},"name":"Hosten"},{"country":"DE","id":2898448,"coord":{"lat":49.900002,"lon":6.61667},"name":"Hosten"},{"country":"DE","id":6556369,"coord":{"lat":47.950001,"lon":12.3333},"name":"H\u00f6slwang"},{"country":"DE","id":2898471,"coord":{"lat":47.953781,"lon":12.32915},"name":"Hoslwang"},{"country":"DE","id":6551856,"coord":{"lat":54.233299,"lon":9.58333},"name":"H\u00f6rsten"},{"country":"DE","id":2898591,"coord":{"lat":54.23333,"lon":9.58333},"name":"Horsten"},{"country":"DE","id":6552737,"coord":{"lat":53.1833,"lon":9.23333},"name":"Horstedt"},{"country":"DE","id":2898608,"coord":{"lat":53.183331,"lon":9.23333},"name":"Horstedt"},{"country":"DE","id":2898640,"coord":{"lat":53.816669,"lon":9.61667},"name":"Horst"},{"country":"DE","id":6554639,"coord":{"lat":50.25,"lon":6.93333},"name":"H\u00f6rschhausen"},{"country":"DE","id":2898706,"coord":{"lat":50.25,"lon":6.93333},"name":"Horschhausen"},{"country":"DE","id":2952993,"coord":{"lat":49.268921,"lon":8.78919},"name":"Balzfeld"},{"country":"DE","id":2898732,"coord":{"lat":49.280399,"lon":8.78087},"name":"Horrenberg"},{"country":"DE","id":6548190,"coord":{"lat":53.916698,"lon":11.5333},"name":"Hornstorf"},{"country":"DE","id":2898763,"coord":{"lat":53.916672,"lon":11.53333},"name":"Hornstorf"},{"country":"DE","id":6549923,"coord":{"lat":51.216702,"lon":10.8167},"name":"Horns\u00f6mmern"},{"country":"DE","id":2898771,"coord":{"lat":51.216671,"lon":10.81667},"name":"Hornsommern"},{"country":"DE","id":6551236,"coord":{"lat":52.026199,"lon":11.2269},"name":"Oschersleben (Bode), Stadt"},{"country":"DE","id":2898829,"coord":{"lat":52.045101,"lon":11.17104},"name":"Hornhausen"},{"country":"DE","id":2898894,"coord":{"lat":51.885502,"lon":8.96244},"name":"Horn-Bad Meinberg"},{"country":"DE","id":2898924,"coord":{"lat":51.87151,"lon":8.9451},"name":"Horn"},{"country":"DE","id":6553907,"coord":{"lat":50.049999,"lon":7.53333},"name":"Horn"},{"country":"DE","id":2898927,"coord":{"lat":50.049999,"lon":7.53333},"name":"Horn"},{"country":"DE","id":6548580,"coord":{"lat":50.666698,"lon":12.8833},"name":"Hormersdorf"},{"country":"DE","id":2898960,"coord":{"lat":50.666672,"lon":12.88333},"name":"Hormersdorf"},{"country":"DE","id":6548638,"coord":{"lat":51.299999,"lon":14.9},"name":"Horka"},{"country":"DE","id":2899012,"coord":{"lat":51.299999,"lon":14.9},"name":"Horka"},{"country":"DE","id":6554044,"coord":{"lat":50.366699,"lon":7.9},"name":"Horhausen"},{"country":"DE","id":2899025,"coord":{"lat":50.366669,"lon":7.9},"name":"Horhausen"},{"country":"DE","id":6556079,"coord":{"lat":47.799999,"lon":9.5},"name":"Horgenzell"},{"country":"DE","id":2899040,"coord":{"lat":47.799999,"lon":9.5},"name":"Horgenzell"},{"country":"DE","id":6555748,"coord":{"lat":47.9333,"lon":7.86667},"name":"Horben"},{"country":"DE","id":2899093,"coord":{"lat":47.933331,"lon":7.86667},"name":"Horben"},{"country":"DE","id":6554144,"coord":{"lat":50.383301,"lon":7.85},"name":"Horbach"},{"country":"DE","id":2899107,"coord":{"lat":50.383331,"lon":7.85},"name":"Horbach"},{"country":"DE","id":6554333,"coord":{"lat":49.8167,"lon":6.98333},"name":"Horath"},{"country":"DE","id":2899123,"coord":{"lat":49.816669,"lon":6.98333},"name":"Horath"},{"country":"DE","id":6553101,"coord":{"lat":52.376099,"lon":7.6059},"name":"Hopsten"},{"country":"DE","id":2899135,"coord":{"lat":52.383331,"lon":7.61667},"name":"Hopsten"},{"country":"DE","id":6555110,"coord":{"lat":49.700001,"lon":7.53333},"name":"Hoppst\u00e4dten"},{"country":"DE","id":2899138,"coord":{"lat":49.700001,"lon":7.53333},"name":"Hoppstadten"},{"country":"DE","id":6547607,"coord":{"lat":52.516701,"lon":13.6667},"name":"Hoppegarten"},{"country":"DE","id":2899172,"coord":{"lat":52.51667,"lon":13.66667},"name":"Hoppegarten"},{"country":"DE","id":6550247,"coord":{"lat":50.983299,"lon":11.2667},"name":"Hopfgarten"},{"country":"DE","id":2899194,"coord":{"lat":50.98333,"lon":11.26667},"name":"Hopfgarten"},{"country":"DE","id":6557214,"coord":{"lat":47.611649,"lon":10.6357},"name":"Hopferau"},{"country":"DE","id":2899202,"coord":{"lat":47.616669,"lon":10.63333},"name":"Hopferau"},{"country":"DE","id":2899290,"coord":{"lat":52.583328,"lon":6.95},"name":"Hoogstede"},{"country":"DE","id":2899291,"coord":{"lat":52.583328,"lon":6.95},"name":"Hoogstede"},{"country":"DE","id":6553309,"coord":{"lat":50.466671,"lon":6.95},"name":"H\u00f6nningen"},{"country":"DE","id":2899327,"coord":{"lat":50.466671,"lon":6.95},"name":"Honningen"},{"country":"DE","id":6554441,"coord":{"lat":49.916698,"lon":6.31667},"name":"Hommerdingen"},{"country":"DE","id":2899419,"coord":{"lat":49.916672,"lon":6.31667},"name":"Hommerdingen"},{"country":"DE","id":2899479,"coord":{"lat":50.73333,"lon":9},"name":"Homberg"},{"country":"DE","id":6554224,"coord":{"lat":50.650002,"lon":8.1},"name":"Homberg"},{"country":"DE","id":2899480,"coord":{"lat":50.650002,"lon":8.1},"name":"Homberg"},{"country":"DE","id":6554040,"coord":{"lat":50.333302,"lon":7.78333},"name":"H\u00f6mberg"},{"country":"DE","id":2899481,"coord":{"lat":50.333328,"lon":7.78333},"name":"Homberg"},{"country":"DE","id":6555109,"coord":{"lat":49.650002,"lon":7.51667},"name":"Homberg"},{"country":"DE","id":2899482,"coord":{"lat":49.650002,"lon":7.51667},"name":"Homberg"},{"country":"DE","id":6549971,"coord":{"lat":51.283298,"lon":10.6833},"name":"Holzsu\u00dfra"},{"country":"DE","id":2899560,"coord":{"lat":51.283329,"lon":10.68333},"name":"Holzsussra"},{"country":"DE","id":6557087,"coord":{"lat":49.781399,"lon":9.68028},"name":"Holzkirchen"},{"country":"DE","id":2899671,"coord":{"lat":49.781391,"lon":9.68028},"name":"Holzkirchen"},{"country":"DE","id":6554043,"coord":{"lat":50.349998,"lon":8.05},"name":"Holzheim"},{"country":"DE","id":2899716,"coord":{"lat":50.349998,"lon":8.05},"name":"Holzheim"},{"country":"DE","id":6557283,"coord":{"lat":48.6208,"lon":10.9667},"name":"Holzheim"},{"country":"DE","id":2899722,"coord":{"lat":48.616669,"lon":10.95},"name":"Holzheim"},{"country":"DE","id":6557161,"coord":{"lat":48.516701,"lon":10.5333},"name":"Holzheim"},{"country":"DE","id":2899723,"coord":{"lat":48.514221,"lon":10.53057},"name":"Holzheim"},{"country":"DE","id":6557186,"coord":{"lat":48.383301,"lon":10.1},"name":"Holzheim"},{"country":"DE","id":2899724,"coord":{"lat":48.383331,"lon":10.1},"name":"Holzheim"},{"country":"DE","id":6557247,"coord":{"lat":48.016701,"lon":10.2667},"name":"Holzg\u00fcnz"},{"country":"DE","id":2899870,"coord":{"lat":48.01667,"lon":10.26667},"name":"Holzgunz"},{"country":"DE","id":2899961,"coord":{"lat":51.76667,"lon":13.13333},"name":"Holzdorf"},{"country":"DE","id":6552026,"coord":{"lat":54.8167,"lon":9.15},"name":"Holt"},{"country":"DE","id":2900240,"coord":{"lat":54.816669,"lon":9.15},"name":"Holt"},{"country":"DE","id":6552197,"coord":{"lat":54.041599,"lon":9.34799},"name":"Holstenniendorf"},{"country":"DE","id":2900253,"coord":{"lat":54.041611,"lon":9.34808},"name":"Holstenniendorf"},{"country":"DE","id":6551555,"coord":{"lat":54.833302,"lon":8.86667},"name":"Holm"},{"country":"DE","id":2900337,"coord":{"lat":54.833328,"lon":8.86667},"name":"Holm"},{"country":"DE","id":6553905,"coord":{"lat":50.0667,"lon":7.48333},"name":"Hollnich"},{"country":"DE","id":2900393,"coord":{"lat":50.066669,"lon":7.48333},"name":"Hollnich"},{"country":"DE","id":6551965,"coord":{"lat":54.450001,"lon":9.35},"name":"Hollingstedt"},{"country":"DE","id":2900409,"coord":{"lat":54.450001,"lon":9.35},"name":"Hollingstedt"},{"country":"DE","id":6551338,"coord":{"lat":54.299999,"lon":9.21667},"name":"Hollingstedt"},{"country":"DE","id":2900410,"coord":{"lat":54.299999,"lon":9.21667},"name":"Hollingstedt"},{"country":"DE","id":6552637,"coord":{"lat":53.366699,"lon":9.71667},"name":"Hollenstedt"},{"country":"DE","id":2900520,"coord":{"lat":53.366669,"lon":9.71667},"name":"Hollenstedt"},{"country":"DE","id":6552589,"coord":{"lat":53.4333,"lon":8.7},"name":"Hollen"},{"country":"DE","id":2900595,"coord":{"lat":53.433331,"lon":8.7},"name":"Hollen"},{"country":"DE","id":6552483,"coord":{"lat":52.083302,"lon":10.15},"name":"Holle"},{"country":"DE","id":2900623,"coord":{"lat":52.087212,"lon":10.16012},"name":"Holle"},{"country":"DE","id":6548189,"coord":{"lat":53.733299,"lon":11.0667},"name":"Holdorf"},{"country":"DE","id":2900739,"coord":{"lat":53.73333,"lon":11.06667},"name":"Holdorf"},{"country":"DE","id":6552276,"coord":{"lat":53.650002,"lon":10.3167},"name":"Hoisdorf"},{"country":"DE","id":2900787,"coord":{"lat":53.650002,"lon":10.31667},"name":"Hoisdorf"},{"country":"DE","id":2900799,"coord":{"lat":50.719101,"lon":8.91961},"name":"Hoeingen"},{"country":"DE","id":2900849,"coord":{"lat":51.5,"lon":11.73333},"name":"Hohnstedt"},{"country":"DE","id":6558447,"coord":{"lat":52.3657,"lon":9.35401},"name":"Hohnhorst"},{"country":"DE","id":2900865,"coord":{"lat":52.369419,"lon":9.37168},"name":"Hohnhorst"},{"country":"DE","id":6551734,"coord":{"lat":54.366699,"lon":10.3667},"name":"H\u00f6hndorf"},{"country":"DE","id":2900884,"coord":{"lat":54.366669,"lon":10.36667},"name":"Hohndorf"},{"country":"DE","id":6555334,"coord":{"lat":49.25,"lon":7.56667},"name":"H\u00f6hfr\u00f6schen"},{"country":"DE","id":2901006,"coord":{"lat":49.25,"lon":7.56667},"name":"Hohfroschen"},{"country":"DE","id":6556631,"coord":{"lat":49.200001,"lon":12.9333},"name":"Hohenwarth"},{"country":"DE","id":2901360,"coord":{"lat":49.200001,"lon":12.93333},"name":"Hohenwarth"},{"country":"DE","id":2901377,"coord":{"lat":52.178982,"lon":11.49994},"name":"Hohenwarsleben"},{"country":"DE","id":2901397,"coord":{"lat":51.51667,"lon":12.1},"name":"Hohenthurm"},{"country":"DE","id":6556507,"coord":{"lat":48.6576,"lon":12.0307},"name":"Hohenthann"},{"country":"DE","id":2901398,"coord":{"lat":48.666672,"lon":12.1},"name":"Hohenthann"},{"country":"DE","id":6556083,"coord":{"lat":48.034698,"lon":9.3703},"name":"Hohentengen"},{"country":"DE","id":2901405,"coord":{"lat":48.029461,"lon":9.37739},"name":"Hohentengen"},{"country":"DE","id":6556980,"coord":{"lat":50.3167,"lon":10.1833},"name":"Hohenroth"},{"country":"DE","id":2901514,"coord":{"lat":50.316669,"lon":10.18333},"name":"Hohenroth"},{"country":"DE","id":6556184,"coord":{"lat":48.383301,"lon":12.1333},"name":"Hohenpolding"},{"country":"DE","id":2901568,"coord":{"lat":48.383331,"lon":12.13333},"name":"Hohenpolding"},{"country":"DE","id":6556431,"coord":{"lat":47.799999,"lon":11},"name":"Hohenpei\u00dfenberg"},{"country":"DE","id":2901572,"coord":{"lat":47.799999,"lon":11},"name":"Hohenpeissenberg"},{"country":"DE","id":6556152,"coord":{"lat":48.150002,"lon":12},"name":"Hohenlinden"},{"country":"DE","id":2901625,"coord":{"lat":48.15612,"lon":11.99458},"name":"Hohenlinden"},{"country":"DE","id":7602442,"coord":{"lat":53.916672,"lon":11.31667},"name":"Hohenkirchen"},{"country":"DE","id":2901653,"coord":{"lat":53.916672,"lon":11.31667},"name":"Hohenkirchen"},{"country":"DE","id":6550086,"coord":{"lat":50.849998,"lon":10.7},"name":"Hohenkirchen"},{"country":"DE","id":2901658,"coord":{"lat":50.849998,"lon":10.7},"name":"Hohenkirchen"},{"country":"DE","id":6552393,"coord":{"lat":52.266701,"lon":10.0667},"name":"Hohenhameln"},{"country":"DE","id":2901731,"coord":{"lat":52.257549,"lon":10.06416},"name":"Hohenhameln"},{"country":"DE","id":6549784,"coord":{"lat":51.366699,"lon":9.95},"name":"Hohengandern"},{"country":"DE","id":2901756,"coord":{"lat":51.366669,"lon":9.95},"name":"Hohengandern"},{"country":"DE","id":6547549,"coord":{"lat":52.8167,"lon":13.9333},"name":"Hohenfinow"},{"country":"DE","id":2901763,"coord":{"lat":52.8134,"lon":13.92491},"name":"Hohenfinow"},{"country":"DE","id":6551735,"coord":{"lat":54.366699,"lon":10.5},"name":"Hohenfelde"},{"country":"DE","id":2901783,"coord":{"lat":54.366669,"lon":10.5},"name":"Hohenfelde"},{"country":"DE","id":6559250,"coord":{"lat":54.09943,"lon":11.88422},"name":"Hohenfelde"},{"country":"DE","id":2901785,"coord":{"lat":54.083328,"lon":11.91667},"name":"Hohenfelde"},{"country":"DE","id":6552195,"coord":{"lat":53.849998,"lon":9.61667},"name":"Hohenfelde"},{"country":"DE","id":2901787,"coord":{"lat":53.849998,"lon":9.61667},"name":"Hohenfelde"},{"country":"DE","id":6552275,"coord":{"lat":53.633301,"lon":10.4667},"name":"Hohenfelde"},{"country":"DE","id":2901790,"coord":{"lat":53.633331,"lon":10.46667},"name":"Hohenfelde"},{"country":"DE","id":6548267,"coord":{"lat":54.016701,"lon":13.7333},"name":"Hohendorf"},{"country":"DE","id":2901832,"coord":{"lat":54.01667,"lon":13.73333},"name":"Hohendorf"},{"country":"DE","id":6547884,"coord":{"lat":53.716702,"lon":12.55},"name":"Hohen Demzin"},{"country":"DE","id":2901842,"coord":{"lat":53.721401,"lon":12.54381},"name":"Hohen Demzin"},{"country":"DE","id":2901849,"coord":{"lat":49.295071,"lon":11.79906},"name":"Hohenburg"},{"country":"DE","id":6547833,"coord":{"lat":53.783298,"lon":13.0167},"name":"Hohenbollentin"},{"country":"DE","id":2901885,"coord":{"lat":53.783329,"lon":13.01667},"name":"Hohenbollentin"},{"country":"DE","id":6549496,"coord":{"lat":52.733299,"lon":11.9667},"name":"Hohenberg-Krusemark"},{"country":"DE","id":2901900,"coord":{"lat":52.73333,"lon":11.96667},"name":"Hohenberg-Krusemark"},{"country":"DE","id":6548774,"coord":{"lat":51.416698,"lon":12.8},"name":"Hohburg"},{"country":"DE","id":2902230,"coord":{"lat":51.411678,"lon":12.80508},"name":"Hohburg"},{"country":"DE","id":6552104,"coord":{"lat":53.916698,"lon":10.2833},"name":"H\u00f6gersdorf"},{"country":"DE","id":2902297,"coord":{"lat":53.916672,"lon":10.28333},"name":"Hogersdorf"},{"country":"DE","id":6555784,"coord":{"lat":48.25,"lon":8.06667},"name":"Hofstetten"},{"country":"DE","id":2902370,"coord":{"lat":48.25,"lon":8.06667},"name":"Hofstetten"},{"country":"DE","id":6556257,"coord":{"lat":48.016701,"lon":10.9667},"name":"Hofstetten"},{"country":"DE","id":2902371,"coord":{"lat":48.01667,"lon":10.96667},"name":"Hofstetten"},{"country":"DE","id":2902514,"coord":{"lat":48.683331,"lon":13.11667},"name":"Hofkirchen"},{"country":"DE","id":2902531,"coord":{"lat":50.133331,"lon":10.53333},"name":"Hofheim in Unterfranken"},{"country":"DE","id":6551857,"coord":{"lat":54.200001,"lon":10},"name":"Hoffeld"},{"country":"DE","id":2902587,"coord":{"lat":54.200001,"lon":10},"name":"Hoffeld"},{"country":"DE","id":6553310,"coord":{"lat":50.366699,"lon":6.81667},"name":"Hoffeld"},{"country":"DE","id":2902588,"coord":{"lat":50.366669,"lon":6.81667},"name":"Hoffeld"},{"country":"DE","id":6555690,"coord":{"lat":48.799999,"lon":8.58333},"name":"H\u00f6fen an der Enz"},{"country":"DE","id":2902628,"coord":{"lat":48.799999,"lon":8.58333},"name":"Hofen an der Enz"},{"country":"DE","id":6554223,"coord":{"lat":50.666698,"lon":8.01667},"name":"Hof"},{"country":"DE","id":2902767,"coord":{"lat":50.666672,"lon":8.01667},"name":"Hof"},{"country":"DE","id":2902855,"coord":{"lat":51.23333,"lon":13.91667},"name":"Hockendorf"},{"country":"DE","id":6548706,"coord":{"lat":50.916698,"lon":13.5833},"name":"H\u00f6ckendorf"},{"country":"DE","id":2902858,"coord":{"lat":50.916672,"lon":13.58333},"name":"Hockendorf"},{"country":"DE","id":6554221,"coord":{"lat":50.633301,"lon":7.73333},"name":"H\u00f6chstenbach"},{"country":"DE","id":2902965,"coord":{"lat":50.633331,"lon":7.73333},"name":"Hochstenbach"},{"country":"DE","id":6547436,"coord":{"lat":50.25,"lon":7},"name":"H\u00f6chstberg"},{"country":"DE","id":2902987,"coord":{"lat":50.25,"lon":7},"name":"Hochstberg"},{"country":"DE","id":2903011,"coord":{"lat":50.099998,"lon":12.08333},"name":"Hochstadt bei Thiersheim"},{"country":"DE","id":2903012,"coord":{"lat":48.61124,"lon":10.56816},"name":"Hochstadt an der Donau"},{"country":"DE","id":6548613,"coord":{"lat":51.150002,"lon":14.5833},"name":"Hochkirch"},{"country":"DE","id":2903125,"coord":{"lat":51.150002,"lon":14.58333},"name":"Hochkirch"},{"country":"DE","id":6550084,"coord":{"lat":51.016701,"lon":10.6667},"name":"Hochheim"},{"country":"DE","id":2903178,"coord":{"lat":51.01667,"lon":10.66667},"name":"Hochheim"},{"country":"DE","id":6556979,"coord":{"lat":50.366699,"lon":10.45},"name":"H\u00f6chheim"},{"country":"DE","id":2903180,"coord":{"lat":50.366669,"lon":10.45},"name":"Hochheim"},{"country":"DE","id":6555421,"coord":{"lat":48.695,"lon":9.4615},"name":"Hochdorf"},{"country":"DE","id":2903290,"coord":{"lat":48.692829,"lon":9.46494},"name":"Hochdorf"},{"country":"DE","id":6556014,"coord":{"lat":48.033298,"lon":9.78333},"name":"Hochdorf"},{"country":"DE","id":2903295,"coord":{"lat":48.033329,"lon":9.78333},"name":"Hochdorf"},{"country":"DE","id":2903470,"coord":{"lat":53.152538,"lon":11.04418},"name":"Hitzacker"},{"country":"DE","id":6554439,"coord":{"lat":49.966702,"lon":6.36667},"name":"Hisel"},{"country":"DE","id":2903489,"coord":{"lat":49.963089,"lon":6.37404},"name":"Hisel"},{"country":"DE","id":6553405,"coord":{"lat":50.6833,"lon":7.48333},"name":"Hirz-Maulsbach"},{"country":"DE","id":2903494,"coord":{"lat":50.683331,"lon":7.48333},"name":"Hirz-Maulsbach"},{"country":"DE","id":2903625,"coord":{"lat":49.448059,"lon":8.89806},"name":"Hirschhorn"},{"country":"DE","id":2903658,"coord":{"lat":50.94437,"lon":14.8851},"name":"Hirschfelde"},{"country":"DE","id":6547406,"coord":{"lat":51.383301,"lon":13.6167},"name":"Hirschfeld"},{"country":"DE","id":2903659,"coord":{"lat":51.383331,"lon":13.61667},"name":"Hirschfeld"},{"country":"DE","id":6550497,"coord":{"lat":50.950001,"lon":12.1833},"name":"Hirschfeld"},{"country":"DE","id":2903662,"coord":{"lat":50.950001,"lon":12.18333},"name":"Hirschfeld"},{"country":"DE","id":6556618,"coord":{"lat":49.549999,"lon":11.5333},"name":"Hirschbach"},{"country":"DE","id":2903794,"coord":{"lat":49.549999,"lon":11.53333},"name":"Hirschbach"},{"country":"DE","id":6555107,"coord":{"lat":49.583302,"lon":7.55},"name":"Hinzweiler"},{"country":"DE","id":2903860,"coord":{"lat":49.583328,"lon":7.55},"name":"Hinzweiler"},{"country":"DE","id":6554637,"coord":{"lat":50.233299,"lon":6.75},"name":"Hinterweiler"},{"country":"DE","id":2903903,"coord":{"lat":50.23333,"lon":6.75},"name":"Hinterweiler"},{"country":"DE","id":6555330,"coord":{"lat":49.195648,"lon":7.75419},"name":"Hinterweidenthal"},{"country":"DE","id":2903908,"coord":{"lat":49.200001,"lon":7.75},"name":"Hinterweidenthal"},{"country":"DE","id":6553602,"coord":{"lat":49.733299,"lon":7.35},"name":"Hintertiefenbach"},{"country":"DE","id":2903926,"coord":{"lat":49.73333,"lon":7.35},"name":"Hintertiefenbach"},{"country":"DE","id":6558472,"coord":{"lat":53.4221,"lon":7.19717},"name":"Hinte"},{"country":"DE","id":2904397,"coord":{"lat":53.416672,"lon":7.18333},"name":"Hinte"},{"country":"DE","id":6548060,"coord":{"lat":53.616699,"lon":12.6667},"name":"Hinrichshagen"},{"country":"DE","id":2904418,"coord":{"lat":53.616669,"lon":12.66667},"name":"Hinrichshagen"},{"country":"DE","id":6554038,"coord":{"lat":50.211948,"lon":7.76587},"name":"Himmighofen"},{"country":"DE","id":2904481,"coord":{"lat":50.212009,"lon":7.76553},"name":"Himmighofen"},{"country":"DE","id":6552822,"coord":{"lat":53.099998,"lon":10.7333},"name":"Himbergen"},{"country":"DE","id":2904574,"coord":{"lat":53.094181,"lon":10.72909},"name":"Himbergen"},{"country":"DE","id":6551335,"coord":{"lat":54.216702,"lon":8.88333},"name":"Hillgroven"},{"country":"DE","id":2904687,"coord":{"lat":54.216671,"lon":8.88333},"name":"Hillgroven"},{"country":"DE","id":2904691,"coord":{"lat":50.299999,"lon":6.66667},"name":"Hillesheim"},{"country":"DE","id":6552307,"coord":{"lat":52.416698,"lon":10.4},"name":"Hillerse"},{"country":"DE","id":2904697,"coord":{"lat":52.416672,"lon":10.4},"name":"Hillerse"},{"country":"DE","id":6553404,"coord":{"lat":50.733299,"lon":7.65},"name":"Hilgenroth"},{"country":"DE","id":2904752,"coord":{"lat":50.73333,"lon":7.65},"name":"Hilgenroth"},{"country":"DE","id":2904804,"coord":{"lat":50.425529,"lon":10.73184},"name":"Hildburghausen"},{"country":"DE","id":6548519,"coord":{"lat":50.900002,"lon":13.4},"name":"Hilbersdorf"},{"country":"DE","id":2904815,"coord":{"lat":50.900002,"lon":13.4},"name":"Hilbersdorf"},{"country":"DE","id":6550496,"coord":{"lat":50.8167,"lon":12.15},"name":"Hilbersdorf"},{"country":"DE","id":2904817,"coord":{"lat":50.816669,"lon":12.15},"name":"Hilbersdorf"},{"country":"DE","id":2904906,"coord":{"lat":52.15678,"lon":9.81265},"name":"Heyersum"},{"country":"DE","id":6559305,"coord":{"lat":50.893028,"lon":12.30895},"name":"Heyersdorf"},{"country":"DE","id":2904907,"coord":{"lat":50.849998,"lon":12.35},"name":"Heyersdorf"},{"country":"DE","id":6549921,"coord":{"lat":51.166698,"lon":10.3167},"name":"Heyerode"},{"country":"DE","id":2904909,"coord":{"lat":51.166672,"lon":10.31667},"name":"Heyerode"},{"country":"DE","id":6552510,"coord":{"lat":52.016701,"lon":9.51667},"name":"Heyen"},{"country":"DE","id":2904915,"coord":{"lat":52.00951,"lon":9.50369},"name":"Heyen"},{"country":"DE","id":6547431,"coord":{"lat":50.700001,"lon":7.75},"name":"Heuzert"},{"country":"DE","id":2904962,"coord":{"lat":50.69912,"lon":7.75978},"name":"Heuzert"},{"country":"DE","id":6555746,"coord":{"lat":48.049999,"lon":7.9},"name":"Heuweiler"},{"country":"DE","id":2904969,"coord":{"lat":48.049999,"lon":7.9},"name":"Heuweiler"},{"country":"DE","id":2905058,"coord":{"lat":51.900002,"lon":10.85},"name":"Heudeber"},{"country":"DE","id":6555584,"coord":{"lat":48.85202,"lon":9.94398},"name":"Heuchlingen"},{"country":"DE","id":2905062,"coord":{"lat":48.85215,"lon":9.94391},"name":"Heuchlingen"},{"country":"DE","id":6550244,"coord":{"lat":50.916698,"lon":11.3},"name":"Hetschburg"},{"country":"DE","id":2905239,"coord":{"lat":50.91288,"lon":11.30013},"name":"Hetschburg"},{"country":"DE","id":6553692,"coord":{"lat":50.049999,"lon":7.28333},"name":"Hesweiler"},{"country":"DE","id":2905251,"coord":{"lat":50.049999,"lon":7.28333},"name":"Hesweiler"},{"country":"DE","id":6548358,"coord":{"lat":53.533298,"lon":11.9333},"name":"Herzberg"},{"country":"DE","id":2905501,"coord":{"lat":53.53072,"lon":11.92806},"name":"Herzberg"},{"country":"DE","id":6555106,"coord":{"lat":49.483299,"lon":7.35},"name":"Herschweiler-Pettersheim"},{"country":"DE","id":2905581,"coord":{"lat":49.48333,"lon":7.35},"name":"Herschweiler-Pettersheim"},{"country":"DE","id":6553138,"coord":{"lat":51.192299,"lon":7.8063},"name":"Herscheid"},{"country":"DE","id":2905587,"coord":{"lat":51.179008,"lon":7.74355},"name":"Herscheid"},{"country":"DE","id":2905591,"coord":{"lat":50.711681,"lon":11.53736},"name":"Herschdorf"},{"country":"DE","id":6550209,"coord":{"lat":50.616699,"lon":11.05},"name":"Herschdorf"},{"country":"DE","id":2905592,"coord":{"lat":50.616669,"lon":11.05},"name":"Herschdorf"},{"country":"DE","id":6554140,"coord":{"lat":50.583302,"lon":7.73333},"name":"Herschbach"},{"country":"DE","id":2905597,"coord":{"lat":50.583328,"lon":7.73333},"name":"Herschbach"},{"country":"DE","id":6550137,"coord":{"lat":51.216702,"lon":11},"name":"Herrnschwende"},{"country":"DE","id":2905602,"coord":{"lat":51.216671,"lon":11},"name":"Herrnschwende"},{"country":"DE","id":6556492,"coord":{"lat":48.799999,"lon":12.0667},"name":"Herrngiersdorf"},{"country":"DE","id":2905652,"coord":{"lat":48.799999,"lon":12.06667},"name":"Herrngiersdorf"},{"country":"DE","id":6549841,"coord":{"lat":51.549999,"lon":10.8667},"name":"Herrmannsacker"},{"country":"DE","id":2905682,"coord":{"lat":51.549999,"lon":10.86667},"name":"Herrmannsacker"},{"country":"DE","id":6555911,"coord":{"lat":47.666698,"lon":8},"name":"Herrischried"},{"country":"DE","id":2905693,"coord":{"lat":47.666672,"lon":8},"name":"Herrischried"},{"country":"DE","id":2905706,"coord":{"lat":49.23333,"lon":10.51667},"name":"Herrieden"},{"country":"DE","id":6553754,"coord":{"lat":50.366699,"lon":7.01667},"name":"Herresbach"},{"country":"DE","id":2905721,"coord":{"lat":50.366669,"lon":7.01667},"name":"Herresbach"},{"country":"DE","id":6550083,"coord":{"lat":50.833302,"lon":10.6833},"name":"Herrenhof"},{"country":"DE","id":2905798,"coord":{"lat":50.833328,"lon":10.68333},"name":"Herrenhof"},{"country":"DE","id":2905905,"coord":{"lat":52.187401,"lon":11.47556},"name":"Hermsdorf"},{"country":"DE","id":6547630,"coord":{"lat":51.416698,"lon":13.9},"name":"Hermsdorf"},{"country":"DE","id":2905907,"coord":{"lat":51.405472,"lon":13.89367},"name":"Hermsdorf"},{"country":"DE","id":2905915,"coord":{"lat":50.923382,"lon":13.7348},"name":"Hermsdorf"},{"country":"DE","id":2906087,"coord":{"lat":51.447048,"lon":10.87612},"name":"Heringen"},{"country":"DE","id":6549078,"coord":{"lat":51.533298,"lon":11.4833},"name":"Hergisdorf"},{"country":"DE","id":2906098,"coord":{"lat":51.533329,"lon":11.48333},"name":"Hergisdorf"},{"country":"DE","id":6557205,"coord":{"lat":47.650002,"lon":9.83333},"name":"Hergatz"},{"country":"DE","id":2906115,"coord":{"lat":47.650002,"lon":9.83333},"name":"Hergatz"},{"country":"DE","id":6554437,"coord":{"lat":50,"lon":6.21667},"name":"Herbstm\u00fchle"},{"country":"DE","id":2906171,"coord":{"lat":50,"lon":6.21667},"name":"Herbstmuhle"},{"country":"DE","id":6553599,"coord":{"lat":49.766701,"lon":7.3},"name":"Herborn"},{"country":"DE","id":2906200,"coord":{"lat":49.76667,"lon":7.3},"name":"Herborn"},{"country":"DE","id":2906205,"coord":{"lat":48.218842,"lon":7.77746},"name":"Herbolzheim"},{"country":"DE","id":6551334,"coord":{"lat":54.283501,"lon":9.172},"name":"Hennstedt"},{"country":"DE","id":2906316,"coord":{"lat":54.283329,"lon":9.16667},"name":"Hennstedt"},{"country":"DE","id":6555481,"coord":{"lat":48.864601,"lon":9.03755},"name":"Hemmingen"},{"country":"DE","id":2906531,"coord":{"lat":48.866669,"lon":9.03333},"name":"Hemmingen"},{"country":"DE","id":6553402,"coord":{"lat":50.700001,"lon":7.58333},"name":"Hemmelzen"},{"country":"DE","id":2906560,"coord":{"lat":50.693409,"lon":7.58151},"name":"Hemmelzen"},{"country":"DE","id":6551332,"coord":{"lat":54.283298,"lon":9.01667},"name":"Hemme"},{"country":"DE","id":2906572,"coord":{"lat":54.283329,"lon":9.01667},"name":"Hemme"},{"country":"DE","id":6547414,"coord":{"lat":52.303501,"lon":9.12521},"name":"Helpsen"},{"country":"DE","id":2906660,"coord":{"lat":52.31131,"lon":9.11676},"name":"Helpsen"},{"country":"DE","id":2906680,"coord":{"lat":49.761108,"lon":9.71},"name":"Helmstadt"},{"country":"DE","id":6553401,"coord":{"lat":50.733299,"lon":7.73333},"name":"Helmeroth"},{"country":"DE","id":2906730,"coord":{"lat":50.73333,"lon":7.73333},"name":"Helmeroth"},{"country":"DE","id":6553400,"coord":{"lat":50.700001,"lon":7.61667},"name":"Helmenzen"},{"country":"DE","id":2906738,"coord":{"lat":50.700001,"lon":7.61667},"name":"Helmenzen"},{"country":"DE","id":2906744,"coord":{"lat":50.235569,"lon":11.71589},"name":"Helmbrechts"},{"country":"DE","id":6551331,"coord":{"lat":54.200001,"lon":8.85},