[{"country":"TR","id":315953,"coord":{"lat":38.257221,"lon":40.082779},"name":"Egil"},{"country":"TR","id":315972,"coord":{"lat":38.771469,"lon":35.572498},"name":"Kocasinan"},{"country":"TR","id":316028,"coord":{"lat":37.35667,"lon":42.089169},"name":"Duzova"},{"country":"TR","id":316096,"coord":{"lat":37.09333,"lon":41.308609},"name":"Duruca"},{"country":"TR","id":316165,"coord":{"lat":38.866669,"lon":30},"name":"Dumlupinar"},{"country":"TR","id":316223,"coord":{"lat":37.451302,"lon":36.023491},"name":"Sumbas"},{"country":"TR","id":316270,"coord":{"lat":36.805,"lon":38.853062},"name":"Dorumali"},{"country":"TR","id":316330,"coord":{"lat":39.799999,"lon":29.616671},"name":"Domanic Kozluca"},{"country":"TR","id":316431,"coord":{"lat":38.31184,"lon":39.038189},"name":"Doganyol"},{"country":"TR","id":316466,"coord":{"lat":37.752769,"lon":42.798012},"name":"Dogankoy"},{"country":"TR","id":316473,"coord":{"lat":37.962372,"lon":41.227291},"name":"Dogankavak"},{"country":"TR","id":316475,"coord":{"lat":38.146301,"lon":31.676479},"name":"Doganhisar"},{"country":"TR","id":316497,"coord":{"lat":37.808331,"lon":42.34},"name":"Doganca"},{"country":"TR","id":316544,"coord":{"lat":39.370998,"lon":38.113701},"name":"Divrigi"},{"country":"TR","id":316726,"coord":{"lat":39.070999,"lon":26.890169},"name":"Dikili"},{"country":"TR","id":316746,"coord":{"lat":38.375149,"lon":40.072189},"name":"Dicle"},{"country":"TR","id":316748,"coord":{"lat":37.293331,"lon":42.066391},"name":"Dicle"},{"country":"TR","id":316877,"coord":{"lat":38.375099,"lon":34.734192},"name":"Derinkuyu"},{"country":"TR","id":316909,"coord":{"lat":37.424999,"lon":40.862659},"name":"Dereyani"},{"country":"TR","id":317049,"coord":{"lat":37.391788,"lon":31.50918},"name":"Derebucak"},{"country":"TR","id":317095,"coord":{"lat":38.014221,"lon":32.016392},"name":"Derbent"},{"country":"TR","id":317133,"coord":{"lat":37.917782,"lon":41.14917},"name":"Demiryol"},{"country":"TR","id":317332,"coord":{"lat":39.953709,"lon":34.025871},"name":"Delice"},{"country":"TR","id":317496,"coord":{"lat":37.91861,"lon":29.860559},"name":"Dazkiri"},{"country":"TR","id":317762,"coord":{"lat":37.665279,"lon":42.14278},"name":"Serhatta"},{"country":"TR","id":317837,"coord":{"lat":38.212502,"lon":39.285561},"name":"Cungus"},{"country":"TR","id":317953,"coord":{"lat":37.248058,"lon":43.613609},"name":"Cukurca"},{"country":"TR","id":317970,"coord":{"lat":39.106899,"lon":35.69994},"name":"Ozvatan"},{"country":"TR","id":318227,"coord":{"lat":38.701389,"lon":30.78278},"name":"Cobanlar"},{"country":"TR","id":318264,"coord":{"lat":38.301392,"lon":29.738609},"name":"Civril"},{"country":"TR","id":318396,"coord":{"lat":37.384441,"lon":40.860001},"name":"Cinaralti"},{"country":"TR","id":318404,"coord":{"lat":37.723331,"lon":40.416111},"name":"Cinar"},{"country":"TR","id":318496,"coord":{"lat":39.024021,"lon":33.806259},"name":"Evren"},{"country":"TR","id":318506,"coord":{"lat":38.660721,"lon":32.92437},"name":"Cihanbeyli"},{"country":"TR","id":318526,"coord":{"lat":37.159439,"lon":41.741669},"name":"Serkan"},{"country":"TR","id":318567,"coord":{"lat":37.180279,"lon":42.421108},"name":"Ciftlikkoy"},{"country":"TR","id":318580,"coord":{"lat":38.75,"lon":35.450001},"name":"Melikgazi"},{"country":"TR","id":318581,"coord":{"lat":38.1758,"lon":34.485352},"name":"Ciftlik"},{"country":"TR","id":318603,"coord":{"lat":39.38306,"lon":31.039169},"name":"Cifteler"},{"country":"TR","id":318651,"coord":{"lat":39.606941,"lon":34.408611},"name":"Mecidiye"},{"country":"TR","id":318679,"coord":{"lat":37.840832,"lon":41.273331},"name":"Cevrimova"},{"country":"TR","id":318879,"coord":{"lat":37.529469,"lon":30.48028},"name":"Celtikci"},{"country":"TR","id":318885,"coord":{"lat":39.024441,"lon":31.79056},"name":"Celtik"},{"country":"TR","id":318904,"coord":{"lat":38.034168,"lon":38.243328},"name":"Celikhan"},{"country":"TR","id":318925,"coord":{"lat":39.46418,"lon":33.524101},"name":"Celebi"},{"country":"TR","id":319047,"coord":{"lat":39.804379,"lon":40.037239},"name":"Mans"},{"country":"TR","id":319069,"coord":{"lat":39.30278,"lon":35.64389},"name":"Cayiralan"},{"country":"TR","id":319118,"coord":{"lat":37.498611,"lon":41.244171},"name":"Cavuslu"},{"country":"TR","id":319163,"coord":{"lat":37.154999,"lon":29.69389},"name":"Cavdir"},{"country":"TR","id":319345,"coord":{"lat":38.00845,"lon":43.065022},"name":"Catak"},{"country":"TR","id":319357,"coord":{"lat":39.609539,"lon":40.98024},"name":"Cat"},{"country":"TR","id":319472,"coord":{"lat":39.244461,"lon":35.513962},"name":"Candir"},{"country":"TR","id":319487,"coord":{"lat":38.935032,"lon":26.934},"name":"Candarli"},{"country":"TR","id":319670,"coord":{"lat":37.76667,"lon":30.799999},"name":"Anamas"},{"country":"TR","id":319707,"coord":{"lat":37.832218,"lon":34.981392},"name":"Camardi"},{"country":"TR","id":319761,"coord":{"lat":37.367111,"lon":41.187561},"name":"Calpinar"},{"country":"TR","id":319787,"coord":{"lat":37.297218,"lon":42.643608},"name":"Caliskan"},{"country":"TR","id":319823,"coord":{"lat":39.143162,"lon":43.910679},"name":"Caldiran"},{"country":"TR","id":320177,"coord":{"lat":37.405418,"lon":29.13727},"name":"Nikfer"},{"country":"TR","id":320201,"coord":{"lat":37.272049,"lon":41.035149},"name":"Cinatamiho"},{"country":"TR","id":320374,"coord":{"lat":37.963959,"lon":28.742701},"name":"Buharkent"},{"country":"TR","id":320406,"coord":{"lat":38.846298,"lon":35.860321},"name":"Bunyan"},{"country":"TR","id":320437,"coord":{"lat":38.044998,"lon":28.830561},"name":"Buldan"},{"country":"TR","id":320562,"coord":{"lat":39.269718,"lon":34.261108},"name":"Boztepe"},{"country":"TR","id":320606,"coord":{"lat":37.824169,"lon":29.60972},"name":"Bozkurt"},{"country":"TR","id":320635,"coord":{"lat":37.981251,"lon":41.412209},"name":"Taliban"},{"country":"TR","id":320647,"coord":{"lat":37.671341,"lon":28.31395},"name":"Bozdogan"},{"country":"TR","id":320700,"coord":{"lat":39.834999,"lon":26.069719},"name":"Bozcaada"},{"country":"TR","id":320745,"coord":{"lat":37.328941,"lon":42.26482},"name":"Bozalan"},{"country":"TR","id":320835,"coord":{"lat":37.18,"lon":42.330002},"name":"Bostanci"},{"country":"TR","id":320942,"coord":{"lat":37.529171,"lon":43.017578},"name":"Bogazoren"},{"country":"TR","id":320946,"coord":{"lat":39.188782,"lon":35.245369},"name":"Bogazliyan"},{"country":"TR","id":321088,"coord":{"lat":37.84798,"lon":41.216358},"name":"Binatli"},{"country":"TR","id":321184,"coord":{"lat":37.569439,"lon":43.16806},"name":"Beytussebap"},{"country":"TR","id":321219,"coord":{"lat":39.686939,"lon":31.205561},"name":"Beylikova"},{"country":"TR","id":321327,"coord":{"lat":37.843891,"lon":41.604439},"name":"Bespinar"},{"country":"TR","id":321637,"coord":{"lat":38.231049,"lon":29.419701},"name":"Bekilli"},{"country":"TR","id":321658,"coord":{"lat":39.493439,"lon":26.33316},"name":"Behram"},{"country":"TR","id":321673,"coord":{"lat":37.975559,"lon":42.644169},"name":"Begendik"},{"country":"TR","id":321733,"coord":{"lat":39.80862,"lon":26.609831},"name":"Bayramic"},{"country":"TR","id":321750,"coord":{"lat":38.162659,"lon":41.783329},"name":"Baykan"},{"country":"TR","id":321814,"coord":{"lat":38.983059,"lon":30.924721},"name":"Bayat"},{"country":"TR","id":321887,"coord":{"lat":37.897221,"lon":30.011669},"name":"Basmakci"},{"country":"TR","id":321935,"coord":{"lat":37.568241,"lon":40.895802},"name":"Baskavak"},{"country":"TR","id":321940,"coord":{"lat":38.045261,"lon":44.017181},"name":"Baskale"},{"country":"TR","id":322002,"coord":{"lat":37.480282,"lon":41.395},"name":"Baristepe"},{"country":"TR","id":322060,"coord":{"lat":39.748611,"lon":27.57889},"name":"Balya"},{"country":"TR","id":322076,"coord":{"lat":37.868328,"lon":41.054722},"name":"Balpinar"},{"country":"TR","id":322137,"coord":{"lat":39.914108,"lon":33.723331},"name":"Baliseyh"},{"country":"TR","id":322240,"coord":{"lat":39.554218,"lon":33.12344},"name":"Bala"},{"country":"TR","id":322250,"coord":{"lat":37.97694,"lon":29.60861},"name":"Baklan"},{"country":"TR","id":322312,"coord":{"lat":39.800171,"lon":33.437012},"name":"Bahsili"},{"country":"TR","id":322324,"coord":{"lat":38.12534,"lon":42.80674},"name":"Bahcesaray"},{"country":"TR","id":322461,"coord":{"lat":37.527222,"lon":40.685001},"name":"Baglica"},{"country":"TR","id":322462,"coord":{"lat":37.433331,"lon":42.77417},"name":"Baglica"},{"country":"TR","id":322508,"coord":{"lat":37.709171,"lon":41.916111},"name":"Lodi"},{"country":"TR","id":322618,"coord":{"lat":37.808849,"lon":28.878771},"name":"Babadag"},{"country":"TR","id":322692,"coord":{"lat":39.601109,"lon":26.40472},"name":"Ayvacik"},{"country":"TR","id":322729,"coord":{"lat":37.361271,"lon":33.688301},"name":"Ayranci"},{"country":"TR","id":322810,"coord":{"lat":37.949108,"lon":42.0121},"name":"Aydinlar"},{"country":"TR","id":322813,"coord":{"lat":37.89222,"lon":41.162498},"name":"Aydinkonak"},{"country":"TR","id":322817,"coord":{"lat":37.096939,"lon":31.599171},"name":"Ibradi"},{"country":"TR","id":322826,"coord":{"lat":36.1437,"lon":33.32016},"name":"Aydincik"},{"country":"TR","id":322887,"coord":{"lat":36.616009,"lon":31.780621},"name":"Avsallar"},{"country":"TR","id":323039,"coord":{"lat":37.950829,"lon":30.638611},"name":"Atabey"},{"country":"TR","id":323082,"coord":{"lat":39.215809,"lon":29.8699},"name":"Aslanapa"},{"country":"TR","id":323095,"coord":{"lat":39.92054,"lon":40.695202},"name":"Askale"},{"country":"TR","id":323251,"coord":{"lat":38.416672,"lon":38.76667},"name":"Kale"},{"country":"TR","id":323457,"coord":{"lat":36.81472,"lon":38.91917},"name":"Asagibegdes"},{"country":"TR","id":323653,"coord":{"lat":38.563889,"lon":40.13472},"name":"Aricak"},{"country":"TR","id":323660,"coord":{"lat":38.769951,"lon":38.271198},"name":"Arguvan"},{"country":"TR","id":323716,"coord":{"lat":36.974388,"lon":35.359161},"name":"Yuregir"},{"country":"TR","id":323721,"coord":{"lat":39.041168,"lon":38.495159},"name":"Arapgir"},{"country":"TR","id":323733,"coord":{"lat":37.439281,"lon":40.746559},"name":"Aran"},{"country":"TR","id":323736,"coord":{"lat":37.830002,"lon":40.676392},"name":"Aralik"},{"country":"TR","id":323750,"coord":{"lat":37.42667,"lon":37.688999},"name":"Araban"},{"country":"TR","id":323751,"coord":{"lat":40.006401,"lon":36.220692},"name":"Yesilyurt"},{"country":"TR","id":323797,"coord":{"lat":37.577572,"lon":36.354919},"name":"Andirin"},{"country":"TR","id":323806,"coord":{"lat":37.355282,"lon":43.26556},"name":"Andac"},{"country":"TR","id":323854,"coord":{"lat":37.853161,"lon":40.52776},"name":"Ambar"},{"country":"TR","id":323886,"coord":{"lat":39.272491,"lon":36.75098},"name":"Altinyayla"},{"country":"TR","id":323887,"coord":{"lat":36.997219,"lon":29.54579},"name":"Altinyayla"},{"country":"TR","id":323906,"coord":{"lat":36.115002,"lon":36.248169},"name":"Fatikli"},{"country":"TR","id":323921,"coord":{"lat":38.264252,"lon":41.061119},"name":"Altinkum"},{"country":"TR","id":323927,"coord":{"lat":37.991589,"lon":34.373341},"name":"Altinhisar"},{"country":"TR","id":323930,"coord":{"lat":38.307781,"lon":32.86861},"name":"Altinekin"},{"country":"TR","id":323963,"coord":{"lat":39.769032,"lon":30.9606},"name":"Alpu"},{"country":"TR","id":324126,"coord":{"lat":38.030121,"lon":39.033249},"name":"Gerger"},{"country":"TR","id":324251,"coord":{"lat":37.159168,"lon":41.788891},"name":"Alakamis"},{"country":"TR","id":324294,"coord":{"lat":38.282459,"lon":26.37459},"name":"Alacati"},{"country":"TR","id":324315,"coord":{"lat":39.440338,"lon":39.877731},"name":"Turluk"},{"country":"TR","id":324470,"coord":{"lat":37.798889,"lon":31.07111},"name":"Aksu"},{"country":"TR","id":324486,"coord":{"lat":37.048611,"lon":31.790001},"name":"Akseki"},{"country":"TR","id":324531,"coord":{"lat":39.45005,"lon":33.96484},"name":"Akpinar"},{"country":"TR","id":324577,"coord":{"lat":37.453449,"lon":32.370701},"name":"Akoren"},{"country":"TR","id":324630,"coord":{"lat":37.95694,"lon":29.07814},"name":"Akkoy"},{"country":"TR","id":324643,"coord":{"lat":39.00222,"lon":36.173809},"name":"Akkisla"},{"country":"TR","id":324927,"coord":{"lat":39.62278,"lon":34.095829},"name":"Akcakent"},{"country":"TR","id":324953,"coord":{"lat":38.34528,"lon":37.96722},"name":"Akcadag"},{"country":"TR","id":325028,"coord":{"lat":37.235489,"lon":41.06068},"name":"Akarsu"},{"country":"TR","id":325066,"coord":{"lat":38.5196,"lon":27.93865},"name":"Ahmetli"},{"country":"TR","id":325109,"coord":{"lat":37.238739,"lon":32.118809},"name":"Ahirli"},{"country":"TR","id":325171,"coord":{"lat":37.649441,"lon":30.53417},"name":"Aglasun"},{"country":"TR","id":325183,"coord":{"lat":38.94519,"lon":38.711979},"name":"Agin"},{"country":"TR","id":325269,"coord":{"lat":38.87484,"lon":33.91674},"name":"Agacoren"},{"country":"TR","id":325278,"coord":{"lat":38.39576,"lon":34.34576},"name":"Gulagac"},{"country":"TR","id":325420,"coord":{"lat":37.457298,"lon":41.29686},"name":"Acirli"},{"country":"TR","id":325449,"coord":{"lat":38.550282,"lon":34.509171},"name":"Dobada"},{"country":"TR","id":392051,"coord":{"lat":37.237782,"lon":42.570278},"name":"Cardakli"},{"country":"TR","id":392059,"coord":{"lat":37.41333,"lon":42.839439},"name":"Balli"},{"country":"TR","id":392066,"coord":{"lat":37.372921,"lon":43.075859},"name":"Yemisli"},{"country":"TR","id":392071,"coord":{"lat":37.31572,"lon":43.465988},"name":"Karsani"},{"country":"TR","id":415534,"coord":{"lat":37.177299,"lon":36.74194},"name":"Nurdagi"},{"country":"TR","id":436138,"coord":{"lat":36.985279,"lon":37.507221},"name":"Yesildere"},{"country":"TR","id":436324,"coord":{"lat":36.90583,"lon":38.346111},"name":"Kucukkendirci"},{"country":"TR","id":436399,"coord":{"lat":36.97139,"lon":38.942219},"name":"Yamacalti"},{"country":"TR","id":436443,"coord":{"lat":36.787781,"lon":38.914719},"name":"Sevimli"},{"country":"TR","id":436507,"coord":{"lat":36.949001,"lon":36.19231},"name":"Mahmutlar"},{"country":"TR","id":437241,"coord":{"lat":36.778809,"lon":36.55682},"name":"Asagikarafakili"},{"country":"TR","id":437736,"coord":{"lat":36.530258,"lon":36.183552},"name":"Cirtiman"},{"country":"TR","id":438046,"coord":{"lat":36.26556,"lon":36.151669},"name":"Kuzeytepe"},{"country":"TR","id":438056,"coord":{"lat":36.245972,"lon":36.245079},"name":"Kastal"},{"country":"TR","id":438084,"coord":{"lat":36.223629,"lon":36.258759},"name":"Acikdere"},{"country":"TR","id":438096,"coord":{"lat":36.214458,"lon":36.070782},"name":"Toygarli"},{"country":"TR","id":438116,"coord":{"lat":36.154869,"lon":36.138699},"name":"Gumusgoze"},{"country":"TR","id":438119,"coord":{"lat":36.162781,"lon":36.159721},"name":"Dursunlu"},{"country":"TR","id":438122,"coord":{"lat":36.183922,"lon":36.136959},"name":"Asagiokcular"},{"country":"TR","id":438129,"coord":{"lat":36.167969,"lon":36.34021},"name":"Boynuyogun"},{"country":"TR","id":438158,"coord":{"lat":36.148319,"lon":36.024719},"name":"Uzunbag"},{"country":"TR","id":438161,"coord":{"lat":36.1101,"lon":36.08939},"name":"Buyukcat"},{"country":"TR","id":438162,"coord":{"lat":36.114891,"lon":36.10297},"name":"Baliklidere"},{"country":"TR","id":438184,"coord":{"lat":36.078171,"lon":36.384048},"name":"Hacipasa"},{"country":"TR","id":438206,"coord":{"lat":36.069,"lon":36.087059},"name":"Dagduzu"},{"country":"TR","id":438234,"coord":{"lat":36.149071,"lon":36.136169},"name":"Samankaya"},{"country":"TR","id":438236,"coord":{"lat":36.314442,"lon":36.199169},"name":"Anayazi"},{"country":"TR","id":438237,"coord":{"lat":36.341648,"lon":36.414001},"name":"Karasuleymanli"},{"country":"TR","id":438241,"coord":{"lat":36.27771,"lon":36.199211},"name":"Buyukdalyan"},{"country":"TR","id":438243,"coord":{"lat":36.235062,"lon":36.11615},"name":"Gunyazi"},{"country":"TR","id":438245,"coord":{"lat":36.158531,"lon":36.2286},"name":"Tepehan"},{"country":"TR","id":438247,"coord":{"lat":36.089439,"lon":36.299721},"name":"Oymakli"},{"country":"TR","id":438392,"coord":{"lat":36.351341,"lon":36.419552},"name":"Uzunkavak"},{"country":"TR","id":438399,"coord":{"lat":36.596161,"lon":36.234798},"name":"Guzelkoy"},{"country":"TR","id":438909,"coord":{"lat":37.481468,"lon":43.11211},"name":"Basaran"},{"country":"TR","id":438967,"coord":{"lat":37.255501,"lon":42.335178},"name":"Doruklu"},{"country":"TR","id":439098,"coord":{"lat":36.724998,"lon":39.308609},"name":"Akdiken"},{"country":"TR","id":439099,"coord":{"lat":36.735828,"lon":39.39389},"name":"Yalintas"},{"country":"TR","id":439101,"coord":{"lat":36.753609,"lon":39.450001},"name":"Pekmezli"},{"country":"TR","id":439119,"coord":{"lat":36.822781,"lon":39.34333},"name":"Koyunluca"},{"country":"TR","id":439215,"coord":{"lat":36.963058,"lon":40.131939},"name":"Yukari Tasyalak"},{"country":"TR","id":439221,"coord":{"lat":36.994171,"lon":40.126389},"name":"Isiklar"},{"country":"TR","id":439228,"coord":{"lat":36.944721,"lon":40.237499},"name":"Ciplak"},{"country":"TR","id":447049,"coord":{"lat":36.753368,"lon":32.68018},"name":"Basyayla"},{"country":"TR","id":737119,"coord":{"lat":40.688148,"lon":29.967381},"name":"Yuvacik"},{"country":"TR","id":737140,"coord":{"lat":40.820351,"lon":41.5443},"name":"Yusufeli"},{"country":"TR","id":737521,"coord":{"lat":40.959831,"lon":31.44356},"name":"Yigilca"},{"country":"TR","id":737529,"coord":{"lat":40.327862,"lon":36.35144},"name":"Yesilyurt"},{"country":"TR","id":737614,"coord":{"lat":40.178329,"lon":30.52},"name":"Yenipazar"},{"country":"TR","id":737660,"coord":{"lat":40.535679,"lon":29.35364},"name":"Yenikoy"},{"country":"TR","id":737709,"coord":{"lat":40.08778,"lon":29.42194},"name":"Yenicekoy"},{"country":"TR","id":737723,"coord":{"lat":41.199619,"lon":32.331329},"name":"Yenice"},{"country":"TR","id":737756,"coord":{"lat":40.771149,"lon":32.033749},"name":"Yenicaga"},{"country":"TR","id":737980,"coord":{"lat":40.757851,"lon":33.778191},"name":"Yaprakli"},{"country":"TR","id":738055,"coord":{"lat":40.604721,"lon":29.56389},"name":"Yalakdere"},{"country":"TR","id":738085,"coord":{"lat":41.6325,"lon":35.528889},"name":"Yakakent"},{"country":"TR","id":738123,"coord":{"lat":40.860001,"lon":38.624439},"name":"Yaglidere"},{"country":"TR","id":738124,"coord":{"lat":40.54501,"lon":39.53167},"name":"Yaglidere"},{"country":"TR","id":738276,"coord":{"lat":40.53014,"lon":41.558441},"name":"Uzundere"},{"country":"TR","id":738372,"coord":{"lat":40.414719,"lon":29.18306},"name":"Umurbey"},{"country":"TR","id":738444,"coord":{"lat":40.872139,"lon":37.758759},"name":"Ulubey"},{"country":"TR","id":738457,"coord":{"lat":40.70583,"lon":29.696079},"name":"Ulasli"},{"country":"TR","id":738468,"coord":{"lat":40.44632,"lon":34.452591},"name":"Ugurludag"},{"country":"TR","id":738541,"coord":{"lat":40.049568,"lon":43.661839},"name":"Tuzluca"},{"country":"TR","id":738583,"coord":{"lat":40.96648,"lon":38.061008},"name":"Gulyali"},{"country":"TR","id":738614,"coord":{"lat":41.947639,"lon":34.338612},"name":"Turkeli"},{"country":"TR","id":738674,"coord":{"lat":40.297298,"lon":41.54771},"name":"Tortum"},{"country":"TR","id":738715,"coord":{"lat":40.88625,"lon":39.292381},"name":"Tonya"},{"country":"TR","id":738962,"coord":{"lat":40.81876,"lon":29.51136},"name":"Tavsanli"},{"country":"TR","id":738965,"coord":{"lat":40.770828,"lon":29.571939},"name":"Tavsancil"},{"country":"TR","id":739067,"coord":{"lat":40.673611,"lon":29.391109},"name":"Taskopru"},{"country":"TR","id":739161,"coord":{"lat":40.525558,"lon":29.739719},"name":"Tacir"},{"country":"TR","id":739201,"coord":{"lat":40.77882,"lon":43.146622},"name":"Susuz"},{"country":"TR","id":739318,"coord":{"lat":40.15733,"lon":33.716},"name":"Sulakyurt"},{"country":"TR","id":739393,"coord":{"lat":40.394798,"lon":29.41559},"name":"Soloz"},{"country":"TR","id":739425,"coord":{"lat":40.905899,"lon":30.47448},"name":"Sogutlu"},{"country":"TR","id":739574,"coord":{"lat":40.189442,"lon":39.126671},"name":"Siran"},{"country":"TR","id":739742,"coord":{"lat":41.620049,"lon":33.718151},"name":"Seydiler"},{"country":"TR","id":739808,"coord":{"lat":41.808899,"lon":33.23135},"name":"Senpazar"},{"country":"TR","id":739838,"coord":{"lat":41.05584,"lon":28.37895},"name":"Selimpasa"},{"country":"TR","id":739917,"coord":{"lat":40.411339,"lon":31.573589},"name":"Seben"},{"country":"TR","id":739950,"coord":{"lat":41.240269,"lon":42.361092},"name":"Savsat"},{"country":"TR","id":740177,"coord":{"lat":41.328651,"lon":34.846859},"name":"Sarayduzu"},{"country":"TR","id":740303,"coord":{"lat":40.941109,"lon":39.19556},"name":"Salpazari"},{"country":"TR","id":740462,"coord":{"lat":40.482491,"lon":33.28352},"name":"Sabanozu"},{"country":"TR","id":740490,"coord":{"lat":40.391941,"lon":37.337502},"name":"Resadiye"},{"country":"TR","id":740531,"coord":{"lat":41.511108,"lon":42.729172},"name":"Posof"},{"country":"TR","id":740560,"coord":{"lat":40.95314,"lon":38.11784},"name":"Piraziz"},{"country":"TR","id":740561,"coord":{"lat":40.933331,"lon":38.133331},"name":"Nefsipiraziz"},{"country":"TR","id":740570,"coord":{"lat":41.624168,"lon":27.52},"name":"Pinarhisar"},{"country":"TR","id":740581,"coord":{"lat":41.603882,"lon":33.110989},"name":"Pinarbasi"},{"country":"TR","id":740605,"coord":{"lat":41.065559,"lon":37.771389},"name":"Persembe"},{"country":"TR","id":740650,"coord":{"lat":41.348122,"lon":26.92522},"name":"Pehlivankoy"},{"country":"TR","id":740659,"coord":{"lat":40.42083,"lon":40.771042},"name":"Pazaryolu"},{"country":"TR","id":740675,"coord":{"lat":41.179169,"lon":40.884171},"name":"Pazar"},{"country":"TR","id":740677,"coord":{"lat":40.27652,"lon":36.28347},"name":"Pazar"},{"country":"TR","id":740828,"coord":{"lat":41.076611,"lon":32.919941},"name":"Ovacik"},{"country":"TR","id":740940,"coord":{"lat":41.10154,"lon":28.375879},"name":"Ortakoy"},{"country":"TR","id":740941,"coord":{"lat":41.05019,"lon":40.893581},"name":"Hemsin"},{"country":"TR","id":740964,"coord":{"lat":40.273521,"lon":35.251751},"name":"Ortakoy"},{"country":"TR","id":741002,"coord":{"lat":40.624199,"lon":33.10928},"name":"Orta"},{"country":"TR","id":741136,"coord":{"lat":40.82164,"lon":42.12846},"name":"Olur"},{"country":"TR","id":741330,"coord":{"lat":40.346531,"lon":41.87027},"name":"Narman"},{"country":"TR","id":741335,"coord":{"lat":40.38583,"lon":29.48111},"name":"Narlica"},{"country":"TR","id":741484,"coord":{"lat":40.473,"lon":31.20755},"name":"Mudurnu"},{"country":"TR","id":741538,"coord":{"lat":40.026211,"lon":30.57707},"name":"Mihalgazi"},{"country":"TR","id":741570,"coord":{"lat":40.462502,"lon":37.772499},"name":"Mesudiye"},{"country":"TR","id":741628,"coord":{"lat":41.19183,"lon":26.420971},"name":"Meric"},{"country":"TR","id":741644,"coord":{"lat":40.93877,"lon":32.07642},"name":"Mengen"},{"country":"TR","id":741692,"coord":{"lat":40.52,"lon":35.29528},"name":"Mecitozu"},{"country":"TR","id":741725,"coord":{"lat":40.970032,"lon":27.95528},"name":"Marmaraereglisi"},{"country":"TR","id":741730,"coord":{"lat":40.58633,"lon":27.55541},"name":"Marmara"},{"country":"TR","id":741878,"coord":{"lat":40.34417,"lon":26.68556},"name":"Lapseki"},{"country":"TR","id":741884,"coord":{"lat":41.839512,"lon":26.735609},"name":"Lalapasa"},{"country":"TR","id":741892,"coord":{"lat":40.910561,"lon":35.891941},"name":"Ladik"},{"country":"TR","id":742095,"coord":{"lat":41.837811,"lon":32.716209},"name":"Kurucasile"},{"country":"TR","id":742164,"coord":{"lat":40.841011,"lon":33.260281},"name":"Kursunlu"},{"country":"TR","id":742171,"coord":{"lat":40.033611,"lon":29.664721},"name":"Kursunlu"},{"country":"TR","id":742189,"coord":{"lat":41.805779,"lon":33.711609},"name":"Kure"},{"country":"TR","id":742266,"coord":{"lat":41.021069,"lon":28.47715},"name":"Kumburgaz"},{"country":"TR","id":742292,"coord":{"lat":40.725739,"lon":29.9723},"name":"Kullar"},{"country":"TR","id":742348,"coord":{"lat":40.477371,"lon":29.12306},"name":"Kucukkumla"},{"country":"TR","id":742499,"coord":{"lat":40.302502,"lon":37.831108},"name":"Koyulhisar"},{"country":"TR","id":742588,"coord":{"lat":40.753391,"lon":30.030199},"name":"Kosekoy"},{"country":"TR","id":742606,"coord":{"lat":40.209999,"lon":39.651112},"name":"Kose"},{"country":"TR","id":742617,"coord":{"lat":40.65435,"lon":29.162901},"name":"Koru"},{"country":"TR","id":742657,"coord":{"lat":40.734798,"lon":33.51844},"name":"Korgun"},{"country":"TR","id":742686,"coord":{"lat":40.808578,"lon":40.12376},"name":"Koprubasi"},{"country":"TR","id":742794,"coord":{"lat":41.944809,"lon":27.158291},"name":"Kofcaz"},{"country":"TR","id":742875,"coord":{"lat":40.630001,"lon":29.030001},"name":"Kocadere"},{"country":"TR","id":742987,"coord":{"lat":40.345558,"lon":33.986389},"name":"Kizilirmak"},{"country":"TR","id":743230,"coord":{"lat":41.650002,"lon":35.26667},"name":"Dikmen"},{"country":"TR","id":743256,"coord":{"lat":40.09972,"lon":29.04278},"name":"Kirazli"},{"country":"TR","id":743382,"coord":{"lat":40.40778,"lon":31.85194},"name":"Kibriscik"},{"country":"TR","id":743438,"coord":{"lat":40.916389,"lon":38.514439},"name":"Kesap"},{"country":"TR","id":743616,"coord":{"lat":40.682251,"lon":29.53236},"name":"Kaytazdere"},{"country":"TR","id":743851,"coord":{"lat":41.078331,"lon":36.0425},"name":"Kavak"},{"country":"TR","id":744006,"coord":{"lat":41.133732,"lon":34.487438},"name":"Kargi"},{"country":"TR","id":744138,"coord":{"lat":40.753529,"lon":34.702751},"name":"Oguzlar"},{"country":"TR","id":744514,"coord":{"lat":41.402859,"lon":28.383381},"name":"Karacakoy"},{"country":"TR","id":744767,"coord":{"lat":40.92804,"lon":40.441898},"name":"Kalkandere"},{"country":"TR","id":744814,"coord":{"lat":40.097221,"lon":33.408329},"name":"Kalecik"},{"country":"TR","id":744958,"coord":{"lat":40.75,"lon":37.450001},"name":"Kabatas"},{"country":"TR","id":745007,"coord":{"lat":40.859718,"lon":37.889999},"name":"Kabaduz"},{"country":"TR","id":745030,"coord":{"lat":41.011921,"lon":40.361851},"name":"Iyidere"},{"country":"TR","id":745164,"coord":{"lat":40.04932,"lon":30.38521},"name":"Inhisar"},{"country":"TR","id":745362,"coord":{"lat":40.779129,"lon":40.55888},"name":"Ikizdere"},{"country":"TR","id":745364,"coord":{"lat":41.058331,"lon":37.08028},"name":"Ikizce"},{"country":"TR","id":745383,"coord":{"lat":40.690868,"lon":29.834721},"name":"Ihsaniye"},{"country":"TR","id":745387,"coord":{"lat":41.204319,"lon":33.55455},"name":"Ihsangazi"},{"country":"TR","id":745665,"coord":{"lat":41.022678,"lon":40.898338},"name":"Nurluca"},{"country":"TR","id":745693,"coord":{"lat":40.888439,"lon":40.369862},"name":"Hayrat"},{"country":"TR","id":745884,"coord":{"lat":41.627048,"lon":34.466671},"name":"Hanonu"},{"country":"TR","id":745903,"coord":{"lat":41.233608,"lon":42.847221},"name":"Hanak"},{"country":"TR","id":745922,"coord":{"lat":40.13583,"lon":29.52639},"name":"Hamzabey"},{"country":"TR","id":745954,"coord":{"lat":40.74752,"lon":35.042488},"name":"Dedekoy"},{"country":"TR","id":745955,"coord":{"lat":40.78476,"lon":35.025799},"name":"Hamamozu"},{"country":"TR","id":746308,"coord":{"lat":40.977619,"lon":40.61359},"name":"Guneysu"},{"country":"TR","id":746413,"coord":{"lat":40.846939,"lon":30.941111},"name":"Gumusova"},{"country":"TR","id":746426,"coord":{"lat":40.873058,"lon":35.214722},"name":"Gumushacikoy"},{"country":"TR","id":746497,"coord":{"lat":40.21051,"lon":32.245522},"name":"Gudul"},{"country":"TR","id":746546,"coord":{"lat":40.40028,"lon":30.78833},"name":"Goynuk"},{"country":"TR","id":746547,"coord":{"lat":40.39917,"lon":35.525002},"name":"Goynucek"},{"country":"TR","id":746590,"coord":{"lat":40.776901,"lon":30.995871},"name":"Golyaka"},{"country":"TR","id":746602,"coord":{"lat":40.284721,"lon":30.317221},"name":"Golpazari"},{"country":"TR","id":746603,"coord":{"lat":40.061939,"lon":38.60667},"name":"Golova"},{"country":"TR","id":746611,"coord":{"lat":40.37381,"lon":29.59025},"name":"Balarim"},{"country":"TR","id":746628,"coord":{"lat":40.6875,"lon":37.617779},"name":"Golkoy"},{"country":"TR","id":746643,"coord":{"lat":40.79361,"lon":42.609169},"name":"Merdinik"},{"country":"TR","id":746712,"coord":{"lat":41.274441,"lon":41.566109},"name":"Murgul"},{"country":"TR","id":746913,"coord":{"lat":41.803612,"lon":35.201111},"name":"Gerze"},{"country":"TR","id":747090,"coord":{"lat":41.279732,"lon":41.151958},"name":"Findikli"},{"country":"TR","id":747191,"coord":{"lat":41.064529,"lon":39.143799},"name":"Eynesil"},{"country":"TR","id":747217,"coord":{"lat":40.24432,"lon":39.175331},"name":"Evren"},{"country":"TR","id":747262,"coord":{"lat":40.942982,"lon":32.53091},"name":"Eskipazar"},{"country":"TR","id":747263,"coord":{"lat":40.865959,"lon":32.541672},"name":"Gozyeri"},{"country":"TR","id":747449,"coord":{"lat":41.879261,"lon":34.918381},"name":"Erfelek"},{"country":"TR","id":747503,"coord":{"lat":40.72472,"lon":26.0825},"name":"Enez"},{"country":"TR","id":747618,"coord":{"lat":40.529751,"lon":33.499039},"name":"Eldivan"},{"country":"TR","id":747630,"coord":{"lat":40.486111,"lon":29.72472},"name":"Elbeyli"},{"country":"TR","id":747705,"coord":{"lat":41.42289,"lon":32.957611},"name":"Eflani"},{"country":"TR","id":747728,"coord":{"lat":40.184158,"lon":26.357401},"name":"Eceabat"},{"country":"TR","id":747751,"coord":{"lat":40.872841,"lon":39.427158},"name":"Duzkoy"},{"country":"TR","id":747793,"coord":{"lat":41.305279,"lon":28.67667},"name":"Durusu"},{"country":"TR","id":747826,"coord":{"lat":41.415829,"lon":35.05444},"name":"Duragan"},{"country":"TR","id":747899,"coord":{"lat":40.72052,"lon":32.063141},"name":"Dortdivan"},{"country":"TR","id":747912,"coord":{"lat":40.6936,"lon":29.94154},"name":"Dongel"},{"country":"TR","id":747978,"coord":{"lat":42.00457,"lon":33.460289},"name":"Doganyurt"},{"country":"TR","id":747986,"coord":{"lat":40.216671,"lon":37.533329},"name":"Dogansar"},{"country":"TR","id":748008,"coord":{"lat":40.807499,"lon":38.917221},"name":"Dogankent"},{"country":"TR","id":748148,"coord":{"lat":40.374722,"lon":43.412781},"name":"Digor"},{"country":"TR","id":748166,"coord":{"lat":41.603031,"lon":33.839218},"name":"Devrekani"},{"country":"TR","id":748200,"coord":{"lat":40.80286,"lon":40.239578},"name":"Dernekpazari"},{"country":"TR","id":748230,"coord":{"lat":41.023979,"lon":40.423321},"name":"Derepazari"},{"country":"TR","id":748240,"coord":{"lat":40.737801,"lon":38.449341},"name":"Dereli"},{"country":"TR","id":748378,"coord":{"lat":40.271938,"lon":29.09833},"name":"Demirtas"},{"country":"TR","id":748383,"coord":{"lat":40.163609,"lon":39.892502},"name":"Pulur"},{"country":"TR","id":748688,"coord":{"lat":41.340351,"lon":42.839359},"name":"Damal"},{"country":"TR","id":748761,"coord":{"lat":41.478661,"lon":33.466671},"name":"Daday"},{"country":"TR","id":749075,"coord":{"lat":40.641201,"lon":29.145981},"name":"Cinarcik"},{"country":"TR","id":749100,"coord":{"lat":40.893608,"lon":31.04917},"name":"Cilimli"},{"country":"TR","id":749109,"coord":{"lat":41.128059,"lon":43.13361},"name":"Zurzuna"},{"country":"TR","id":749183,"coord":{"lat":41.892109,"lon":33.004391},"name":"Cide"},{"country":"TR","id":749263,"coord":{"lat":40.071239,"lon":29.446609},"name":"Cerrah"},{"country":"TR","id":749392,"coord":{"lat":40.073059,"lon":35.49472},"name":"Cekerek"},{"country":"TR","id":749421,"coord":{"lat":40.670921,"lon":39.143608},"name":"Kurtun"},{"country":"TR","id":749456,"coord":{"lat":40.75481,"lon":40.235519},"name":"Caykara"},{"country":"TR","id":749518,"coord":{"lat":41.017109,"lon":37.097961},"name":"Caybasi"},{"country":"TR","id":749609,"coord":{"lat":41.95314,"lon":34.21627},"name":"Catalzeytin"},{"country":"TR","id":749701,"coord":{"lat":41.082779,"lon":39.382778},"name":"Skefe"},{"country":"TR","id":749740,"coord":{"lat":41.118141,"lon":28.080339},"name":"Canta"},{"country":"TR","id":749789,"coord":{"lat":40.911789,"lon":38.998981},"name":"Canakci"},{"country":"TR","id":749819,"coord":{"lat":40.13583,"lon":38.735561},"name":"Camoluk"},{"country":"TR","id":749841,"coord":{"lat":41.030281,"lon":41.009441},"name":"Camlihemsin"},{"country":"TR","id":749843,"coord":{"lat":40.489578,"lon":32.474991},"name":"Camlidere"},{"country":"TR","id":749916,"coord":{"lat":40.901669,"lon":37.528839},"name":"Camas"},{"country":"TR","id":750043,"coord":{"lat":40.518059,"lon":29.452221},"name":"Cakirli"},{"country":"TR","id":750059,"coord":{"lat":40.470558,"lon":29.66333},"name":"Cakirca"},{"country":"TR","id":750165,"coord":{"lat":40.77018,"lon":34.89838},"name":"Lacin"},{"country":"TR","id":750228,"coord":{"lat":41.242271,"lon":28.064619},"name":"Buyukcavuslu"},{"country":"TR","id":750296,"coord":{"lat":40.036861,"lon":30.626751},"name":"Saricakaya"},{"country":"TR","id":750446,"coord":{"lat":41.263371,"lon":28.63142},"name":"Boyalik"},{"country":"TR","id":750450,"coord":{"lat":40.481941,"lon":29.560829},"name":"Boyalica"},{"country":"TR","id":750496,"coord":{"lat":41.363152,"lon":41.676521},"name":"Borcka"},{"country":"TR","id":750539,"coord":{"lat":40.021912,"lon":34.60947},"name":"Bogazkale"},{"country":"TR","id":750615,"coord":{"lat":41.035561,"lon":36.235561},"name":"Asarcik"},{"country":"TR","id":750874,"coord":{"lat":40.943291,"lon":33.202999},"name":"Bayramoren"},{"country":"TR","id":750948,"coord":{"lat":40.645828,"lon":34.261391},"name":"Bayat"},{"country":"TR","id":751036,"coord":{"lat":40.54694,"lon":37.16917},"name":"Basciftlik"},{"country":"TR","id":751103,"coord":{"lat":41.501099,"lon":36.068871},"name":"Ondokuzmayis"},{"country":"TR","id":751170,"coord":{"lat":40.872501,"lon":29.428329},"name":"Balcik"},{"country":"TR","id":751277,"coord":{"lat":40.66729,"lon":29.914881},"name":"Bahcecik"},{"country":"TR","id":751388,"coord":{"lat":41.64267,"lon":33.299999},"name":"Azdavay"},{"country":"TR","id":751427,"coord":{"lat":40.991112,"lon":36.63139},"name":"Ayvacik"},{"country":"TR","id":751475,"coord":{"lat":40.389439,"lon":40.1506},"name":"Aydintepe"},{"country":"TR","id":751491,"coord":{"lat":40.12727,"lon":35.287651},"name":"Aydincik"},{"country":"TR","id":751511,"coord":{"lat":40.019329,"lon":32.332211},"name":"Ayas"},{"country":"TR","id":751516,"coord":{"lat":41.944721,"lon":34.586109},"name":"Ayancik"},{"country":"TR","id":751575,"coord":{"lat":40.815929,"lon":33.075562},"name":"Atkaracalar"},{"country":"TR","id":751818,"coord":{"lat":40.11578,"lon":36.300098},"name":"Artova"},{"country":"TR","id":751864,"coord":{"lat":40.848701,"lon":43.329109},"name":"Arpacay"},{"country":"TR","id":751976,"coord":{"lat":41.242222,"lon":33.327671},"name":"Arac"},{"country":"TR","id":752016,"coord":{"lat":41.74633,"lon":32.38633},"name":"Amasra"},{"country":"TR","id":752020,"coord":{"lat":40.320831,"lon":38.763611},"name":"Alucra"},{"country":"TR","id":752042,"coord":{"lat":40.69495,"lon":29.509859},"name":"Altinova"},{"country":"TR","id":752083,"coord":{"lat":40.375832,"lon":36.904442},"name":"Almus"},{"country":"TR","id":752188,"coord":{"lat":40.10881,"lon":29.518709},"name":"Alanyurt"},{"country":"TR","id":752259,"coord":{"lat":41.60556,"lon":35.598061},"name":"Alacam"},{"country":"TR","id":752284,"coord":{"lat":40.13512,"lon":33.08614},"name":"Akyurt"},{"country":"TR","id":752297,"coord":{"lat":40.73645,"lon":43.626652},"name":"Akyaka"},{"country":"TR","id":752359,"coord":{"lat":40.089481,"lon":38.035229},"name":"Aksu"},{"country":"TR","id":752437,"coord":{"lat":40.79306,"lon":37.016392},"name":"Akkus"},{"country":"TR","id":752476,"coord":{"lat":40.07972,"lon":38.348061},"name":"Akincilar"},{"country":"TR","id":752770,"coord":{"lat":41.68602,"lon":33.553829},"name":"Agil"},{"country":"TR","id":752926,"coord":{"lat":41.97858,"lon":34.011002},"name":"Abana"},{"country":"TR","id":857229,"coord":{"lat":41.05188,"lon":28.418671},"name":"Celaliye"},{"country":"TR","id":857230,"coord":{"lat":41.096298,"lon":28.49227},"name":"Muratbey"},{"country":"TR","id":862940,"coord":{"lat":40.716042,"lon":29.75223},"name":"Halidere"},{"country":"TR","id":862944,"coord":{"lat":40.84639,"lon":29.308889},"name":"Icmeler"},{"country":"TR","id":6559490,"coord":{"lat":36.2537,"lon":29.977699},"name":"Demre"},{"country":"TR","id":6692526,"coord":{"lat":36.566738,"lon":29.14467},"name":"OEluedeniz"},{"country":"TR","id":6940491,"coord":{"lat":41.230438,"lon":29.00425},"name":"Arikoey"},{"country":"TR","id":6940561,"coord":{"lat":37.668468,"lon":32.826889},"name":"Catalhoeyuek"},{"country":"TR","id":7280504,"coord":{"lat":36.708271,"lon":29.05081},"name":"Yaniklar"},{"country":"TR","id":7457829,"coord":{"lat":38.424541,"lon":38.36491},"name":"Battalgazi"},{"country":"TR","id":7569266,"coord":{"lat":40.896671,"lon":38.807129},"name":"Guce"},{"country":"TR","id":7581514,"coord":{"lat":40.87899,"lon":37.45351},"name":"Catalpinar"},{"country":"TR","id":7619145,"coord":{"lat":37.084599,"lon":37.356731},"name":"Sehitkamil"},{"country":"TR","id":7619146,"coord":{"lat":37.048359,"lon":37.343712},"name":"Sahinbey"},{"country":"TR","id":7700531,"coord":{"lat":41.083981,"lon":36.830399},"name":"Salipazari"},{"country":"TR","id":8140653,"coord":{"lat":40.87389,"lon":30.950911},"name":"Cumayeri"},{"country":"TT","id":3573840,"coord":{"lat":10.3,"lon":-61.183331},"name":"Rio Claro"},{"country":"TT","id":3573882,"coord":{"lat":10.26667,"lon":-61.383331},"name":"Princes Town"},{"country":"TT","id":3574069,"coord":{"lat":10.66667,"lon":-61.533329},"name":"Mucurapo"},{"country":"TT","id":3574309,"coord":{"lat":10.64917,"lon":-61.49889},"name":"Laventille"},{"country":"TT","id":3574659,"coord":{"lat":10.2,"lon":-61.450001},"name":"Debe"},{"country":"TT","id":3574724,"coord":{"lat":10.42248,"lon":-61.46748},"name":"Couva"},{"country":"TT","id":3575039,"coord":{"lat":10.63333,"lon":-61.333328},"name":"Arouca"},{"country":"TV","id":7602506,"coord":{"lat":-8.52074,"lon":179.196793},"name":"Alapi Village"},{"country":"TV","id":7602508,"coord":{"lat":-8.51758,"lon":179.200943},"name":"Fakaifou Village"},{"country":"TW","id":1667905,"coord":{"lat":24.989599,"lon":121.318703},"name":"Taoyuan"},{"country":"TW","id":1668295,"coord":{"lat":22.759911,"lon":121.144569},"name":"Taitung"},{"country":"TW","id":1668347,"coord":{"lat":23.45944,"lon":120.332222},"name":"Taibao"},{"country":"TW","id":1668353,"coord":{"lat":23.30694,"lon":120.310562},"name":"Xinying"},{"country":"TW","id":1668396,"coord":{"lat":24.25,"lon":120.716942},"name":"Fengyuan"},{"country":"TW","id":1671971,"coord":{"lat":24.56427,"lon":120.823669},"name":"Miaoli"},{"country":"TW","id":1673816,"coord":{"lat":22.626591,"lon":120.361259},"name":"Fengshan"},{"country":"TW","id":1677112,"coord":{"lat":24.838329,"lon":121.007782},"name":"Zhubei"},{"country":"TW","id":1678008,"coord":{"lat":24.43667,"lon":118.318329},"name":"Jincheng"},{"country":"TW","id":1678836,"coord":{"lat":23.47917,"lon":120.448891},"name":"Jiayi Shi"},{"country":"TW","id":1679136,"coord":{"lat":24.073271,"lon":120.562759},"name":"Chang-hua"},{"country":"TW","id":7552914,"coord":{"lat":26.150391,"lon":119.932838},"name":"Nangan"},{"country":"TZ","id":149039,"coord":{"lat":-5.4,"lon":39.683331},"name":"Uwelini"},{"country":"TZ","id":149070,"coord":{"lat":-7.98598,"lon":38.75795},"name":"Utete"},{"country":"TZ","id":149114,"coord":{"lat":-5.16667,"lon":32.349998},"name":"Usoke"},{"country":"TZ","id":149239,"coord":{"lat":-8.93333,"lon":33.683331},"name":"Ulenje"},{"country":"TZ","id":149768,"coord":{"lat":-4.85,"lon":38.366669},"name":"Soni"},{"country":"TZ","id":150689,"coord":{"lat":-3.33333,"lon":36.799999},"name":"Poli"},{"country":"TZ","id":150793,"coord":{"lat":-5.43333,"lon":38.966671},"name":"Pangani"},{"country":"TZ","id":151062,"coord":{"lat":-2.55,"lon":33.200001},"name":"Nyanguge"},{"country":"TZ","id":151262,"coord":{"lat":-1.60333,"lon":31.14139},"name":"Nyakahanga"},{"country":"TZ","id":151424,"coord":{"lat":-7.95,"lon":30.85},"name":"Nkove"},{"country":"TZ","id":151445,"coord":{"lat":-3.33333,"lon":36.799999},"name":"Nkoaranga"},{"country":"TZ","id":151610,"coord":{"lat":-3.23973,"lon":35.487469},"name":"Ngorongoro"},{"country":"TZ","id":151720,"coord":{"lat":-6.4,"lon":39.549999},"name":"Nganane"},{"country":"TZ","id":151775,"coord":{"lat":-4.36667,"lon":38.049999},"name":"Ndungu"},{"country":"TZ","id":151872,"coord":{"lat":-4.6,"lon":34.349998},"name":"Ndago"},{"country":"TZ","id":151920,"coord":{"lat":-2.13333,"lon":33.049999},"name":"Nansio"},{"country":"TZ","id":151988,"coord":{"lat":-2.55,"lon":36.76667},"name":"Namanga"},{"country":"TZ","id":152009,"coord":{"lat":-2.11667,"lon":33.066669},"name":"Nakatunguru"},{"country":"TZ","id":152042,"coord":{"lat":-4.2,"lon":36.933331},"name":"Naberera"},{"country":"TZ","id":152169,"coord":{"lat":-4.15,"lon":37.849998},"name":"Mwembe"},{"country":"TZ","id":152183,"coord":{"lat":-9.55,"lon":33.950001},"name":"Mwaya"},{"country":"TZ","id":152265,"coord":{"lat":-4.8,"lon":38.200001},"name":"Mwanga"},{"country":"TZ","id":152570,"coord":{"lat":-1.83972,"lon":31.65444},"name":"Muleba"},{"country":"TZ","id":152689,"coord":{"lat":-1.68333,"lon":33.700001},"name":"Mugango"},{"country":"TZ","id":152793,"coord":{"lat":-8.78333,"lon":36.349998},"name":"Mtimbira"},{"country":"TZ","id":152877,"coord":{"lat":-5.38333,"lon":39.700001},"name":"Mtambile"},{"country":"TZ","id":153046,"coord":{"lat":-6.05,"lon":36.033329},"name":"Msanga"},{"country":"TZ","id":153247,"coord":{"lat":-3.3,"lon":36.450001},"name":"Monduli"},{"country":"TZ","id":153585,"coord":{"lat":-5.87671,"lon":39.254669},"name":"Mkokotoni"},{"country":"TZ","id":153772,"coord":{"lat":-3,"lon":33.083328},"name":"Misasi"},{"country":"TZ","id":153955,"coord":{"lat":-4.96667,"lon":39.833328},"name":"Micheweni"},{"country":"TZ","id":154309,"coord":{"lat":-7.90577,"lon":39.210468},"name":"Mbumi"},{"country":"TZ","id":154313,"coord":{"lat":-3.85,"lon":35.533329},"name":"Mbulu"},{"country":"TZ","id":154576,"coord":{"lat":-2.38333,"lon":34.083328},"name":"Matongo"},{"country":"TZ","id":154635,"coord":{"lat":-8.98333,"lon":33.966671},"name":"Matamba"},{"country":"TZ","id":154666,"coord":{"lat":-9.33333,"lon":33.75},"name":"Masoko"},{"country":"TZ","id":154915,"coord":{"lat":-7.1988,"lon":38.784779},"name":"Maneromango"},{"country":"TZ","id":154995,"coord":{"lat":-2.98333,"lon":33.51667},"name":"Malya"},{"country":"TZ","id":155052,"coord":{"lat":-8.56667,"lon":34.849998},"name":"Malangali"},{"country":"TZ","id":155093,"coord":{"lat":-8.73333,"lon":35.283329},"name":"Makungu"},{"country":"TZ","id":155187,"coord":{"lat":-4.36667,"lon":37.833328},"name":"Makanya"},{"country":"TZ","id":155244,"coord":{"lat":-5.15,"lon":38.98333},"name":"Majengo"},{"country":"TZ","id":155263,"coord":{"lat":-6.45,"lon":39.466671},"name":"Mahonda"},{"country":"TZ","id":155274,"coord":{"lat":-8.68333,"lon":36.716671},"name":"Mahenge"},{"country":"TZ","id":155322,"coord":{"lat":-5.23333,"lon":38.116669},"name":"Magomeni"},{"country":"TZ","id":155514,"coord":{"lat":-3.59833,"lon":30.50194},"name":"Mabamba"},{"country":"TZ","id":155584,"coord":{"lat":-8.38333,"lon":36.666672},"name":"Lupiro"},{"country":"TZ","id":155848,"coord":{"lat":-2.73333,"lon":36.683331},"name":"Longido"},{"country":"TZ","id":156124,"coord":{"lat":-1.25222,"lon":31.42028},"name":"Kyaka"},{"country":"TZ","id":156312,"coord":{"lat":-3.76667,"lon":37.716671},"name":"Kwakoa"},{"country":"TZ","id":156493,"coord":{"lat":-6.2,"lon":36.416672},"name":"Kongwa"},{"country":"TZ","id":156513,"coord":{"lat":-4.95,"lon":39.75},"name":"Konde"},{"country":"TZ","id":156588,"coord":{"lat":-6.13333,"lon":39.283329},"name":"Koani Ndogo"},{"country":"TZ","id":156589,"coord":{"lat":-6.13333,"lon":39.283329},"name":"Koani"},{"country":"TZ","id":156636,"coord":{"lat":-5.98957,"lon":39.376801},"name":"Kiwengwa"},{"country":"TZ","id":156918,"coord":{"lat":-4.13333,"lon":37.950001},"name":"Kisiwani"},{"country":"TZ","id":156996,"coord":{"lat":-6.9,"lon":39.066669},"name":"Kisarawe"},{"country":"TZ","id":157014,"coord":{"lat":-7.43622,"lon":37.703369},"name":"Kisanga"},{"country":"TZ","id":157045,"coord":{"lat":-3.91667,"lon":37.48333},"name":"Kirya"},{"country":"TZ","id":157247,"coord":{"lat":-5.88333,"lon":35.23333},"name":"Kintinku"},{"country":"TZ","id":157366,"coord":{"lat":-6.78333,"lon":37.133331},"name":"Kimamba"},{"country":"TZ","id":157429,"coord":{"lat":-7.9139,"lon":39.66684},"name":"Kilindoni"},{"country":"TZ","id":157448,"coord":{"lat":-5.85,"lon":34.950001},"name":"Kilimatinde"},{"country":"TZ","id":157632,"coord":{"lat":-5.85,"lon":39.316669},"name":"Kijini"},{"country":"TZ","id":157653,"coord":{"lat":-4.46667,"lon":38.066669},"name":"Kihurio"},{"country":"TZ","id":158006,"coord":{"lat":-5.3,"lon":36.566669},"name":"Kibaya"},{"country":"TZ","id":158161,"coord":{"lat":-1.39972,"lon":31.50028},"name":"Katoro"},{"country":"TZ","id":158178,"coord":{"lat":-4.51667,"lon":35.383331},"name":"Katesh"},{"country":"TZ","id":158321,"coord":{"lat":-6.82052,"lon":30.438869},"name":"Karema"},{"country":"TZ","id":158422,"coord":{"lat":-9.15,"lon":33.799999},"name":"Kandete"},{"country":"TZ","id":158514,"coord":{"lat":-5.06056,"lon":31.79361},"name":"Kaliua"},{"country":"TZ","id":158974,"coord":{"lat":-2,"lon":34.333328},"name":"Issenye"},{"country":"TZ","id":159134,"coord":{"lat":-6.71667,"lon":32.066669},"name":"Inyonga"},{"country":"TZ","id":159219,"coord":{"lat":-9.25,"lon":33.383331},"name":"Ilembo"},{"country":"TZ","id":159242,"coord":{"lat":-7.95618,"lon":38.971642},"name":"Ikwiriri"},{"country":"TZ","id":159382,"coord":{"lat":-4,"lon":33.700001},"name":"Igurubi"},{"country":"TZ","id":159936,"coord":{"lat":-5.9,"lon":39.299999},"name":"Gamba"},{"country":"TZ","id":160073,"coord":{"lat":-4.41667,"lon":35.51667},"name":"Endasak"},{"country":"TZ","id":160141,"coord":{"lat":-8.11667,"lon":34.25},"name":"Dunda"},{"country":"TZ","id":160950,"coord":{"lat":-1.95,"lon":32.933331},"name":"Bukonyo"},{"country":"TZ","id":160971,"coord":{"lat":-4.23333,"lon":32.883331},"name":"Bukene"},{"country":"TZ","id":161022,"coord":{"lat":-1.59111,"lon":31.14028},"name":"Bugene"},{"country":"TZ","id":877433,"coord":{"lat":-10.06667,"lon":38.933331},"name":"Ruangwa"},{"country":"TZ","id":877588,"coord":{"lat":-10.8,"lon":39.549999},"name":"Nanhyanga"},{"country":"TZ","id":877631,"coord":{"lat":-10.83333,"lon":39.599998},"name":"Namikupa"},{"country":"TZ","id":877670,"coord":{"lat":-10.95,"lon":39.099998},"name":"Namalenga"},{"country":"TZ","id":877784,"coord":{"lat":-10.3,"lon":39.366669},"name":"Mtama"},{"country":"TZ","id":877925,"coord":{"lat":-10.1,"lon":39.633331},"name":"Mingoyo"},{"country":"TZ","id":878006,"coord":{"lat":-10,"lon":38.98333},"name":"Mbekenyera"},{"country":"TZ","id":878023,"coord":{"lat":-11.28333,"lon":34.76667},"name":"Mbamba Bay"},{"country":"TZ","id":878054,"coord":{"lat":-11.36667,"lon":38.416672},"name":"Masuguru"},{"country":"TZ","id":878087,"coord":{"lat":-10.46667,"lon":34.583328},"name":"Manda"},{"country":"TZ","id":878121,"coord":{"lat":-10.86667,"lon":39.450001},"name":"Mahuta"},{"country":"TZ","id":878141,"coord":{"lat":-10.4,"lon":40.333328},"name":"Madimba"},{"country":"TZ","id":878184,"coord":{"lat":-10.81667,"lon":39.133331},"name":"Lulindi"},{"country":"TZ","id":878242,"coord":{"lat":-11.08333,"lon":34.633331},"name":"Liuli"},{"country":"TZ","id":878362,"coord":{"lat":-10.65,"lon":39.333328},"name":"Kitangari"},{"country":"TZ","id":878455,"coord":{"lat":-10.88333,"lon":38.98333},"name":"Chiungutwa"},{"country":"TZ","id":7284275,"coord":{"lat":-5.72651,"lon":39.298698},"name":"Nungwi"},{"country":"UA","id":8224454,"coord":{"lat":44.82988,"lon":34.91301},"name":"Novyi Svit"},{"country":"UG","id":225797,"coord":{"lat":2.51355,"lon":30.90909},"name":"Zombo"},{"country":"UG","id":226267,"coord":{"lat":1.23132,"lon":34.24773},"name":"Sironko"},{"country":"UG","id":226330,"coord":{"lat":1.49417,"lon":33.45528},"name":"Serere"},{"country":"UG","id":226361,"coord":{"lat":-0.07722,"lon":31.456671},"name":"Sembabule"},{"country":"UG","id":226600,"coord":{"lat":-0.84111,"lon":29.94194},"name":"Rukungiri"},{"country":"UG","id":226676,"coord":{"lat":-0.29889,"lon":30.13361},"name":"Rubirizi"},{"country":"UG","id":226727,"coord":{"lat":-0.72,"lon":31.483891},"name":"Rakai"},{"country":"UG","id":226866,"coord":{"lat":2.80056,"lon":33.134998},"name":"Pader Palwo"},{"country":"UG","id":227605,"coord":{"lat":1.04111,"lon":30.48111},"name":"Ntoroko"},{"country":"UG","id":227843,"coord":{"lat":1.43139,"lon":33.777222},"name":"Ngora"},{"country":"UG","id":228094,"coord":{"lat":0.83611,"lon":33.686111},"name":"Namutumba"},{"country":"UG","id":228418,"coord":{"lat":1.30889,"lon":32.45639},"name":"Nakasongola"},{"country":"UG","id":228429,"coord":{"lat":0.75167,"lon":32.384998},"name":"Nakaseke"},{"country":"UG","id":228894,"coord":{"lat":0.93806,"lon":30.759439},"name":"Muhororo"},{"country":"UG","id":229112,"coord":{"lat":2.53453,"lon":34.666592},"name":"Moroto"},{"country":"UG","id":229144,"coord":{"lat":-0.68417,"lon":30.07},"name":"Mitoma"},{"country":"UG","id":229292,"coord":{"lat":0.45972,"lon":33.480282},"name":"Mayuge"},{"country":"UG","id":229361,"coord":{"lat":1.69606,"lon":32.086079},"name":"Masindi Port"},{"country":"UG","id":229397,"coord":{"lat":3.27042,"lon":30.95532},"name":"Maracha"},{"country":"UG","id":229599,"coord":{"lat":-0.40306,"lon":31.157221},"name":"Lyantonde"},{"country":"UG","id":229630,"coord":{"lat":-0.41611,"lon":31.40806},"name":"Lwengo"},{"country":"UG","id":230256,"coord":{"lat":-0.61556,"lon":31.5175},"name":"Kyotera"},{"country":"UG","id":230331,"coord":{"lat":0.50222,"lon":31.041389},"name":"Kyegegwa"},{"country":"UG","id":230584,"coord":{"lat":1.46083,"lon":33.936111},"name":"Kumi"},{"country":"UG","id":230725,"coord":{"lat":3.41364,"lon":30.95994},"name":"Koboko"},{"country":"UG","id":230993,"coord":{"lat":-1.28538,"lon":29.684971},"name":"Kisoro"},{"country":"UG","id":231083,"coord":{"lat":1.87633,"lon":32.062248},"name":"Kiryandongo"},{"country":"UG","id":231250,"coord":{"lat":0.2,"lon":30},"name":"Kilembe"},{"country":"UG","id":231426,"coord":{"lat":1.6162,"lon":31.308901},"name":"Kigorobya"},{"country":"UG","id":231532,"coord":{"lat":1.04333,"lon":33.797501},"name":"Kibuku"},{"country":"UG","id":231550,"coord":{"lat":0.91611,"lon":31.77417},"name":"Kiboga"},{"country":"UG","id":231554,"coord":{"lat":-0.62602,"lon":30.43594},"name":"Kibingo"},{"country":"UG","id":231617,"coord":{"lat":0.8,"lon":31.066669},"name":"Kibale"},{"country":"UG","id":231947,"coord":{"lat":1.89111,"lon":33.96611},"name":"Katakwi"},{"country":"UG","id":232235,"coord":{"lat":1.39651,"lon":34.450932},"name":"Kapchorwa"},{"country":"UG","id":232287,"coord":{"lat":-0.9575,"lon":29.789721},"name":"Kanungu"},{"country":"UG","id":232307,"coord":{"lat":0.17722,"lon":31.881109},"name":"Kanoni"},{"country":"UG","id":232397,"coord":{"lat":0.94722,"lon":33.11972},"name":"Kamuli"},{"country":"UG","id":232490,"coord":{"lat":-0.16969,"lon":31.758471},"name":"Kalungu"},{"country":"UG","id":232526,"coord":{"lat":0.89444,"lon":33.499439},"name":"Kaliro"},{"country":"UG","id":232571,"coord":{"lat":-0.30889,"lon":32.224998},"name":"Kalangala"},{"country":"UG","id":232713,"coord":{"lat":0.20806,"lon":32.522221},"name":"Kajansi"},{"country":"UG","id":232834,"coord":{"lat":0.96056,"lon":30.796671},"name":"Kagadi"},{"country":"UG","id":233019,"coord":{"lat":1.73889,"lon":33.159439},"name":"Kaberamaido"},{"country":"UG","id":233093,"coord":{"lat":3.48361,"lon":34.14917},"name":"Kaabong"},{"country":"UG","id":233382,"coord":{"lat":0.20333,"lon":32.088058},"name":"Gombe"},{"country":"UG","id":233563,"coord":{"lat":1.89833,"lon":33.177502},"name":"Dokolo"},{"country":"UG","id":233725,"coord":{"lat":-0.7425,"lon":31.406389},"name":"Byakabanda"},{"country":"UG","id":233738,"coord":{"lat":0.35583,"lon":32.667221},"name":"Bweyogerere"},{"country":"UG","id":233840,"coord":{"lat":1.15167,"lon":33.154999},"name":"Buyende"},{"country":"UG","id":234004,"coord":{"lat":0.91194,"lon":33.951111},"name":"Butaleja"},{"country":"UG","id":234081,"coord":{"lat":-0.58528,"lon":30.21139},"name":"Bushenyi"},{"country":"UG","id":234259,"coord":{"lat":2.11781,"lon":31.411631},"name":"Bulisa"},{"country":"UG","id":234306,"coord":{"lat":1.16667,"lon":34.383331},"name":"Bulambuli"},{"country":"UG","id":234328,"coord":{"lat":1.25917,"lon":34.753891},"name":"Bukwa"},{"country":"UG","id":234371,"coord":{"lat":-0.15778,"lon":31.60417},"name":"Bukomansimbi"},{"country":"UG","id":234412,"coord":{"lat":1.31694,"lon":34.05056},"name":"Bukedea"},{"country":"UG","id":234480,"coord":{"lat":0.3375,"lon":33.010559},"name":"Buikwe"},{"country":"UG","id":234578,"coord":{"lat":0.47972,"lon":33.23444},"name":"Bugembe"},{"country":"UG","id":234637,"coord":{"lat":1.01118,"lon":34.33112},"name":"Bududa"},{"country":"UG","id":234658,"coord":{"lat":1.00389,"lon":33.92556},"name":"Budaka"},{"country":"UG","id":234769,"coord":{"lat":1.41667,"lon":34.533329},"name":"Binyin"},{"country":"UG","id":235130,"coord":{"lat":1.97556,"lon":32.538609},"name":"Apac"},{"country":"UG","id":235186,"coord":{"lat":2.00361,"lon":33.651112},"name":"Amuria"},{"country":"UG","id":235191,"coord":{"lat":1.95,"lon":34.950001},"name":"Amudat"},{"country":"UG","id":235203,"coord":{"lat":1.61556,"lon":32.839722},"name":"Amolatar"},{"country":"UG","id":235293,"coord":{"lat":2.24472,"lon":33.254719},"name":"Alebtong"},{"country":"UG","id":235574,"coord":{"lat":2.70167,"lon":33.676109},"name":"Abim"},{"country":"UG","id":448226,"coord":{"lat":1.91667,"lon":34.783329},"name":"Nakapiripirit"},{"country":"UG","id":448227,"coord":{"lat":3.05,"lon":33.216671},"name":"Pader"},{"country":"UG","id":448232,"coord":{"lat":0.41861,"lon":29.891109},"name":"Margherita"},{"country":"UG","id":448243,"coord":{"lat":2.63422,"lon":32.00106},"name":"Nwoya"},{"country":"UG","id":7911405,"coord":{"lat":-0.86864,"lon":30.830191},"name":"Isingiro"},{"country":"UG","id":7911406,"coord":{"lat":0.97842,"lon":34.374298},"name":"Manafwa"},{"country":"UG","id":7911407,"coord":{"lat":2.235,"lon":32.384949},"name":"Oyam"},{"country":"UG","id":8015635,"coord":{"lat":2.81388,"lon":31.938681},"name":"Amuru"},{"country":"UG","id":8051532,"coord":{"lat":0.23983,"lon":33.884911},"name":"Namayingo"},{"country":"UG","id":8051533,"coord":{"lat":0.22216,"lon":33.206081},"name":"Kitamilo"},{"country":"UG","id":8051534,"coord":{"lat":1.20062,"lon":31.800619},"name":"Kyankwanzi"},{"country":"UG","id":8051535,"coord":{"lat":2.40015,"lon":32.800339},"name":"Kole"},{"country":"UG","id":8051536,"coord":{"lat":2.50038,"lon":33.500648},"name":"Otuke"},{"country":"UG","id":8051537,"coord":{"lat":2.25139,"lon":34.250118},"name":"Napak"},{"country":"UG","id":8051538,"coord":{"lat":0.70076,"lon":33.300201},"name":"Luuka Town"},{"country":"US","id":4046255,"coord":{"lat":30.882959,"lon":-87.773048},"name":"Bay Minette"},{"country":"US","id":4046274,"coord":{"lat":28.97859,"lon":-96.646088},"name":"Edna"},{"country":"US","id":4046319,"coord":{"lat":30.403521,"lon":-88.24852},"name":"Bayou La Batre"},{"country":"US","id":4046332,"coord":{"lat":32.153221,"lon":-94.799377},"name":"Henderson"},{"country":"US","id":4046430,"coord":{"lat":29.18968,"lon":-98.862534},"name":"Natalia"},{"country":"US","id":4046499,"coord":{"lat":34.274818,"lon":-87.700577},"name":"Bear Creek"},{"country":"US","id":4046946,"coord":{"lat":37.238762,"lon":-76.509666},"name":"Yorktown"},{"country":"US","id":4047198,"coord":{"lat":33.43428,"lon":-86.947212},"name":"Brighton"},{"country":"US","id":4047734,"coord":{"lat":38.545109,"lon":-75.089073},"name":"Ocean View"},{"country":"US","id":4047827,"coord":{"lat":33.659828,"lon":-87.600014},"name":"Berry"},{"country":"US","id":4047906,"coord":{"lat":28.180849,"lon":-82.68177},"name":"Trinity"},{"country":"US","id":4047914,"coord":{"lat":26.55035,"lon":-81.868698},"name":"Villas"},{"country":"US","id":4048332,"coord":{"lat":39.056999,"lon":-84.901337},"name":"Aurora"},{"country":"US","id":4048388,"coord":{"lat":38.505058,"lon":-86.016922},"name":"New Pekin"},{"country":"US","id":4048488,"coord":{"lat":39.438068,"lon":-99.265099},"name":"Stockton"},{"country":"US","id":4048850,"coord":{"lat":32.596531,"lon":-91.393997},"name":"Monticello"},{"country":"US","id":4048888,"coord":{"lat":32.555981,"lon":-93.613228},"name":"Red Chute"},{"country":"US","id":4049032,"coord":{"lat":39.149269,"lon":-76.775253},"name":"Jessup"},{"country":"US","id":4050006,"coord":{"lat":39.092838,"lon":-84.612717},"name":"Delhi Hills"},{"country":"US","id":4050118,"coord":{"lat":39.110062,"lon":-84.379936},"name":"Turpin Hills"},{"country":"US","id":4050356,"coord":{"lat":34.227371,"lon":-80.689247},"name":"Lugoff"},{"country":"US","id":4050655,"coord":{"lat":34.08149,"lon":-86.591103},"name":"Blountsville"},{"country":"US","id":4050879,"coord":{"lat":32.492641,"lon":-86.190521},"name":"Blue Ridge"},{"country":"US","id":4050880,"coord":{"lat":30.085211,"lon":-97.840279},"name":"Buda"},{"country":"US","id":4051059,"coord":{"lat":34.200649,"lon":-86.166367},"name":"Boaz"},{"country":"US","id":4051669,"coord":{"lat":32.937351,"lon":-87.164719},"name":"Brent"},{"country":"US","id":4051714,"coord":{"lat":31.105181,"lon":-87.072189},"name":"Brewton"},{"country":"US","id":4051774,"coord":{"lat":34.947578,"lon":-85.714417},"name":"Bridgeport"},{"country":"US","id":4051894,"coord":{"lat":33.435661,"lon":-86.673882},"name":"Brook Highland"},{"country":"US","id":4051955,"coord":{"lat":33.637878,"lon":-86.916656},"name":"Brookside"},{"country":"US","id":4051971,"coord":{"lat":33.255669,"lon":-87.320831},"name":"Brookwood"},{"country":"US","id":4052177,"coord":{"lat":31.72016,"lon":-85.816063},"name":"Brundidge"},{"country":"US","id":4052726,"coord":{"lat":32.089588,"lon":-88.22197},"name":"Butler"},{"country":"US","id":4052824,"coord":{"lat":33.613159,"lon":-85.961082},"name":"Bynum"},{"country":"US","id":4052964,"coord":{"lat":33.464001,"lon":-86.731934},"name":"Cahaba Heights"},{"country":"US","id":4053050,"coord":{"lat":33.102901,"lon":-86.753601},"name":"Calera"},{"country":"US","id":4053200,"coord":{"lat":31.99098,"lon":-87.29055},"name":"Camden"},{"country":"US","id":4053318,"coord":{"lat":32.800411,"lon":-85.653572},"name":"Camp Hill"},{"country":"US","id":4053671,"coord":{"lat":33.891769,"lon":-87.526123},"name":"Carbon Hill"},{"country":"US","id":4053823,"coord":{"lat":33.261791,"lon":-88.095032},"name":"Carrollton"},{"country":"US","id":4054073,"coord":{"lat":34.220089,"lon":-85.607742},"name":"Cedar Bluff"},{"country":"US","id":4054555,"coord":{"lat":34.152039,"lon":-85.678848},"name":"Centre"},{"country":"US","id":4054566,"coord":{"lat":32.944569,"lon":-87.138611},"name":"Centreville"},{"country":"US","id":4054593,"coord":{"lat":33.65316,"lon":-86.647774},"name":"Chalkville"},{"country":"US","id":4054818,"coord":{"lat":31.46517,"lon":-88.254463},"name":"Chatom"},{"country":"US","id":4054852,"coord":{"lat":33.340111,"lon":-86.630257},"name":"Chelsea"},{"country":"US","id":4054866,"coord":{"lat":34.75703,"lon":-87.972809},"name":"Cherokee"},{"country":"US","id":4054996,"coord":{"lat":30.7638,"lon":-88.074722},"name":"Chickasaw"},{"country":"US","id":4055045,"coord":{"lat":33.278172,"lon":-86.35498},"name":"Childersburg"},{"country":"US","id":4055139,"coord":{"lat":33.659271,"lon":-85.703568},"name":"Choccolocco"},{"country":"US","id":4055535,"coord":{"lat":31.090731,"lon":-88.228058},"name":"Citronelle"},{"country":"US","id":4055577,"coord":{"lat":32.838741,"lon":-86.629433},"name":"Clanton"},{"country":"US","id":4055650,"coord":{"lat":33.702599,"lon":-86.599709},"name":"Clay"},{"country":"US","id":4055696,"coord":{"lat":31.87822,"lon":-85.449661},"name":"Clayton"},{"country":"US","id":4055815,"coord":{"lat":33.990929,"lon":-86.577492},"name":"Cleveland"},{"country":"US","id":4055879,"coord":{"lat":31.70878,"lon":-85.610497},"name":"Clio"},{"country":"US","id":4056017,"coord":{"lat":33.159012,"lon":-87.340828},"name":"Coaling"},{"country":"US","id":4056381,"coord":{"lat":34.263981,"lon":-85.860527},"name":"Collinsville"},{"country":"US","id":4056427,"coord":{"lat":33.178169,"lon":-86.607208},"name":"Columbiana"},{"country":"US","id":4056515,"coord":{"lat":33.467609,"lon":-87.031113},"name":"Concord"},{"country":"US","id":4056837,"coord":{"lat":32.49791,"lon":-86.33136},"name":"Coosada"},{"country":"US","id":4056920,"coord":{"lat":33.75983,"lon":-87.183327},"name":"Cordova"},{"country":"US","id":4057139,"coord":{"lat":31.04879,"lon":-85.304932},"name":"Cottonwood"},{"country":"US","id":4057320,"coord":{"lat":31.20018,"lon":-85.304649},"name":"Cowarts"},{"country":"US","id":4057531,"coord":{"lat":30.89185,"lon":-88.039719},"name":"Creola"},{"country":"US","id":4057731,"coord":{"lat":34.28759,"lon":-85.994141},"name":"Crossville"},{"country":"US","id":4057835,"coord":{"lat":34.17482,"lon":-86.843613},"name":"Cullman"},{"country":"US","id":4058027,"coord":{"lat":32.831242,"lon":-85.763573},"name":"Dadeville"},{"country":"US","id":4058061,"coord":{"lat":31.310169,"lon":-85.71299},"name":"Daleville"},{"country":"US","id":4058198,"coord":{"lat":34.414539,"lon":-87.087509},"name":"Danville"},{"country":"US","id":4058262,"coord":{"lat":30.25548,"lon":-88.109718},"name":"Dauphin Island"},{"country":"US","id":4058543,"coord":{"lat":32.608189,"lon":-86.395813},"name":"Deatsville"},{"country":"US","id":4058662,"coord":{"lat":32.517639,"lon":-87.836403},"name":"Demopolis"},{"country":"US","id":4059070,"coord":{"lat":33.728722,"lon":-87.090279},"name":"Dora"},{"country":"US","id":4059162,"coord":{"lat":34.146488,"lon":-87.402237},"name":"Double Springs"},{"country":"US","id":4059831,"coord":{"lat":31.093229,"lon":-87.062752},"name":"East Brewton"},{"country":"US","id":4060176,"coord":{"lat":32.63541,"lon":-86.034409},"name":"Eclectic"},{"country":"US","id":4060381,"coord":{"lat":30.41436,"lon":-87.597763},"name":"Elberta"},{"country":"US","id":4060954,"coord":{"lat":31.89127,"lon":-85.145493},"name":"Eufaula"},{"country":"US","id":4060991,"coord":{"lat":32.840679,"lon":-87.887512},"name":"Eutaw"},{"country":"US","id":4061064,"coord":{"lat":31.4335,"lon":-86.956917},"name":"Evergreen"},{"country":"US","id":4061206,"coord":{"lat":33.485939,"lon":-86.911942},"name":"Fairfield"},{"country":"US","id":4061466,"coord":{"lat":34.368431,"lon":-86.908623},"name":"Falkville"},{"country":"US","id":4061586,"coord":{"lat":33.684551,"lon":-87.830849},"name":"Fayette"},{"country":"US","id":4061602,"coord":{"lat":33.145672,"lon":-86.405807},"name":"Fayetteville"},{"country":"US","id":4062523,"coord":{"lat":34.523151,"lon":-86.970291},"name":"Flint City"},{"country":"US","id":4062568,"coord":{"lat":31.00518,"lon":-86.328003},"name":"Florala"},{"country":"US","id":4062595,"coord":{"lat":31.000179,"lon":-87.260811},"name":"Flomaton"},{"country":"US","id":4062644,"coord":{"lat":30.40659,"lon":-87.683601},"name":"Foley"},{"country":"US","id":4062774,"coord":{"lat":33.57011,"lon":-86.896378},"name":"Forestdale"},{"country":"US","id":4062824,"coord":{"lat":31.984591,"lon":-86.57859},"name":"Fort Deposit"},{"country":"US","id":4062861,"coord":{"lat":34.444248,"lon":-85.719688},"name":"Fort Payne"},{"country":"US","id":4063475,"coord":{"lat":31.4335,"lon":-87.401382},"name":"Frisco City"},{"country":"US","id":4063570,"coord":{"lat":33.604832,"lon":-86.793877},"name":"Fultondale"},{"country":"US","id":4063613,"coord":{"lat":34.446758,"lon":-85.904137},"name":"Fyffe"},{"country":"US","id":4063765,"coord":{"lat":33.660099,"lon":-86.812767},"name":"Gardendale"},{"country":"US","id":4063926,"coord":{"lat":31.032961,"lon":-85.863823},"name":"Geneva"},{"country":"US","id":4064006,"coord":{"lat":31.6371,"lon":-86.74192},"name":"Georgiana"},{"country":"US","id":4064310,"coord":{"lat":33.957039,"lon":-85.932472},"name":"Glencoe"},{"country":"US","id":4064548,"coord":{"lat":34.115929,"lon":-86.863609},"name":"Good Hope"},{"country":"US","id":4064598,"coord":{"lat":33.065681,"lon":-86.053299},"name":"Goodwater"},{"country":"US","id":4064664,"coord":{"lat":33.320122,"lon":-87.902802},"name":"Gordo"},{"country":"US","id":4064840,"coord":{"lat":30.476311,"lon":-88.342232},"name":"Grand Bay"},{"country":"US","id":4065029,"coord":{"lat":33.648159,"lon":-86.639427},"name":"Grayson Valley"},{"country":"US","id":4065034,"coord":{"lat":33.620659,"lon":-86.971382},"name":"Graysville"},{"country":"US","id":4065282,"coord":{"lat":32.704578,"lon":-87.59584},"name":"Greensboro"},{"country":"US","id":4065302,"coord":{"lat":31.829599,"lon":-86.617752},"name":"Greenville"},{"country":"US","id":4065475,"coord":{"lat":31.708771,"lon":-87.777222},"name":"Grove Hill"},{"country":"US","id":4065524,"coord":{"lat":33.96566,"lon":-87.914749},"name":"Guin"},{"country":"US","id":4065552,"coord":{"lat":30.24604,"lon":-87.700821},"name":"Gulf Shores"},{"country":"US","id":4065649,"coord":{"lat":34.35815,"lon":-86.294701},"name":"Guntersville"},{"country":"US","id":4065731,"coord":{"lat":34.277321,"lon":-87.828644},"name":"Hackleburg"},{"country":"US","id":4065830,"coord":{"lat":34.22649,"lon":-87.621407},"name":"Haleyville"},{"country":"US","id":4065965,"coord":{"lat":34.142319,"lon":-87.98864},"name":"Hamilton"},{"country":"US","id":4066065,"coord":{"lat":34.06065,"lon":-86.767502},"name":"Hanceville"},{"country":"US","id":4066335,"coord":{"lat":33.344002,"lon":-86.438042},"name":"Harpersville"},{"country":"US","id":4066437,"coord":{"lat":31.1024,"lon":-85.696877},"name":"Hartford"},{"country":"US","id":4066449,"coord":{"lat":34.443432,"lon":-86.93528},"name":"Hartselle"},{"country":"US","id":4066463,"coord":{"lat":34.85564,"lon":-86.750832},"name":"Harvest"},{"country":"US","id":4066661,"coord":{"lat":32.184029,"lon":-86.580254},"name":"Hayneville"},{"country":"US","id":4066686,"coord":{"lat":34.932308,"lon":-86.571938},"name":"Hazel Green"},{"country":"US","id":4066716,"coord":{"lat":31.35128,"lon":-85.342163},"name":"Headland"},{"country":"US","id":4066793,"coord":{"lat":33.648991,"lon":-85.587463},"name":"Heflin"},{"country":"US","id":4066844,"coord":{"lat":34.635078,"lon":-85.767189},"name":"Henagar"},{"country":"US","id":4067623,"coord":{"lat":33.99815,"lon":-85.866364},"name":"Hokes Bluff"},{"country":"US","id":4067840,"coord":{"lat":33.234009,"lon":-87.484451},"name":"Holt"},{"country":"US","id":4067862,"coord":{"lat":32.636238,"lon":-86.326637},"name":"Holtville"},{"country":"US","id":4068506,"coord":{"lat":32.834572,"lon":-85.22966},"name":"Huguley"},{"country":"US","id":4068933,"coord":{"lat":33.355389,"lon":-86.754433},"name":"Indian Springs Village"},{"country":"US","id":4069210,"coord":{"lat":32.014881,"lon":-85.746063},"name":"Inverness"},{"country":"US","id":4069243,"coord":{"lat":33.538158,"lon":-86.707207},"name":"Irondale"},{"country":"US","id":4069458,"coord":{"lat":31.50905,"lon":-87.89444},"name":"Jackson"},{"country":"US","id":4069553,"coord":{"lat":33.813709,"lon":-85.761353},"name":"Jacksonville"},{"country":"US","id":4069659,"coord":{"lat":33.831219,"lon":-87.277512},"name":"Jasper"},{"country":"US","id":4069722,"coord":{"lat":32.95985,"lon":-86.746651},"name":"Jemison"},{"country":"US","id":4070786,"coord":{"lat":34.862862,"lon":-87.537529},"name":"Killen"},{"country":"US","id":4070806,"coord":{"lat":33.773441,"lon":-86.813881},"name":"Kimberly"},{"country":"US","id":4070997,"coord":{"lat":31.299061,"lon":-85.344383},"name":"Kinsey"},{"country":"US","id":4071262,"coord":{"lat":32.468201,"lon":-85.079102},"name":"Ladonia"},{"country":"US","id":4071267,"coord":{"lat":32.899849,"lon":-85.401062},"name":"Lafayette"},{"country":"US","id":4071488,"coord":{"lat":33.430111,"lon":-86.680542},"name":"Lake Purdy"},{"country":"US","id":4071540,"coord":{"lat":33.28067,"lon":-87.137497},"name":"Lake View"},{"country":"US","id":4071763,"coord":{"lat":32.86874,"lon":-85.190498},"name":"Lanett"},{"country":"US","id":4072130,"coord":{"lat":33.548161,"lon":-86.544434},"name":"Leeds"},{"country":"US","id":4072156,"coord":{"lat":34.179821,"lon":-85.76136},"name":"Leesburg"},{"country":"US","id":4072271,"coord":{"lat":31.29962,"lon":-85.777992},"name":"Level Plains"},{"country":"US","id":4072752,"coord":{"lat":32.306252,"lon":-87.798073},"name":"Linden"},{"country":"US","id":4072767,"coord":{"lat":33.613159,"lon":-86.118309},"name":"Lincoln"},{"country":"US","id":4072814,"coord":{"lat":33.310669,"lon":-85.75441},"name":"Lineville"},{"country":"US","id":4072842,"coord":{"lat":33.425659,"lon":-86.926659},"name":"Lipscomb"},{"country":"US","id":4073357,"coord":{"lat":34.590649,"lon":-87.676971},"name":"Littleville"},{"country":"US","id":4073383,"coord":{"lat":32.584301,"lon":-88.187248},"name":"Livingston"},{"country":"US","id":4073504,"coord":{"lat":33.9076,"lon":-86.615273},"name":"Locust Fork"},{"country":"US","id":4073897,"coord":{"lat":30.61825,"lon":-87.753052},"name":"Loxley"},{"country":"US","id":4073985,"coord":{"lat":31.716551,"lon":-86.263847},"name":"Luverne"},{"country":"US","id":4074452,"coord":{"lat":31.139339,"lon":-85.519096},"name":"Malvern"},{"country":"US","id":4074568,"coord":{"lat":32.701241,"lon":-86.471092},"name":"Marbury"},{"country":"US","id":4074599,"coord":{"lat":33.686211,"lon":-86.474983},"name":"Margaret"},{"country":"US","id":4074673,"coord":{"lat":32.632351,"lon":-87.319168},"name":"Marion"},{"country":"US","id":4075692,"coord":{"lat":33.40205,"lon":-86.696648},"name":"Meadowbrook"},{"country":"US","id":4075854,"coord":{"lat":34.851479,"lon":-86.57222},"name":"Meridianville"},{"country":"US","id":4075977,"coord":{"lat":33.461498,"lon":-86.908882},"name":"Midfield"},{"country":"US","id":4075984,"coord":{"lat":31.319059,"lon":-85.49382},"name":"Midland City"},{"country":"US","id":4076066,"coord":{"lat":33.183449,"lon":-86.261093},"name":"Mignon"},{"country":"US","id":4076239,"coord":{"lat":32.479858,"lon":-86.361923},"name":"Millbrook"},{"country":"US","id":4076358,"coord":{"lat":33.56345,"lon":-88.081421},"name":"Millport"},{"country":"US","id":4076468,"coord":{"lat":33.537331,"lon":-86.940552},"name":"Minor"},{"country":"US","id":4076725,"coord":{"lat":31.527941,"lon":-87.324707},"name":"Monroeville"},{"country":"US","id":4076771,"coord":{"lat":33.10067,"lon":-86.864159},"name":"Montevallo"},{"country":"US","id":4076842,"coord":{"lat":33.590939,"lon":-86.490822},"name":"Moody"},{"country":"US","id":4076982,"coord":{"lat":34.843979,"lon":-86.518318},"name":"Moores Mill"},{"country":"US","id":4077143,"coord":{"lat":33.748161,"lon":-86.808601},"name":"Morris"},{"country":"US","id":4077283,"coord":{"lat":32.174591,"lon":-86.671921},"name":"Mosses"},{"country":"US","id":4077329,"coord":{"lat":34.481209,"lon":-87.29335},"name":"Moulton"},{"country":"US","id":4077349,"coord":{"lat":32.99762,"lon":-87.630013},"name":"Moundville"},{"country":"US","id":4077867,"coord":{"lat":33.67094,"lon":-86.856102},"name":"Mount Olive"},{"country":"US","id":4078348,"coord":{"lat":31.08518,"lon":-88.013329},"name":"Mount Vernon"},{"country":"US","id":4078898,"coord":{"lat":33.529831,"lon":-85.950798},"name":"Munford"},{"country":"US","id":4078964,"coord":{"lat":34.744808,"lon":-87.667526},"name":"Muscle Shoals"},{"country":"US","id":4079423,"coord":{"lat":31.385719,"lon":-85.92939},"name":"New Brockton"},{"country":"US","id":4079630,"coord":{"lat":34.537029,"lon":-86.394432},"name":"New Hope"},{"country":"US","id":4079916,"coord":{"lat":34.910091,"lon":-86.427773},"name":"New Market"},{"country":"US","id":4080193,"coord":{"lat":31.335171,"lon":-85.605209},"name":"Newton"},{"country":"US","id":4080395,"coord":{"lat":33.20401,"lon":-87.153053},"name":"North Bibb"},{"country":"US","id":4081166,"coord":{"lat":33.677319,"lon":-86.396652},"name":"Odenville"},{"country":"US","id":4081197,"coord":{"lat":33.783428,"lon":-86.002472},"name":"Ohatchee"},{"country":"US","id":4081671,"coord":{"lat":33.948151,"lon":-86.472763},"name":"Oneonta"},{"country":"US","id":4081683,"coord":{"lat":31.282669,"lon":-86.255508},"name":"Opp"},{"country":"US","id":4081696,"coord":{"lat":30.294371,"lon":-87.573593},"name":"Orange Beach"},{"country":"US","id":4081904,"coord":{"lat":34.58815,"lon":-86.458878},"name":"Owens Cross Roads"},{"country":"US","id":4081936,"coord":{"lat":31.459061,"lon":-85.640488},"name":"Ozark"},{"country":"US","id":4082589,"coord":{"lat":33.586208,"lon":-86.286087},"name":"Pell City"},{"country":"US","id":4082869,"coord":{"lat":34.350929,"lon":-87.706421},"name":"Phil Campbell"},{"country":"US","id":4083004,"coord":{"lat":33.924549,"lon":-85.611351},"name":"Piedmont"},{"country":"US","id":4083073,"coord":{"lat":32.284309,"lon":-86.10302},"name":"Pike Road"},{"country":"US","id":4083414,"coord":{"lat":32.58374,"lon":-86.46553},"name":"Pine Level"},{"country":"US","id":4083697,"coord":{"lat":33.688992,"lon":-86.683319},"name":"Pinson"},{"country":"US","id":4083846,"coord":{"lat":33.49094,"lon":-86.970268},"name":"Pleasant Grove"},{"country":"US","id":4084324,"coord":{"lat":30.474079,"lon":-87.919159},"name":"Point Clear"},{"country":"US","id":4084883,"coord":{"lat":34.525089,"lon":-86.89473},"name":"Priceville"},{"country":"US","id":4085336,"coord":{"lat":33.954819,"lon":-86.041924},"name":"Rainbow City"},{"country":"US","id":4085373,"coord":{"lat":34.494251,"lon":-85.847748},"name":"Rainsville"},{"country":"US","id":4085521,"coord":{"lat":34.439819,"lon":-88.140869},"name":"Red Bay"},{"country":"US","id":4085739,"coord":{"lat":33.378448,"lon":-88.015297},"name":"Reform"},{"country":"US","id":4085771,"coord":{"lat":31.122959,"lon":-85.452713},"name":"Rehobeth"},{"country":"US","id":4086224,"coord":{"lat":33.606209,"lon":-86.204422},"name":"Riverside"},{"country":"US","id":4086285,"coord":{"lat":33.15123,"lon":-85.372169},"name":"Roanoke"},{"country":"US","id":4086363,"coord":{"lat":30.553801,"lon":-87.711929},"name":"Robertsdale"},{"country":"US","id":4086500,"coord":{"lat":33.477051,"lon":-87.080269},"name":"Rock Creek"},{"country":"US","id":4086637,"coord":{"lat":32.889568,"lon":-86.219688},"name":"Rockford"},{"country":"US","id":4086921,"coord":{"lat":34.825642,"lon":-87.294739},"name":"Rogersville"},{"country":"US","id":4087313,"coord":{"lat":34.50787,"lon":-87.728638},"name":"Russellville"},{"country":"US","id":4088146,"coord":{"lat":33.698711,"lon":-85.839691},"name":"Saks"},{"country":"US","id":4088360,"coord":{"lat":31.112949,"lon":-86.046051},"name":"Samson"},{"country":"US","id":4088704,"coord":{"lat":34.174259,"lon":-86.122749},"name":"Sardis City"},{"country":"US","id":4088737,"coord":{"lat":30.853239,"lon":-88.056107},"name":"Satsuma"},{"country":"US","id":4088916,"coord":{"lat":34.67231,"lon":-86.034149},"name":"Scottsboro"},{"country":"US","id":4089536,"coord":{"lat":34.765091,"lon":-87.698639},"name":"Sheffield"},{"country":"US","id":4089549,"coord":{"lat":33.110401,"lon":-86.584152},"name":"Shelby"},{"country":"US","id":4090470,"coord":{"lat":31.108231,"lon":-85.594383},"name":"Slocomb"},{"country":"US","id":4090684,"coord":{"lat":32.540138,"lon":-85.098549},"name":"Smiths Station"},{"country":"US","id":4090700,"coord":{"lat":33.891769,"lon":-86.820267},"name":"Smoke Rise"},{"country":"US","id":4091058,"coord":{"lat":33.924541,"lon":-86.022469},"name":"Southside"},{"country":"US","id":4091136,"coord":{"lat":30.67491,"lon":-87.915268},"name":"Spanish Fort"},{"country":"US","id":4091542,"coord":{"lat":33.775101,"lon":-86.471649},"name":"Springville"},{"country":"US","id":4091755,"coord":{"lat":33.939819,"lon":-86.201637},"name":"Steele"},{"country":"US","id":4091859,"coord":{"lat":34.86869,"lon":-85.839417},"name":"Stevenson"},{"country":"US","id":4091923,"coord":{"lat":33.079288,"lon":-86.244423},"name":"Stewartville"},{"country":"US","id":4092267,"coord":{"lat":33.901772,"lon":-88.134483},"name":"Sulligent"},{"country":"US","id":4092333,"coord":{"lat":33.755661,"lon":-87.050003},"name":"Sumiton"},{"country":"US","id":4092671,"coord":{"lat":33.173168,"lon":-86.25164},"name":"Sylacauga"},{"country":"US","id":4092689,"coord":{"lat":33.515659,"lon":-87.014992},"name":"Sylvan Springs"},{"country":"US","id":4092692,"coord":{"lat":34.562309,"lon":-85.812469},"name":"Sylvania"},{"country":"US","id":4092853,"coord":{"lat":32.535969,"lon":-85.893288},"name":"Tallassee"},{"country":"US","id":4092970,"coord":{"lat":33.583439,"lon":-86.772774},"name":"Tarrant"},{"country":"US","id":4093048,"coord":{"lat":31.1649,"lon":-85.468269},"name":"Taylor"},{"country":"US","id":4093050,"coord":{"lat":31.97543,"lon":-86.233299},"name":"Taylor"},{"country":"US","id":4093399,"coord":{"lat":30.547689,"lon":-88.175278},"name":"Theodore"},{"country":"US","id":4093488,"coord":{"lat":31.91349,"lon":-87.73584},"name":"Thomasville"},{"country":"US","id":4093619,"coord":{"lat":32.91568,"lon":-86.71582},"name":"Thorsby"},{"country":"US","id":4093897,"coord":{"lat":34.681198,"lon":-87.406128},"name":"Town Creek"},{"country":"US","id":4094048,"coord":{"lat":34.606758,"lon":-87.088348},"name":"Trinity"},{"country":"US","id":4094484,"coord":{"lat":34.731201,"lon":-87.70253},"name":"Tuscumbia"},{"country":"US","id":4094490,"coord":{"lat":32.42403,"lon":-85.69162},"name":"Tuskegee"},{"country":"US","id":4094975,"coord":{"lat":32.144321,"lon":-85.714951},"name":"Union Springs"},{"country":"US","id":4094997,"coord":{"lat":32.449581,"lon":-87.514168},"name":"Uniontown"},{"country":"US","id":4095186,"coord":{"lat":32.818741,"lon":-85.17939},"name":"Valley"},{"country":"US","id":4095213,"coord":{"lat":32.509022,"lon":-86.987488},"name":"Valley Grande"},{"country":"US","id":4095288,"coord":{"lat":33.470661,"lon":-86.513321},"name":"Vandiver"},{"country":"US","id":4095294,"coord":{"lat":33.174278,"lon":-87.233612},"name":"Vance"},{"country":"US","id":4095522,"coord":{"lat":33.384548,"lon":-86.411919},"name":"Vincent"},{"country":"US","id":4096404,"coord":{"lat":33.81427,"lon":-86.809441},"name":"Warrior"},{"country":"US","id":4096645,"coord":{"lat":33.752048,"lon":-85.811348},"name":"Weaver"},{"country":"US","id":4096678,"coord":{"lat":31.26045,"lon":-85.27327},"name":"Webb"},{"country":"US","id":4096712,"coord":{"lat":33.308998,"lon":-85.48468},"name":"Wedowee"},{"country":"US","id":4096956,"coord":{"lat":33.118172,"lon":-87.125},"name":"West Blocton"},{"country":"US","id":4097211,"coord":{"lat":33.349548,"lon":-86.53582},"name":"Westover"},{"country":"US","id":4097257,"coord":{"lat":32.543739,"lon":-86.211906},"name":"Wetumpka"},{"country":"US","id":4097588,"coord":{"lat":34.163429,"lon":-86.06942},"name":"Whitesboro"},{"country":"US","id":4098110,"coord":{"lat":33.23428,"lon":-86.483589},"name":"Wilsonville"},{"country":"US","id":4098518,"coord":{"lat":33.206779,"lon":-87.150002},"name":"Woodstock"},{"country":"US","id":4098776,"coord":{"lat":32.486252,"lon":-88.296417},"name":"York"},{"country":"US","id":4099194,"coord":{"lat":34.629539,"lon":-92.441269},"name":"Alexander"},{"country":"US","id":4099296,"coord":{"lat":35.477871,"lon":-94.221878},"name":"Alma"},{"country":"US","id":4099647,"coord":{"lat":34.12093,"lon":-93.05378},"name":"Arkadelphia"},{"country":"US","id":4099673,"coord":{"lat":33.608719,"lon":-91.206779},"name":"Arkansas City"},{"country":"US","id":4099837,"coord":{"lat":36.223961,"lon":-91.608482},"name":"Ash Flat"},{"country":"US","id":4099852,"coord":{"lat":33.67429,"lon":-94.13131},"name":"Ashdown"},{"country":"US","id":4099932,"coord":{"lat":35.246471,"lon":-92.936562},"name":"Atkins"},{"country":"US","id":4099952,"coord":{"lat":35.28231,"lon":-91.36541},"name":"Augusta"},{"country":"US","id":4099974,"coord":{"lat":34.998421,"lon":-91.983757},"name":"Austin"},{"country":"US","id":4100170,"coord":{"lat":35.309811,"lon":-91.567909},"name":"Bald Knob"},{"country":"US","id":4100348,"coord":{"lat":35.325649,"lon":-94.301598},"name":"Barling"},{"country":"US","id":4100525,"coord":{"lat":35.769798,"lon":-91.640968},"name":"Batesville"},{"country":"US","id":4100592,"coord":{"lat":35.742298,"lon":-90.562332},"name":"Bay"},{"country":"US","id":4100984,"coord":{"lat":35.070641,"lon":-91.879593},"name":"Beebe"},{"country":"US","id":4101309,"coord":{"lat":36.364792,"lon":-93.56797},"name":"Berryville"},{"country":"US","id":4101456,"coord":{"lat":36.214241,"lon":-94.129372},"name":"Bethel Heights"},{"country":"US","id":4102581,"coord":{"lat":35.90868,"lon":-90.80262},"name":"Bono"},{"country":"US","id":4102622,"coord":{"lat":35.140091,"lon":-93.921593},"name":"Booneville"},{"country":"US","id":4103042,"coord":{"lat":34.887871,"lon":-91.194572},"name":"Brinkley"},{"country":"US","id":4103117,"coord":{"lat":35.90007,"lon":-90.582047},"name":"Brookland"},{"country":"US","id":4103678,"coord":{"lat":36.383961,"lon":-92.581551},"name":"Bull Shoals"},{"country":"US","id":4104078,"coord":{"lat":36.119511,"lon":-92.135986},"name":"Calico Rock"},{"country":"US","id":4104182,"coord":{"lat":33.58456,"lon":-92.834328},"name":"Camden"},{"country":"US","id":4104566,"coord":{"lat":35.758129,"lon":-90.322319},"name":"Caraway"},{"country":"US","id":4104602,"coord":{"lat":34.78315,"lon":-91.746521},"name":"Carlisle"},{"country":"US","id":4104857,"coord":{"lat":35.941738,"lon":-91.54847},"name":"Cave City"},{"country":"US","id":4104897,"coord":{"lat":36.263409,"lon":-94.231873},"name":"Cave Springs"},{"country":"US","id":4105064,"coord":{"lat":35.569809,"lon":-94.366882},"name":"Cedarville"},{"country":"US","id":4105168,"coord":{"lat":36.359798,"lon":-94.28521},"name":"Centerton"},{"country":"US","id":4105377,"coord":{"lat":35.297039,"lon":-94.036324},"name":"Charleston"},{"country":"US","id":4105435,"coord":{"lat":36.29784,"lon":-91.515968},"name":"Cherokee Village"},{"country":"US","id":4105824,"coord":{"lat":34.69315,"lon":-91.313744},"name":"Clarendon"},{"country":"US","id":4105879,"coord":{"lat":35.47147,"lon":-93.466568},"name":"Clarksville"},{"country":"US","id":4106074,"coord":{"lat":35.591469,"lon":-92.460442},"name":"Clinton"},{"country":"US","id":4106126,"coord":{"lat":35.437309,"lon":-93.672974},"name":"Coal Hill"},{"country":"US","id":4107198,"coord":{"lat":33.128181,"lon":-91.961243},"name":"Crossett"},{"country":"US","id":4107630,"coord":{"lat":35.053982,"lon":-93.393517},"name":"Danville"},{"country":"US","id":4107641,"coord":{"lat":35.223141,"lon":-93.157951},"name":"Dardanelle"},{"country":"US","id":4107802,"coord":{"lat":34.037891,"lon":-94.341316},"name":"De Queen"},{"country":"US","id":4107823,"coord":{"lat":34.292881,"lon":-91.337898},"name":"De Witt"},{"country":"US","id":4107903,"coord":{"lat":36.335911,"lon":-94.46077},"name":"Decatur"},{"country":"US","id":4108090,"coord":{"lat":33.525391,"lon":-91.435951},"name":"Dermott"},{"country":"US","id":4108091,"coord":{"lat":34.977039,"lon":-91.495132},"name":"Des Arc"},{"country":"US","id":4108184,"coord":{"lat":35.638409,"lon":-91.265129},"name":"Diaz"},{"country":"US","id":4108212,"coord":{"lat":34.119282,"lon":-94.016579},"name":"Dierks"},{"country":"US","id":4108950,"coord":{"lat":35.40147,"lon":-93.114342},"name":"Dover"},{"country":"US","id":4109226,"coord":{"lat":33.887051,"lon":-91.491791},"name":"Dumas"},{"country":"US","id":4109406,"coord":{"lat":35.275089,"lon":-90.466766},"name":"Earle"},{"country":"US","id":4109452,"coord":{"lat":34.550652,"lon":-92.340988},"name":"East End"},{"country":"US","id":4109857,"coord":{"lat":36.001469,"lon":-94.008247},"name":"Elkins"},{"country":"US","id":4109927,"coord":{"lat":36.206188,"lon":-94.234367},"name":"Elm Springs"},{"country":"US","id":4110001,"coord":{"lat":34.544258,"lon":-91.969032},"name":"England"},{"country":"US","id":4110100,"coord":{"lat":33.10957,"lon":-91.262062},"name":"Eudora"},{"country":"US","id":4110119,"coord":{"lat":36.40118,"lon":-93.737968},"name":"Eureka Springs"},{"country":"US","id":4110233,"coord":{"lat":35.594238,"lon":-92.277931},"name":"Fairfield Bay"},{"country":"US","id":4110443,"coord":{"lat":36.042019,"lon":-94.247147},"name":"Farmington"},{"country":"US","id":4111212,"coord":{"lat":36.278961,"lon":-92.597107},"name":"Flippin"},{"country":"US","id":4111307,"coord":{"lat":33.721779,"lon":-94.396873},"name":"Foreman"},{"country":"US","id":4111319,"coord":{"lat":33.813721,"lon":-92.412933},"name":"Fordyce"},{"country":"US","id":4112110,"coord":{"lat":36.283119,"lon":-92.494049},"name":"Gassville"},{"country":"US","id":4112163,"coord":{"lat":36.267578,"lon":-94.484657},"name":"Gentry"},{"country":"US","id":4112254,"coord":{"lat":34.884258,"lon":-92.235703},"name":"Gibson"},{"country":"US","id":4112430,"coord":{"lat":34.326771,"lon":-93.550743},"name":"Glenwood"},{"country":"US","id":4112638,"coord":{"lat":35.959789,"lon":-89.972031},"name":"Gosnell"},{"country":"US","id":4112871,"coord":{"lat":34.86842,"lon":-92.190697},"name":"Gravel Ridge"},{"country":"US","id":4112898,"coord":{"lat":36.42202,"lon":-94.453552},"name":"Gravette"},{"country":"US","id":4113015,"coord":{"lat":36.33535,"lon":-93.43602},"name":"Green Forest"},{"country":"US","id":4113067,"coord":{"lat":35.233971,"lon":-92.387657},"name":"Greenbrier"},{"country":"US","id":4113143,"coord":{"lat":35.215649,"lon":-94.255768},"name":"Greenwood"},{"country":"US","id":4113407,"coord":{"lat":33.92094,"lon":-93.15406},"name":"Gurdon"},{"country":"US","id":4113607,"coord":{"lat":33.22818,"lon":-91.79763},"name":"Hamburg"},{"country":"US","id":4113647,"coord":{"lat":33.537891,"lon":-92.469879},"name":"Hampton"},{"country":"US","id":4113951,"coord":{"lat":35.564251,"lon":-90.716782},"name":"Harrisburg"},{"country":"US","id":4113956,"coord":{"lat":36.22979,"lon":-93.107681},"name":"Harrison"},{"country":"US","id":4114047,"coord":{"lat":34.50148,"lon":-92.636551},"name":"Haskell"},{"country":"US","id":4114220,"coord":{"lat":34.78093,"lon":-91.580971},"name":"Hazen"},{"country":"US","id":4114225,"coord":{"lat":35.49147,"lon":-92.031258},"name":"Heber Springs"},{"country":"US","id":4114272,"coord":{"lat":34.529549,"lon":-90.591766},"name":"Helena"},{"country":"US","id":4114673,"coord":{"lat":36.275902,"lon":-91.524033},"name":"Highland"},{"country":"US","id":4114930,"coord":{"lat":36.485352,"lon":-93.73214},"name":"Holiday Island"},{"country":"US","id":4115181,"coord":{"lat":33.667061,"lon":-93.591568},"name":"Hope"},{"country":"US","id":4115281,"coord":{"lat":33.93845,"lon":-94.357147},"name":"Horatio"},{"country":"US","id":4115334,"coord":{"lat":36.229229,"lon":-91.764313},"name":"Horseshoe Bend"},{"country":"US","id":4115429,"coord":{"lat":34.665482,"lon":-93.010002},"name":"Hot Springs Village"},{"country":"US","id":4115508,"coord":{"lat":36.05035,"lon":-90.975121},"name":"Hoxie"},{"country":"US","id":4115578,"coord":{"lat":34.949261,"lon":-90.471489},"name":"Hughes"},{"country":"US","id":4115658,"coord":{"lat":36.086189,"lon":-93.741302},"name":"Huntsville"},{"country":"US","id":4116400,"coord":{"lat":36.008129,"lon":-93.186569},"name":"Jasper"},{"country":"US","id":4116660,"coord":{"lat":36.132858,"lon":-94.165482},"name":"Johnson"},{"country":"US","id":4116896,"coord":{"lat":35.270081,"lon":-91.639862},"name":"Judsonia"},{"country":"US","id":4117358,"coord":{"lat":35.23175,"lon":-91.667641},"name":"Kensett"},{"country":"US","id":4117869,"coord":{"lat":35.816189,"lon":-90.434273},"name":"Lake City"},{"country":"US","id":4117942,"coord":{"lat":34.42453,"lon":-93.095177},"name":"Lake Hamilton"},{"country":"US","id":4118121,"coord":{"lat":33.328732,"lon":-91.281776},"name":"Lake Village"},{"country":"US","id":4118223,"coord":{"lat":35.440639,"lon":-93.387962},"name":"Lamar"},{"country":"US","id":4118277,"coord":{"lat":34.611198,"lon":-92.319603},"name":"Landmark"},{"country":"US","id":4118450,"coord":{"lat":35.336201,"lon":-94.173264},"name":"Lavaca"},{"country":"US","id":4118507,"coord":{"lat":35.935909,"lon":-90.257881},"name":"Leachville"},{"country":"US","id":4118687,"coord":{"lat":35.611191,"lon":-90.329819},"name":"Lepanto"},{"country":"US","id":4118755,"coord":{"lat":33.358459,"lon":-93.577682},"name":"Lewisville"},{"country":"US","id":4118981,"coord":{"lat":35.949532,"lon":-94.423553},"name":"Lincoln"},{"country":"US","id":4119245,"coord":{"lat":36.38591,"lon":-94.135201},"name":"Little Flock"},{"country":"US","id":4119617,"coord":{"lat":35.328972,"lon":-93.25296},"name":"London"},{"country":"US","id":4119817,"coord":{"lat":34.783981,"lon":-91.899857},"name":"Lonoke"},{"country":"US","id":4119972,"coord":{"lat":36.255348,"lon":-94.13076},"name":"Lowell"},{"country":"US","id":4120104,"coord":{"lat":35.756191,"lon":-89.928139},"name":"Luxora"},{"country":"US","id":4120323,"coord":{"lat":33.267071,"lon":-93.239326},"name":"Magnolia"},{"country":"US","id":4120388,"coord":{"lat":34.362309,"lon":-92.81295},"name":"Malvern"},{"country":"US","id":4120426,"coord":{"lat":35.88007,"lon":-90.167038},"name":"Manila"},{"country":"US","id":4120438,"coord":{"lat":35.05954,"lon":-94.252708},"name":"Mansfield"},{"country":"US","id":4120508,"coord":{"lat":34.773708,"lon":-90.757607},"name":"Marianna"},{"country":"US","id":4120524,"coord":{"lat":35.214531,"lon":-90.19648},"name":"Marion"},{"country":"US","id":4120544,"coord":{"lat":35.53286,"lon":-90.420662},"name":"Marked Tree"},{"country":"US","id":4120581,"coord":{"lat":36.187012,"lon":-90.383163},"name":"Marmaduke"},{"country":"US","id":4120611,"coord":{"lat":35.908958,"lon":-92.631271},"name":"Marshall"},{"country":"US","id":4120684,"coord":{"lat":34.55566,"lon":-90.912888},"name":"Marvell"},{"country":"US","id":4120843,"coord":{"lat":34.957031,"lon":-92.427383},"name":"Mayflower"},{"country":"US","id":4120886,"coord":{"lat":34.808418,"lon":-92.181808},"name":"McAlmont"},{"country":"US","id":4120981,"coord":{"lat":35.256199,"lon":-91.200119},"name":"McCrory"},{"country":"US","id":4121052,"coord":{"lat":33.629002,"lon":-91.399559},"name":"McGehee"},{"country":"US","id":4121256,"coord":{"lat":36.059509,"lon":-91.908478},"name":"Melbourne"},{"country":"US","id":4121297,"coord":{"lat":34.58622,"lon":-94.239662},"name":"Mena"},{"country":"US","id":4121436,"coord":{"lat":36.385342,"lon":-92.46183},"name":"Midway"},{"country":"US","id":4121792,"coord":{"lat":33.875118,"lon":-93.913803},"name":"Mineral Springs"},{"country":"US","id":4121954,"coord":{"lat":35.890629,"lon":-90.344269},"name":"Monette"},{"country":"US","id":4122015,"coord":{"lat":33.629002,"lon":-91.790962},"name":"Monticello"},{"country":"US","id":4122218,"coord":{"lat":35.150921,"lon":-92.744049},"name":"Morrilton"},{"country":"US","id":4122466,"coord":{"lat":34.556759,"lon":-93.634079},"name":"Mount Ida"},{"country":"US","id":4122986,"coord":{"lat":35.868408,"lon":-92.117653},"name":"Mountain View"},{"country":"US","id":4123037,"coord":{"lat":36.335339,"lon":-92.385162},"name":"Mountain Home"},{"country":"US","id":4123120,"coord":{"lat":35.500641,"lon":-94.05159},"name":"Mulberry"},{"country":"US","id":4123162,"coord":{"lat":34.062328,"lon":-93.689903},"name":"Murfreesboro"},{"country":"US","id":4123271,"coord":{"lat":33.945671,"lon":-93.84713},"name":"Nashville"},{"country":"US","id":4123800,"coord":{"lat":35.70174,"lon":-91.441521},"name":"Newark"},{"country":"US","id":4123830,"coord":{"lat":35.604801,"lon":-91.281799},"name":"Newport"},{"country":"US","id":4124039,"coord":{"lat":33.16568,"lon":-91.941521},"name":"North Crossett"},{"country":"US","id":4124671,"coord":{"lat":35.03231,"lon":-93.223228},"name":"Ola"},{"country":"US","id":4125181,"coord":{"lat":35.48703,"lon":-93.827698},"name":"Ozark"},{"country":"US","id":4125402,"coord":{"lat":35.29203,"lon":-93.729919},"name":"Paris"},{"country":"US","id":4125487,"coord":{"lat":35.26342,"lon":-90.57122},"name":"Parkin"},{"country":"US","id":4125668,"coord":{"lat":33.920658,"lon":-91.336792},"name":"Pea Ridge"},{"country":"US","id":4125681,"coord":{"lat":36.45396,"lon":-94.115196},"name":"Pea Ridge"},{"country":"US","id":4125875,"coord":{"lat":35.00481,"lon":-92.802673},"name":"Perryville"},{"country":"US","id":4126105,"coord":{"lat":36.382839,"lon":-90.190651},"name":"Piggott"},{"country":"US","id":4126416,"coord":{"lat":34.503139,"lon":-93.126022},"name":"Piney"},{"country":"US","id":4126923,"coord":{"lat":36.261459,"lon":-90.97123},"name":"Pocahontas"},{"country":"US","id":4127256,"coord":{"lat":35.248138,"lon":-93.049057},"name":"Pottsville"},{"country":"US","id":4127332,"coord":{"lat":36.342018,"lon":-94.061867},"name":"Prairie Creek"},{"country":"US","id":4127359,"coord":{"lat":35.97591,"lon":-94.317711},"name":"Prairie Grove"},{"country":"US","id":4127433,"coord":{"lat":33.802608,"lon":-93.381012},"name":"Prescott"},{"country":"US","id":4127973,"coord":{"lat":36.263119,"lon":-90.292603},"name":"Rector"},{"country":"US","id":4128103,"coord":{"lat":34.445099,"lon":-92.183197},"name":"Redfield"},{"country":"US","id":4128469,"coord":{"lat":33.958431,"lon":-92.190147},"name":"Rison"},{"country":"US","id":4129962,"coord":{"lat":36.371181,"lon":-91.822647},"name":"Salem"},{"country":"US","id":4129965,"coord":{"lat":34.628979,"lon":-92.55822},"name":"Salem"},{"country":"US","id":4130703,"coord":{"lat":34.62009,"lon":-92.395432},"name":"Shannon Hills"},{"country":"US","id":4130821,"coord":{"lat":34.307041,"lon":-92.401268},"name":"Sheridan"},{"country":"US","id":4131396,"coord":{"lat":33.364849,"lon":-92.724876},"name":"Smackover"},{"country":"US","id":4132194,"coord":{"lat":33.365398,"lon":-93.495178},"name":"Stamps"},{"country":"US","id":4132227,"coord":{"lat":33.942879,"lon":-91.843468},"name":"Star City"},{"country":"US","id":4132625,"coord":{"lat":34.50037,"lon":-91.552628},"name":"Stuttgart"},{"country":"US","id":4132772,"coord":{"lat":34.180649,"lon":-92.123482},"name":"Sulphur Springs"},{"country":"US","id":4133707,"coord":{"lat":36.17786,"lon":-94.233543},"name":"Tontitown"},{"country":"US","id":4133933,"coord":{"lat":35.673691,"lon":-90.507332},"name":"Trumann"},{"country":"US","id":4133971,"coord":{"lat":35.730629,"lon":-91.198463},"name":"Tuckerman"},{"country":"US","id":4134871,"coord":{"lat":35.083981,"lon":-92.207932},"name":"Vilonia"},{"country":"US","id":4134993,"coord":{"lat":33.351509,"lon":-93.295731},"name":"Waldo"},{"country":"US","id":4135205,"coord":{"lat":36.068401,"lon":-90.955948},"name":"Walnut Ridge"},{"country":"US","id":4135279,"coord":{"lat":35.030361,"lon":-91.950417},"name":"Ward"},{"country":"US","id":4135349,"coord":{"lat":33.61261,"lon":-92.064583},"name":"Warren"},{"country":"US","id":4135746,"coord":{"lat":33.140961,"lon":-91.994019},"name":"West Crossett"},{"country":"US","id":4135763,"coord":{"lat":35.924252,"lon":-94.188538},"name":"West Fork"},{"country":"US","id":4135840,"coord":{"lat":34.550659,"lon":-90.641769},"name":"West Helena"},{"country":"US","id":4136153,"coord":{"lat":34.273991,"lon":-92.090981},"name":"White Hall"},{"country":"US","id":4137171,"coord":{"lat":34.602322,"lon":-92.21682},"name":"Wrightsville"},{"country":"US","id":4137215,"coord":{"lat":35.224529,"lon":-90.786781},"name":"Wynne"},{"country":"US","id":4137291,"coord":{"lat":36.226181,"lon":-92.684891},"name":"Yellville"},{"country":"US","id":4141402,"coord":{"lat":39.76622,"lon":-75.509361},"name":"Bellefonte"},{"country":"US","id":4141435,"coord":{"lat":38.539558,"lon":-75.055183},"name":"Bethany Beach"},{"country":"US","id":4141541,"coord":{"lat":38.63567,"lon":-75.609932},"name":"Blades"},{"country":"US","id":4141632,"coord":{"lat":38.742611,"lon":-75.60437},"name":"Bridgeville"},{"country":"US","id":4141674,"coord":{"lat":39.667061,"lon":-75.726883},"name":"Brookside"},{"country":"US","id":4141748,"coord":{"lat":39.113449,"lon":-75.54187},"name":"Camden"},{"country":"US","id":4141903,"coord":{"lat":39.21928,"lon":-75.585762},"name":"Cheswold"},{"country":"US","id":4141974,"coord":{"lat":39.800671,"lon":-75.459641},"name":"Claymont"},{"country":"US","id":4141982,"coord":{"lat":39.290668,"lon":-75.634369},"name":"Clayton"},{"country":"US","id":4142191,"coord":{"lat":39.577888,"lon":-75.588821},"name":"Delaware City"},{"country":"US","id":4142226,"coord":{"lat":38.456509,"lon":-75.577148},"name":"Delmar"},{"country":"US","id":4142398,"coord":{"lat":39.750111,"lon":-75.499641},"name":"Edgemoor"},{"country":"US","id":4142424,"coord":{"lat":39.739281,"lon":-75.597977},"name":"Elsmere"},{"country":"US","id":4142485,"coord":{"lat":39.00845,"lon":-75.57798},"name":"Felton"},{"country":"US","id":4142643,"coord":{"lat":38.690109,"lon":-75.385468},"name":"Georgetown"},{"country":"US","id":4142683,"coord":{"lat":39.604832,"lon":-75.745209},"name":"Glasgow"},{"country":"US","id":4142766,"coord":{"lat":39.778999,"lon":-75.598259},"name":"Greenville"},{"country":"US","id":4142841,"coord":{"lat":38.923721,"lon":-75.577698},"name":"Harrington"},{"country":"US","id":4142942,"coord":{"lat":39.120949,"lon":-75.521873},"name":"Highland Acres"},{"country":"US","id":4142969,"coord":{"lat":39.787609,"lon":-75.696602},"name":"Hockessin"},{"country":"US","id":4143218,"coord":{"lat":39.131779,"lon":-75.524918},"name":"Kent Acres"},{"country":"US","id":4143319,"coord":{"lat":38.556499,"lon":-75.571312},"name":"Laurel"},{"country":"US","id":4143354,"coord":{"lat":38.774559,"lon":-75.139351},"name":"Lewes"},{"country":"US","id":4143459,"coord":{"lat":38.62011,"lon":-75.150742},"name":"Long Neck"},{"country":"US","id":4143658,"coord":{"lat":38.912609,"lon":-75.427971},"name":"Milford"},{"country":"US","id":4143690,"coord":{"lat":38.591499,"lon":-75.291298},"name":"Millsboro"},{"country":"US","id":4143698,"coord":{"lat":38.777611,"lon":-75.309914},"name":"Milton"},{"country":"US","id":4143834,"coord":{"lat":39.66206,"lon":-75.566307},"name":"New Castle"},{"country":"US","id":4143871,"coord":{"lat":39.713718,"lon":-75.609367},"name":"Newport"},{"country":"US","id":4143897,"coord":{"lat":39.761219,"lon":-75.719101},"name":"North Star"},{"country":"US","id":4144100,"coord":{"lat":39.730949,"lon":-75.704102},"name":"Pike Creek"},{"country":"US","id":4144101,"coord":{"lat":39.736221,"lon":-75.698273},"name":"Pike Creek Valley"},{"country":"US","id":4144284,"coord":{"lat":38.720951,"lon":-75.076012},"name":"Rehoboth Beach"},{"country":"US","id":4144338,"coord":{"lat":39.026501,"lon":-75.510757},"name":"Riverview"},{"country":"US","id":4144366,"coord":{"lat":39.132061,"lon":-75.532417},"name":"Rodney Village"},{"country":"US","id":4144600,"coord":{"lat":38.641232,"lon":-75.611038},"name":"Seaford"},{"country":"US","id":4144620,"coord":{"lat":38.460388,"lon":-75.220741},"name":"Selbyville"},{"country":"US","id":4144764,"coord":{"lat":39.299831,"lon":-75.604652},"name":"Smyrna"},{"country":"US","id":4145047,"coord":{"lat":39.395111,"lon":-75.691597},"name":"Townsend"},{"country":"US","id":4145395,"coord":{"lat":39.686779,"lon":-75.584373},"name":"Wilmington Manor"},{"country":"US","id":4145483,"coord":{"lat":39.118172,"lon":-75.558807},"name":"Wyoming"},{"country":"US","id":4145719,"coord":{"lat":29.751631,"lon":-82.424828},"name":"Alachua"},{"country":"US","id":4145956,"coord":{"lat":27.871691,"lon":-81.71508},"name":"Alturas"},{"country":"US","id":4146039,"coord":{"lat":25.96843,"lon":-80.21283},"name":"Andover"},{"country":"US","id":4146082,"coord":{"lat":27.531151,"lon":-82.733429},"name":"Anna Maria"},{"country":"US","id":4146148,"coord":{"lat":29.725771,"lon":-84.983238},"name":"Apalachicola"},{"country":"US","id":4146161,"coord":{"lat":27.773081,"lon":-82.407593},"name":"Apollo Beach"},{"country":"US","id":4146206,"coord":{"lat":27.215879,"lon":-81.858421},"name":"Arcadia"},{"country":"US","id":4146219,"coord":{"lat":29.52997,"lon":-82.518997},"name":"Archer"},{"country":"US","id":4146302,"coord":{"lat":30.049129,"lon":-81.821487},"name":"Asbury Lake"},{"country":"US","id":4146338,"coord":{"lat":28.709721,"lon":-81.732849},"name":"Astatula"},{"country":"US","id":4146339,"coord":{"lat":29.162479,"lon":-81.525352},"name":"Astor"},{"country":"US","id":4146354,"coord":{"lat":30.33441,"lon":-81.398697},"name":"Atlantic Beach"},{"country":"US","id":4146372,"coord":{"lat":26.5909,"lon":-80.100883},"name":"Atlantis"},{"country":"US","id":4146389,"coord":{"lat":28.0653,"lon":-81.788689},"name":"Auburndale"},{"country":"US","id":4146440,"coord":{"lat":27.595869,"lon":-81.506187},"name":"Avon Park"},{"country":"US","id":4146481,"coord":{"lat":27.83197,"lon":-81.522301},"name":"Babson Park"},{"country":"US","id":4146494,"coord":{"lat":30.598801,"lon":-87.031082},"name":"Bagdad"},{"country":"US","id":4146564,"coord":{"lat":25.89176,"lon":-80.126991},"name":"Bal Harbour"},{"country":"US","id":4146570,"coord":{"lat":30.30274,"lon":-81.975388},"name":"Baldwin"},{"country":"US","id":4146588,"coord":{"lat":27.75947,"lon":-82.2612},"name":"Balm"},{"country":"US","id":4146823,"coord":{"lat":25.88759,"lon":-80.131157},"name":"Bay Harbor Islands"},