[{"country":"ID","id":8068788,"coord":{"lat":-6.7334,"lon":111.608902},"name":"Mojokerto"},{"country":"ID","id":8068798,"coord":{"lat":-6.7457,"lon":111.617401},"name":"Balongteki"},{"country":"ID","id":8069629,"coord":{"lat":-7.6237,"lon":108.720497},"name":"Bulakbanjar"},{"country":"ID","id":8069659,"coord":{"lat":-7.51,"lon":108.673599},"name":"Pasirgeulis"},{"country":"ID","id":8069663,"coord":{"lat":-7.513,"lon":108.653702},"name":"Ciulu"},{"country":"ID","id":8069669,"coord":{"lat":-7.5115,"lon":108.631897},"name":"Cangkring"},{"country":"ID","id":8069677,"coord":{"lat":-7.5208,"lon":108.674698},"name":"Sopla"},{"country":"ID","id":8069687,"coord":{"lat":-7.5176,"lon":108.730698},"name":"Maruyungsari"},{"country":"ID","id":8069717,"coord":{"lat":-7.5407,"lon":108.7258},"name":"Ciilat"},{"country":"ID","id":8069722,"coord":{"lat":-7.5418,"lon":108.697304},"name":"Patingen Dua"},{"country":"ID","id":8069726,"coord":{"lat":-7.5458,"lon":108.6847},"name":"Burujul"},{"country":"ID","id":8069734,"coord":{"lat":-7.5566,"lon":108.653603},"name":"Cinangka"},{"country":"ID","id":8069754,"coord":{"lat":-7.5632,"lon":108.694603},"name":"Nagrak"},{"country":"ID","id":8069765,"coord":{"lat":-7.5699,"lon":108.699699},"name":"Kawarasan"},{"country":"ID","id":8069779,"coord":{"lat":-7.578,"lon":108.6763},"name":"Babakanjaya"},{"country":"ID","id":8069793,"coord":{"lat":-7.5857,"lon":108.714401},"name":"Cihideung"},{"country":"ID","id":8069805,"coord":{"lat":-7.5979,"lon":108.6716},"name":"Ciparakan"},{"country":"ID","id":8069818,"coord":{"lat":-7.6132,"lon":108.724602},"name":"Cintamaju"},{"country":"ID","id":8069832,"coord":{"lat":-6.69726,"lon":111.622292},"name":"Kragan"},{"country":"ID","id":8070097,"coord":{"lat":-7.4039,"lon":108.655701},"name":"Sukanagara"},{"country":"ID","id":8070098,"coord":{"lat":-7.3943,"lon":108.6614},"name":"Kalapagada"},{"country":"ID","id":8070100,"coord":{"lat":-7.3825,"lon":108.656502},"name":"Tambakreja"},{"country":"ID","id":8070108,"coord":{"lat":-7.3887,"lon":108.675903},"name":"Pondokunyur"},{"country":"ID","id":8070113,"coord":{"lat":-7.4011,"lon":108.6828},"name":"Baregbeg"},{"country":"ID","id":8070124,"coord":{"lat":-7.4084,"lon":108.7127},"name":"Cilongkrang"},{"country":"ID","id":8070134,"coord":{"lat":-7.4001,"lon":108.748199},"name":"Sawangan"},{"country":"ID","id":8070138,"coord":{"lat":-7.4375,"lon":108.732399},"name":"Gayamsari"},{"country":"ID","id":8070140,"coord":{"lat":-7.4329,"lon":108.7491},"name":"Candimulya"},{"country":"ID","id":8070150,"coord":{"lat":-7.4301,"lon":108.7146},"name":"Sarimukti Kaler"},{"country":"ID","id":8070153,"coord":{"lat":-7.4453,"lon":108.703499},"name":"Talangbanteng"},{"country":"ID","id":8070155,"coord":{"lat":-7.4204,"lon":108.695099},"name":"Jamban"},{"country":"ID","id":8070165,"coord":{"lat":-7.4187,"lon":108.665604},"name":"Banjarharja"},{"country":"ID","id":8070169,"coord":{"lat":-7.4365,"lon":108.666397},"name":"Karangpaningal"},{"country":"ID","id":8070199,"coord":{"lat":-7.4936,"lon":108.627701},"name":"Ciherang"},{"country":"ID","id":8070207,"coord":{"lat":-7.4536,"lon":108.642303},"name":"Cakungsari"},{"country":"ID","id":8070209,"coord":{"lat":-7.46219,"lon":108.645531},"name":"Pangarengan"},{"country":"ID","id":8070212,"coord":{"lat":-7.4769,"lon":108.6409},"name":"Purwasari"},{"country":"ID","id":8070233,"coord":{"lat":-7.4872,"lon":108.670799},"name":"Jangraga"},{"country":"ID","id":8070250,"coord":{"lat":-7.4589,"lon":108.687202},"name":"Sindangrasa"},{"country":"ID","id":8070269,"coord":{"lat":-7.4896,"lon":108.717499},"name":"Cogekan"},{"country":"ID","id":8070277,"coord":{"lat":-7.456,"lon":108.731102},"name":"Pasirgaru"},{"country":"ID","id":8070287,"coord":{"lat":-7.4676,"lon":108.744904},"name":"Margasari"},{"country":"ID","id":8070776,"coord":{"lat":-6.7561,"lon":111.390404},"name":"Kerep Wetan"},{"country":"ID","id":8070785,"coord":{"lat":-6.7551,"lon":111.463997},"name":"Ringin"},{"country":"ID","id":8070789,"coord":{"lat":-6.7674,"lon":111.412697},"name":"Segoro"},{"country":"ID","id":8070790,"coord":{"lat":-6.7585,"lon":111.428101},"name":"Gondang"},{"country":"ID","id":8070793,"coord":{"lat":-6.7625,"lon":111.487701},"name":"Sridadi"},{"country":"ID","id":8070801,"coord":{"lat":-6.7696,"lon":111.420502},"name":"Kepohagung"},{"country":"ID","id":8070803,"coord":{"lat":-6.7754,"lon":111.417801},"name":"Mlawat"},{"country":"ID","id":8070804,"coord":{"lat":-6.7712,"lon":111.431099},"name":"Kembang"},{"country":"ID","id":8070813,"coord":{"lat":-6.7675,"lon":111.474098},"name":"Sidorejo"},{"country":"ID","id":8070814,"coord":{"lat":-6.7747,"lon":111.475899},"name":"Samaran"},{"country":"ID","id":8070821,"coord":{"lat":-6.7773,"lon":111.378899},"name":"Kapasan"},{"country":"ID","id":8070826,"coord":{"lat":-6.783,"lon":111.4244},"name":"Mlagen"},{"country":"ID","id":8070828,"coord":{"lat":-6.7755,"lon":111.447403},"name":"Tempaling"},{"country":"ID","id":8070839,"coord":{"lat":-6.7896,"lon":111.417603},"name":"Korowelang"},{"country":"ID","id":8070844,"coord":{"lat":-6.7854,"lon":111.448402},"name":"Tempel"},{"country":"ID","id":8070845,"coord":{"lat":-6.7888,"lon":111.454803},"name":"Ngemplakrejo Lor"},{"country":"ID","id":8070848,"coord":{"lat":-6.7896,"lon":111.465103},"name":"Pragen Selatan"},{"country":"ID","id":8070851,"coord":{"lat":-6.796,"lon":111.399902},"name":"Karangori Kidul"},{"country":"ID","id":8070853,"coord":{"lat":-6.7986,"lon":111.420197},"name":"Sambong"},{"country":"ID","id":8070854,"coord":{"lat":-6.7946,"lon":111.4282},"name":"Karanganyar"},{"country":"ID","id":8070858,"coord":{"lat":-6.7988,"lon":111.495102},"name":"Gambiran"},{"country":"ID","id":8070864,"coord":{"lat":-6.8032,"lon":111.391403},"name":"Ngemplak Kidul"},{"country":"ID","id":8070866,"coord":{"lat":-6.8029,"lon":111.415001},"name":"Rukem"},{"country":"ID","id":8070869,"coord":{"lat":-6.8072,"lon":111.430298},"name":"Demaan"},{"country":"ID","id":8070870,"coord":{"lat":-6.7996,"lon":111.4646},"name":"Kulutan"},{"country":"ID","id":8070871,"coord":{"lat":-6.806,"lon":111.460503},"name":"Sidomulyo"},{"country":"ID","id":8070875,"coord":{"lat":-6.8101,"lon":111.3797},"name":"Tegalsari"},{"country":"ID","id":8070877,"coord":{"lat":-6.8165,"lon":111.382202},"name":"Kemadu"},{"country":"ID","id":8070879,"coord":{"lat":-6.8138,"lon":111.412598},"name":"Pomahan"},{"country":"ID","id":8070884,"coord":{"lat":-6.815,"lon":111.436996},"name":"Panohan"},{"country":"ID","id":8070887,"coord":{"lat":-6.8129,"lon":111.454498},"name":"Telgawah"},{"country":"ID","id":8070891,"coord":{"lat":-6.8101,"lon":111.490402},"name":"Trembes"},{"country":"ID","id":8070900,"coord":{"lat":-6.8373,"lon":111.386398},"name":"Ponjen"},{"country":"ID","id":8070929,"coord":{"lat":-6.843,"lon":111.405602},"name":"Jukung"},{"country":"ID","id":8070942,"coord":{"lat":-6.8541,"lon":111.482597},"name":"Pesucen"},{"country":"ID","id":8070944,"coord":{"lat":-6.8632,"lon":111.381798},"name":"Pasedan Dua"},{"country":"ID","id":8070951,"coord":{"lat":-6.8598,"lon":111.428802},"name":"Kebon"},{"country":"ID","id":8070952,"coord":{"lat":-6.8601,"lon":111.431198},"name":"Kadiwono"},{"country":"ID","id":8070954,"coord":{"lat":-6.8598,"lon":111.487198},"name":"Timbrangan"},{"country":"ID","id":8070955,"coord":{"lat":-6.8141,"lon":111.446404},"name":"Sendangmulyo"},{"country":"ID","id":8070998,"coord":{"lat":-6.8821,"lon":111.480598},"name":"Kajar"},{"country":"ID","id":8071007,"coord":{"lat":-6.8933,"lon":111.441704},"name":"Ngampel"},{"country":"ID","id":8071010,"coord":{"lat":-6.8894,"lon":111.492302},"name":"Waru"},{"country":"ID","id":8071022,"coord":{"lat":-6.8988,"lon":111.468498},"name":"Kemiren"},{"country":"ID","id":8071026,"coord":{"lat":-6.8994,"lon":111.487297},"name":"Karangasem"},{"country":"ID","id":8071038,"coord":{"lat":-6.915,"lon":111.382797},"name":"Semanten"},{"country":"ID","id":8071042,"coord":{"lat":-6.9112,"lon":111.411499},"name":"Geneng"},{"country":"ID","id":8071047,"coord":{"lat":-6.9113,"lon":111.433899},"name":"Sitirejo"},{"country":"ID","id":8071048,"coord":{"lat":-6.9136,"lon":111.439598},"name":"Medang"},{"country":"ID","id":8071051,"coord":{"lat":-6.9141,"lon":111.446899},"name":"Ngadipurwo"},{"country":"ID","id":8071053,"coord":{"lat":-6.9116,"lon":111.461197},"name":"Tempuran"},{"country":"ID","id":8071065,"coord":{"lat":-6.9231,"lon":111.434303},"name":"Kalirejo"},{"country":"ID","id":8071068,"coord":{"lat":-6.9246,"lon":111.450401},"name":"Karanggeneng"},{"country":"ID","id":8071069,"coord":{"lat":-6.9204,"lon":111.471397},"name":"Jatirejo"},{"country":"ID","id":8071075,"coord":{"lat":-6.9263,"lon":111.398003},"name":"Ngundaan"},{"country":"ID","id":8071081,"coord":{"lat":-6.934,"lon":111.430901},"name":"Tambaksari Satu"},{"country":"ID","id":8071086,"coord":{"lat":-6.9273,"lon":111.469498},"name":"Bacem"},{"country":"ID","id":8071088,"coord":{"lat":-6.9327,"lon":111.481003},"name":"Sarirejo"},{"country":"ID","id":8071089,"coord":{"lat":-6.9284,"lon":111.488602},"name":"Karanganyar"},{"country":"ID","id":8071098,"coord":{"lat":-6.9345,"lon":111.459099},"name":"Puledagel"},{"country":"ID","id":8071101,"coord":{"lat":-6.9387,"lon":111.472397},"name":"Kawengan"},{"country":"ID","id":8071103,"coord":{"lat":-6.9406,"lon":111.485901},"name":"Gombang"},{"country":"ID","id":8071105,"coord":{"lat":-6.9381,"lon":111.496803},"name":"Karang"},{"country":"ID","id":8071114,"coord":{"lat":-6.9442,"lon":111.445099},"name":"Patalan"},{"country":"ID","id":8071116,"coord":{"lat":-6.9483,"lon":111.4562},"name":"Gendangdowo"},{"country":"ID","id":8071119,"coord":{"lat":-6.954,"lon":111.380203},"name":"Jembangan"},{"country":"ID","id":8071126,"coord":{"lat":-6.956,"lon":111.426201},"name":"Karangjati"},{"country":"ID","id":8071129,"coord":{"lat":-6.9516,"lon":111.433502},"name":"Wonosari"},{"country":"ID","id":8071134,"coord":{"lat":-6.9572,"lon":111.456596},"name":"Gersi"},{"country":"ID","id":8071138,"coord":{"lat":-6.9661,"lon":111.3769},"name":"Maguwon"},{"country":"ID","id":8071142,"coord":{"lat":-6.9627,"lon":111.411697},"name":"Kunden"},{"country":"ID","id":8071143,"coord":{"lat":-6.9693,"lon":111.408401},"name":"Kauman"},{"country":"ID","id":8071144,"coord":{"lat":-6.9656,"lon":111.415604},"name":"Tempelan"},{"country":"ID","id":8071145,"coord":{"lat":-6.9609,"lon":111.419502},"name":"Tegalgunung"},{"country":"ID","id":8071150,"coord":{"lat":-6.9622,"lon":111.451599},"name":"Nglaroh"},{"country":"ID","id":8071152,"coord":{"lat":-6.9635,"lon":111.463402},"name":"Gondang"},{"country":"ID","id":8071155,"coord":{"lat":-6.9635,"lon":111.4823},"name":"Nglarohgunung"},{"country":"ID","id":8071157,"coord":{"lat":-6.9705,"lon":111.390099},"name":"Tutup"},{"country":"ID","id":8071158,"coord":{"lat":-6.9696,"lon":111.399803},"name":"Kajangansawan"},{"country":"ID","id":8071159,"coord":{"lat":-6.9746,"lon":111.407097},"name":"Potlot"},{"country":"ID","id":8071160,"coord":{"lat":-6.9741,"lon":111.415199},"name":"Mlangsen"},{"country":"ID","id":8071161,"coord":{"lat":-6.9706,"lon":111.430702},"name":"Bangkle"},{"country":"ID","id":8071163,"coord":{"lat":-6.9751,"lon":111.449203},"name":"Jejerukrajan"},{"country":"ID","id":8071165,"coord":{"lat":-6.9683,"lon":111.454697},"name":"Seso"},{"country":"ID","id":8071168,"coord":{"lat":-6.9766,"lon":111.458298},"name":"Cangkringan"},{"country":"ID","id":8071176,"coord":{"lat":-6.979,"lon":111.478996},"name":"Jeponkrajan"},{"country":"ID","id":8071179,"coord":{"lat":-6.9773,"lon":111.496101},"name":"Tempel"},{"country":"ID","id":8071186,"coord":{"lat":-6.9764,"lon":111.410202},"name":"Jetis"},{"country":"ID","id":8071187,"coord":{"lat":-6.9758,"lon":111.420998},"name":"Kedungjenar"},{"country":"ID","id":8071194,"coord":{"lat":-6.9871,"lon":111.397003},"name":"Karangnongko"},{"country":"ID","id":8071198,"coord":{"lat":-6.9822,"lon":111.450104},"name":"Sumurboto"},{"country":"ID","id":8071202,"coord":{"lat":-6.9868,"lon":111.4646},"name":"Turirejo"},{"country":"ID","id":8071205,"coord":{"lat":-6.9913,"lon":111.487701},"name":"Kemiri"},{"country":"ID","id":8071209,"coord":{"lat":-6.9949,"lon":111.413002},"name":"Bangeran"},{"country":"ID","id":8071212,"coord":{"lat":-6.9976,"lon":111.432701},"name":"Pelem"},{"country":"ID","id":8071213,"coord":{"lat":-6.9943,"lon":111.439796},"name":"Dengok"},{"country":"ID","id":8071216,"coord":{"lat":-6.9883,"lon":111.482803},"name":"Semampir"},{"country":"ID","id":8071221,"coord":{"lat":-6.9463,"lon":111.4981},"name":"Prantaan"},{"country":"ID","id":8072321,"coord":{"lat":-7.2738,"lon":108.638199},"name":"Kubang"},{"country":"ID","id":8072370,"coord":{"lat":-7.2934,"lon":108.744102},"name":"Cibeunying"},{"country":"ID","id":8072382,"coord":{"lat":-7.3015,"lon":108.724899},"name":"Karanggedang"},{"country":"ID","id":8072392,"coord":{"lat":-7.3025,"lon":108.710197},"name":"Limbangan"},{"country":"ID","id":8072407,"coord":{"lat":-7.3041,"lon":108.686203},"name":"Malabar"},{"country":"ID","id":8072429,"coord":{"lat":-7.3056,"lon":108.647102},"name":"Cimalati"},{"country":"ID","id":8072444,"coord":{"lat":-7.3657,"lon":108.640503},"name":"Babakan"},{"country":"ID","id":8072446,"coord":{"lat":-7.3574,"lon":108.638199},"name":"Sinargalih"},{"country":"ID","id":8072448,"coord":{"lat":-7.3521,"lon":108.636299},"name":"Sukahurip"},{"country":"ID","id":8072450,"coord":{"lat":-7.3314,"lon":108.644997},"name":"Karanganyar"},{"country":"ID","id":8072491,"coord":{"lat":-7.3715,"lon":108.678902},"name":"Cintaratu"},{"country":"ID","id":8072494,"coord":{"lat":-7.3279,"lon":108.683296},"name":"Sogati"},{"country":"ID","id":8072496,"coord":{"lat":-7.33371,"lon":108.689827},"name":"Cihandiwung Lor"},{"country":"ID","id":8072503,"coord":{"lat":-7.3572,"lon":108.702599},"name":"Winangun"},{"country":"ID","id":8073123,"coord":{"lat":-6.766,"lon":111.533096},"name":"Pacing"},{"country":"ID","id":8073125,"coord":{"lat":-6.7614,"lon":111.527199},"name":"Ngulahan"},{"country":"ID","id":8073126,"coord":{"lat":-6.7751,"lon":111.514999},"name":"Bangunrejo"},{"country":"ID","id":8073138,"coord":{"lat":-6.7936,"lon":111.519402},"name":"Bamban"},{"country":"ID","id":8073139,"coord":{"lat":-6.8042,"lon":111.511703},"name":"Ukir"},{"country":"ID","id":8073140,"coord":{"lat":-6.8099,"lon":111.513702},"name":"Rendeng"},{"country":"ID","id":8073151,"coord":{"lat":-6.8371,"lon":111.5438},"name":"Tengger"},{"country":"ID","id":8073162,"coord":{"lat":-6.8396,"lon":111.504303},"name":"Dowan"},{"country":"ID","id":8073164,"coord":{"lat":-6.8475,"lon":111.508102},"name":"Suntri"},{"country":"ID","id":8073167,"coord":{"lat":-6.8563,"lon":111.503197},"name":"Tegaldowo"},{"country":"ID","id":8073168,"coord":{"lat":-6.8401,"lon":111.520401},"name":"Jatirego"},{"country":"ID","id":8073173,"coord":{"lat":-6.7501,"lon":111.615997},"name":"Nglojo"},{"country":"ID","id":8073182,"coord":{"lat":-6.7559,"lon":111.594498},"name":"Gobreh"},{"country":"ID","id":8073187,"coord":{"lat":-6.7625,"lon":111.5765},"name":"Kedungdowo"},{"country":"ID","id":8073197,"coord":{"lat":-6.7782,"lon":111.556602},"name":"Krajankaras"},{"country":"ID","id":8073205,"coord":{"lat":-6.7794,"lon":111.565903},"name":"Mangseng"},{"country":"ID","id":8073212,"coord":{"lat":-6.7785,"lon":111.571198},"name":"Gesikan"},{"country":"ID","id":8073213,"coord":{"lat":-6.7859,"lon":111.574402},"name":"Sambirata"},{"country":"ID","id":8073224,"coord":{"lat":-6.7841,"lon":111.606598},"name":"Krajan Lodan Kulon"},{"country":"ID","id":8073229,"coord":{"lat":-6.7628,"lon":111.613297},"name":"Tanggulangin"},{"country":"ID","id":8073230,"coord":{"lat":-6.7664,"lon":111.609596},"name":"Selo"},{"country":"ID","id":8073238,"coord":{"lat":-6.8526,"lon":111.584801},"name":"Wonokerto"},{"country":"ID","id":8073246,"coord":{"lat":-6.864,"lon":111.624702},"name":"Kebonharjo"},{"country":"ID","id":8073253,"coord":{"lat":-6.8617,"lon":111.606697},"name":"Krajan Sale"},{"country":"ID","id":8073255,"coord":{"lat":-6.8664,"lon":111.586098},"name":"Joho"},{"country":"ID","id":8073497,"coord":{"lat":-7.1928,"lon":108.6334},"name":"Kaduluhur"},{"country":"ID","id":8073521,"coord":{"lat":-7.2319,"lon":108.6735},"name":"Palugon"},{"country":"ID","id":8073566,"coord":{"lat":-7.2435,"lon":108.7435},"name":"Sindangjati"},{"country":"ID","id":8073574,"coord":{"lat":-7.1834,"lon":108.741997},"name":"Gunungjaya"},{"country":"ID","id":8073577,"coord":{"lat":-7.1616,"lon":108.743301},"name":"Salanegara"},{"country":"ID","id":8073621,"coord":{"lat":-6.75307,"lon":111.563881},"name":"Krajanpondong"},{"country":"ID","id":8073623,"coord":{"lat":-6.82439,"lon":111.509331},"name":"Pakis"},{"country":"ID","id":8073766,"coord":{"lat":-7.0082,"lon":108.648201},"name":"Dukuhmaja"},{"country":"ID","id":8073772,"coord":{"lat":-7.0041,"lon":108.710602},"name":"Pakusari"},{"country":"ID","id":8073784,"coord":{"lat":-7.0208,"lon":108.635902},"name":"Luragung Tonggoh"},{"country":"ID","id":8073787,"coord":{"lat":-7.0103,"lon":108.632896},"name":"Sindangsuka"},{"country":"ID","id":8073791,"coord":{"lat":-7.0199,"lon":108.665802},"name":"Cikadu Wetan"},{"country":"ID","id":8073792,"coord":{"lat":-7.0257,"lon":108.675201},"name":"Cileuya"},{"country":"ID","id":8073793,"coord":{"lat":-7.0202,"lon":108.7257},"name":"Cimulya"},{"country":"ID","id":8073801,"coord":{"lat":-7.028,"lon":108.635201},"name":"Cigedang"},{"country":"ID","id":8073802,"coord":{"lat":-7.0309,"lon":108.625298},"name":"Sindangsari"},{"country":"ID","id":8073803,"coord":{"lat":-7.0378,"lon":108.626297},"name":"Wilanagara"},{"country":"ID","id":8073804,"coord":{"lat":-7.0386,"lon":108.638702},"name":"Baok"},{"country":"ID","id":8073805,"coord":{"lat":-7.0379,"lon":108.652397},"name":"Andamui"},{"country":"ID","id":8073812,"coord":{"lat":-7.0376,"lon":108.721497},"name":"Cirangrang"},{"country":"ID","id":8073814,"coord":{"lat":-7.0351,"lon":108.747902},"name":"Cisaat"},{"country":"ID","id":8073816,"coord":{"lat":-7.0442,"lon":108.729301},"name":"Parenca Wetan"},{"country":"ID","id":8073827,"coord":{"lat":-7.0437,"lon":108.628304},"name":"Dukuhpicung"},{"country":"ID","id":8073829,"coord":{"lat":-7.0573,"lon":108.637299},"name":"Karangbaru"},{"country":"ID","id":8073837,"coord":{"lat":-7.0545,"lon":108.708603},"name":"Randusari"},{"country":"ID","id":8073848,"coord":{"lat":-7.0621,"lon":108.680199},"name":"Sukagalih"},{"country":"ID","id":8073856,"coord":{"lat":-7.0678,"lon":108.695702},"name":"Kawungsari"},{"country":"ID","id":8073859,"coord":{"lat":-7.0739,"lon":108.729301},"name":"Gembol"},{"country":"ID","id":8073862,"coord":{"lat":-7.0791,"lon":108.746399},"name":"Ciangir"},{"country":"ID","id":8073873,"coord":{"lat":-7.0841,"lon":108.717598},"name":"Sukarapih"},{"country":"ID","id":8073879,"coord":{"lat":-7.0943,"lon":108.657501},"name":"Karangkancana"},{"country":"ID","id":8073880,"coord":{"lat":-7.0999,"lon":108.657204},"name":"Kaduagung"},{"country":"ID","id":8073887,"coord":{"lat":-7.1108,"lon":108.644897},"name":"Margacina"},{"country":"ID","id":8073888,"coord":{"lat":-7.1115,"lon":108.6399},"name":"Sagara"},{"country":"ID","id":8073894,"coord":{"lat":-7.1198,"lon":108.678001},"name":"Jabranti"},{"country":"ID","id":8073998,"coord":{"lat":-6.9035,"lon":111.500397},"name":"Jurangjero"},{"country":"ID","id":8074007,"coord":{"lat":-6.9604,"lon":111.6157},"name":"Krajan Jamprong"},{"country":"ID","id":8074012,"coord":{"lat":-6.9386,"lon":111.507004},"name":"Jeruk"},{"country":"ID","id":8074026,"coord":{"lat":-6.9815,"lon":111.507599},"name":"Jiworejo"},{"country":"ID","id":8074035,"coord":{"lat":-6.9776,"lon":111.5242},"name":"Singonegoro"},{"country":"ID","id":8074038,"coord":{"lat":-6.9505,"lon":111.523598},"name":"Banyubang"},{"country":"ID","id":8074041,"coord":{"lat":-6.9468,"lon":111.5383},"name":"Gembol"},{"country":"ID","id":8074046,"coord":{"lat":-6.9257,"lon":111.541801},"name":"Gayamdesa"},{"country":"ID","id":8074047,"coord":{"lat":-6.9248,"lon":111.5298},"name":"Wanutengah"},{"country":"ID","id":8074048,"coord":{"lat":-6.9116,"lon":111.5355},"name":"Blimbing"},{"country":"ID","id":8074062,"coord":{"lat":-6.8803,"lon":111.559898},"name":"Gading Barat"},{"country":"ID","id":8074068,"coord":{"lat":-6.8756,"lon":111.572998},"name":"Jinanten"},{"country":"ID","id":8074071,"coord":{"lat":-6.885,"lon":111.553001},"name":"Tahunan"},{"country":"ID","id":8074075,"coord":{"lat":-6.9191,"lon":111.559097},"name":"Sendangrejo"},{"country":"ID","id":8074085,"coord":{"lat":-6.9617,"lon":111.559998},"name":"Ketringan"},{"country":"ID","id":8074096,"coord":{"lat":-6.9399,"lon":111.595001},"name":"Sukogunungkrajan"},{"country":"ID","id":8074097,"coord":{"lat":-6.9274,"lon":111.5839},"name":"Jlodro"},{"country":"ID","id":8074101,"coord":{"lat":-6.8864,"lon":111.583},"name":"Kaliprak"},{"country":"ID","id":8074102,"coord":{"lat":-6.8852,"lon":111.5989},"name":"Bancang"},{"country":"ID","id":8074105,"coord":{"lat":-6.9099,"lon":111.610901},"name":"Tawaran"},{"country":"ID","id":8074297,"coord":{"lat":-7.38358,"lon":108.871017},"name":"Pasanggrahan"},{"country":"ID","id":8074298,"coord":{"lat":-7.3878,"lon":108.869499},"name":"Pangawaren"},{"country":"ID","id":8074326,"coord":{"lat":-7.4069,"lon":108.759697},"name":"Cibatu"},{"country":"ID","id":8074334,"coord":{"lat":-7.4429,"lon":108.761398},"name":"Karangtengah"},{"country":"ID","id":8074338,"coord":{"lat":-7.46299,"lon":108.763023},"name":"Prumpung"},{"country":"ID","id":8074342,"coord":{"lat":-7.4769,"lon":108.767998},"name":"Kedungwringin"},{"country":"ID","id":8074347,"coord":{"lat":-7.3863,"lon":108.782997},"name":"Purwosari"},{"country":"ID","id":8074363,"coord":{"lat":-7.4418,"lon":108.781799},"name":"Dukuhsawah"},{"country":"ID","id":8074376,"coord":{"lat":-7.4849,"lon":108.776604},"name":"Citengah"},{"country":"ID","id":8074385,"coord":{"lat":-7.3961,"lon":108.804398},"name":"Tawangsari"},{"country":"ID","id":8074390,"coord":{"lat":-7.4201,"lon":108.802902},"name":"Gunungwilis"},{"country":"ID","id":8074398,"coord":{"lat":-7.481,"lon":108.792099},"name":"Cikalong"},{"country":"ID","id":8074399,"coord":{"lat":-7.4801,"lon":108.7864},"name":"Kauman"},{"country":"ID","id":8074415,"coord":{"lat":-7.4736,"lon":108.808899},"name":"Cikondang"},{"country":"ID","id":8074419,"coord":{"lat":-7.4884,"lon":108.804802},"name":"Sidamulya"},{"country":"ID","id":8074420,"coord":{"lat":-7.4898,"lon":108.811501},"name":"Gendiwu"},{"country":"ID","id":8074430,"coord":{"lat":-7.4428,"lon":108.827499},"name":"Karangsalam"},{"country":"ID","id":8074437,"coord":{"lat":-7.486,"lon":108.821701},"name":"Tambangan"},{"country":"ID","id":8074444,"coord":{"lat":-7.3976,"lon":108.852501},"name":"Cidadap"},{"country":"ID","id":8074450,"coord":{"lat":-7.4363,"lon":108.8526},"name":"Rungkang"},{"country":"ID","id":8074461,"coord":{"lat":-7.4746,"lon":108.8517},"name":"Ciloning"},{"country":"ID","id":8074478,"coord":{"lat":-7.4579,"lon":108.859001},"name":"Karanggintung"},{"country":"ID","id":8074527,"coord":{"lat":-6.6994,"lon":111.625397},"name":"Karangharjo"},{"country":"ID","id":8074528,"coord":{"lat":-6.7014,"lon":111.628197},"name":"Karanglincak"},{"country":"ID","id":8074529,"coord":{"lat":-6.7041,"lon":111.631203},"name":"Karanganyar"},{"country":"ID","id":8074552,"coord":{"lat":-6.7065,"lon":111.634598},"name":"Kebloran"},{"country":"ID","id":8074553,"coord":{"lat":-6.7082,"lon":111.635597},"name":"Tanjungan"},{"country":"ID","id":8074560,"coord":{"lat":-6.7392,"lon":111.671898},"name":"Bajingmeduro"},{"country":"ID","id":8074561,"coord":{"lat":-6.7373,"lon":111.667801},"name":"Sendangmulyo"},{"country":"ID","id":8074562,"coord":{"lat":-6.7416,"lon":111.6744},"name":"Karangmangu"},{"country":"ID","id":8074563,"coord":{"lat":-6.7411,"lon":111.670898},"name":"Bajingjowo"},{"country":"ID","id":8074564,"coord":{"lat":-6.7452,"lon":111.679398},"name":"Temperak"},{"country":"ID","id":8074567,"coord":{"lat":-6.7485,"lon":111.634201},"name":"Krajandadapmulyo"},{"country":"ID","id":8074569,"coord":{"lat":-6.7357,"lon":111.630302},"name":"Gonggang"},{"country":"ID","id":8074572,"coord":{"lat":-6.7228,"lon":111.633003},"name":"Ngilengan"},{"country":"ID","id":8074600,"coord":{"lat":-6.7565,"lon":111.663597},"name":"Banowan"},{"country":"ID","id":8074601,"coord":{"lat":-6.7657,"lon":111.6511},"name":"Krajanbaturno"},{"country":"ID","id":8074677,"coord":{"lat":-6.7689,"lon":111.643097},"name":"Babak"},{"country":"ID","id":8074682,"coord":{"lat":-6.7839,"lon":111.639397},"name":"Krajanbonjor"},{"country":"ID","id":8074687,"coord":{"lat":-6.7838,"lon":111.652},"name":"Sampung"},{"country":"ID","id":8074689,"coord":{"lat":-6.7934,"lon":111.651604},"name":"Tawangrejo"},{"country":"ID","id":8074695,"coord":{"lat":-6.7669,"lon":111.709503},"name":"Kradenan"},{"country":"ID","id":8074700,"coord":{"lat":-6.7727,"lon":111.7257},"name":"Banjarjo"},{"country":"ID","id":8074703,"coord":{"lat":-6.7799,"lon":111.727402},"name":"Kelabang"},{"country":"ID","id":8074706,"coord":{"lat":-6.7725,"lon":111.736298},"name":"Boncong"},{"country":"ID","id":8074707,"coord":{"lat":-6.7722,"lon":111.730301},"name":"Bulumeduro"},{"country":"ID","id":8074708,"coord":{"lat":-6.799,"lon":111.731003},"name":"Siding"},{"country":"ID","id":8074711,"coord":{"lat":-6.8106,"lon":111.745903},"name":"Jahulu"},{"country":"ID","id":8074715,"coord":{"lat":-6.8253,"lon":111.739304},"name":"Jatisari"},{"country":"ID","id":8074716,"coord":{"lat":-6.8253,"lon":111.741096},"name":"Kayen"},{"country":"ID","id":8074722,"coord":{"lat":-6.8235,"lon":111.693001},"name":"Ngujuran"},{"country":"ID","id":8074726,"coord":{"lat":-6.8295,"lon":111.678596},"name":"Weden"},{"country":"ID","id":8074728,"coord":{"lat":-6.7954,"lon":111.711502},"name":"Tengger"},{"country":"ID","id":8074733,"coord":{"lat":-6.7785,"lon":111.691803},"name":"Latsari"},{"country":"ID","id":8074734,"coord":{"lat":-6.778,"lon":111.670197},"name":"Tlogoagung"},{"country":"ID","id":8074740,"coord":{"lat":-6.8497,"lon":111.641998},"name":"Ketodan"},{"country":"ID","id":8074741,"coord":{"lat":-6.8558,"lon":111.631203},"name":"Wangi"},{"country":"ID","id":8074744,"coord":{"lat":-6.8508,"lon":111.6558},"name":"Besowo"},{"country":"ID","id":8074745,"coord":{"lat":-6.8667,"lon":111.655296},"name":"Bader"},{"country":"ID","id":8074749,"coord":{"lat":-6.868,"lon":111.715599},"name":"Dukuhdukuhan"},{"country":"ID","id":8074780,"coord":{"lat":-6.8602,"lon":111.6866},"name":"Krojo"},{"country":"ID","id":8075122,"coord":{"lat":-6.8791,"lon":111.632202},"name":"Karangtengah"},{"country":"ID","id":8075123,"coord":{"lat":-6.8752,"lon":111.641296},"name":"Paseyan"},{"country":"ID","id":8075125,"coord":{"lat":-6.8823,"lon":111.645798},"name":"Jombok"},{"country":"ID","id":8075129,"coord":{"lat":-6.8933,"lon":111.689903},"name":"Krajan Demit"},{"country":"ID","id":8075132,"coord":{"lat":-6.8884,"lon":111.661903},"name":"Purwosari"},{"country":"ID","id":8075136,"coord":{"lat":-6.8898,"lon":111.6539},"name":"Wotsogo"},{"country":"ID","id":8075146,"coord":{"lat":-6.9046,"lon":111.708702},"name":"Dingil"},{"country":"ID","id":8075153,"coord":{"lat":-6.9122,"lon":111.626297},"name":"Jetis"},{"country":"ID","id":8075157,"coord":{"lat":-6.9119,"lon":111.6595},"name":"Balong"},{"country":"ID","id":8075159,"coord":{"lat":-6.9126,"lon":111.675499},"name":"Muruni"},{"country":"ID","id":8075171,"coord":{"lat":-6.919,"lon":111.685898},"name":"Ngijo"},{"country":"ID","id":8075173,"coord":{"lat":-6.9217,"lon":111.668098},"name":"Ngancar"},{"country":"ID","id":8075183,"coord":{"lat":-6.9365,"lon":111.692802},"name":"Tanggung"},{"country":"ID","id":8075190,"coord":{"lat":-6.9386,"lon":111.672096},"name":"Karanggeneng"},{"country":"ID","id":8075207,"coord":{"lat":-6.9536,"lon":111.715797},"name":"Banjarworo"},{"country":"ID","id":8075208,"coord":{"lat":-6.9558,"lon":111.709999},"name":"Mundri"},{"country":"ID","id":8075212,"coord":{"lat":-6.9554,"lon":111.643997},"name":"Nglateng Barat"},{"country":"ID","id":8075217,"coord":{"lat":-6.9641,"lon":111.713203},"name":"Sumuragung"},{"country":"ID","id":8075218,"coord":{"lat":-6.9569,"lon":111.719101},"name":"Kedungmulyo"},{"country":"ID","id":8075223,"coord":{"lat":-6.9708,"lon":111.747704},"name":"Laju Kidul"},{"country":"ID","id":8075232,"coord":{"lat":-6.9707,"lon":111.685799},"name":"Kejuron"},{"country":"ID","id":8075240,"coord":{"lat":-6.9783,"lon":111.685204},"name":"Klakeh"},{"country":"ID","id":8075245,"coord":{"lat":-6.9775,"lon":111.710701},"name":"Talok"},{"country":"ID","id":8075246,"coord":{"lat":-6.9845,"lon":111.709602},"name":"Kablukan"},{"country":"ID","id":8075247,"coord":{"lat":-6.9817,"lon":111.716904},"name":"Ngrojo"},{"country":"ID","id":8075248,"coord":{"lat":-6.9777,"lon":111.723},"name":"Kedungharjo"},{"country":"ID","id":8075249,"coord":{"lat":-6.9797,"lon":111.722298},"name":"Krajan Weden"},{"country":"ID","id":8075864,"coord":{"lat":-6.78,"lon":111.7677},"name":"Ngembak"},{"country":"ID","id":8075865,"coord":{"lat":-6.7949,"lon":111.753502},"name":"Sembungin"},{"country":"ID","id":8075871,"coord":{"lat":-6.8169,"lon":111.763298},"name":"Sedandang"},{"country":"ID","id":8075875,"coord":{"lat":-6.8098,"lon":111.769997},"name":"Pugoh"},{"country":"ID","id":8075879,"coord":{"lat":-6.8117,"lon":111.7798},"name":"Mojoroto"},{"country":"ID","id":8075880,"coord":{"lat":-6.8213,"lon":111.775101},"name":"Simo"},{"country":"ID","id":8075885,"coord":{"lat":-6.8692,"lon":111.778397},"name":"Dikir"},{"country":"ID","id":8075892,"coord":{"lat":-6.825,"lon":111.790703},"name":"Sriwing"},{"country":"ID","id":8075895,"coord":{"lat":-6.8518,"lon":111.784897},"name":"Plajan"},{"country":"ID","id":8075902,"coord":{"lat":-6.8073,"lon":111.810402},"name":"Sruki"},{"country":"ID","id":8075903,"coord":{"lat":-6.8114,"lon":111.811699},"name":"Cingklung"},{"country":"ID","id":8075904,"coord":{"lat":-6.8227,"lon":111.814598},"name":"Pasatan"},{"country":"ID","id":8075906,"coord":{"lat":-6.8297,"lon":111.811501},"name":"Belik"},{"country":"ID","id":8075909,"coord":{"lat":-6.8016,"lon":111.833199},"name":"Gadon"},{"country":"ID","id":8075910,"coord":{"lat":-6.8075,"lon":111.820602},"name":"Tanjang"},{"country":"ID","id":8075913,"coord":{"lat":-6.8205,"lon":111.823601},"name":"Dukoh"},{"country":"ID","id":8075920,"coord":{"lat":-6.802,"lon":111.836304},"name":"Karangrejo"},{"country":"ID","id":8075923,"coord":{"lat":-6.8024,"lon":111.843002},"name":"Tawangrejo"},{"country":"ID","id":8075924,"coord":{"lat":-6.8023,"lon":111.849197},"name":"Kenanti"},{"country":"ID","id":8075925,"coord":{"lat":-6.8184,"lon":111.838699},"name":"Klutuk"},{"country":"ID","id":8075926,"coord":{"lat":-6.8148,"lon":111.844299},"name":"Pesantren"},{"country":"ID","id":8075930,"coord":{"lat":-6.8696,"lon":111.840202},"name":"Mekarsari"},{"country":"ID","id":8075931,"coord":{"lat":-6.8016,"lon":111.855202},"name":"Jamong"},{"country":"ID","id":8075932,"coord":{"lat":-6.8006,"lon":111.863503},"name":"Sobontoro"},{"country":"ID","id":8075937,"coord":{"lat":-6.8109,"lon":111.8703},"name":"Sumberejo"},{"country":"ID","id":8076037,"coord":{"lat":-6.8771,"lon":111.783401},"name":"Ngulahan"},{"country":"ID","id":8076038,"coord":{"lat":-6.8788,"lon":111.808296},"name":"Gemulung"},{"country":"ID","id":8076040,"coord":{"lat":-6.8777,"lon":111.861},"name":"Sidomulyo"},{"country":"ID","id":8076043,"coord":{"lat":-6.9322,"lon":111.872803},"name":"Bawi Kulon"},{"country":"ID","id":8076047,"coord":{"lat":-6.9943,"lon":111.852203},"name":"Tanggungrejo"},{"country":"ID","id":8076049,"coord":{"lat":-6.9966,"lon":111.786499},"name":"Pandayan Dua"},{"country":"ID","id":8076050,"coord":{"lat":-6.9961,"lon":111.774803},"name":"Tawangsari"},{"country":"ID","id":8076055,"coord":{"lat":-6.8896,"lon":111.815804},"name":"Trantang"},{"country":"ID","id":8076066,"coord":{"lat":-6.9215,"lon":111.821602},"name":"Sidonganti"},{"country":"ID","id":8076071,"coord":{"lat":-6.9183,"lon":111.848602},"name":"Tengger"},{"country":"ID","id":8076087,"coord":{"lat":-6.9537,"lon":111.827599},"name":"Guwoterus"},{"country":"ID","id":8076090,"coord":{"lat":-6.9573,"lon":111.858704},"name":"Talangkembar"},{"country":"ID","id":8076097,"coord":{"lat":-6.9649,"lon":111.787804},"name":"Mulyoagung"},{"country":"ID","id":8076102,"coord":{"lat":-6.9732,"lon":111.794998},"name":"Ngablak"},{"country":"ID","id":8076106,"coord":{"lat":-6.9789,"lon":111.835602},"name":"Nguluhan"},{"country":"ID","id":8076108,"coord":{"lat":-6.9809,"lon":111.758698},"name":"Tanggir Timur"},{"country":"ID","id":8076207,"coord":{"lat":-7.3393,"lon":108.866096},"name":"Bantarmangu"},{"country":"ID","id":8076211,"coord":{"lat":-7.3743,"lon":108.804298},"name":"Cigintung"},{"country":"ID","id":8076216,"coord":{"lat":-7.3205,"lon":108.751297},"name":"Mulyadadi"},{"country":"ID","id":8076229,"coord":{"lat":-7.2704,"lon":108.758499},"name":"Cipasang"},{"country":"ID","id":8076245,"coord":{"lat":-7.3002,"lon":108.759903},"name":"Jenang Selatan"},{"country":"ID","id":8076249,"coord":{"lat":-7.3009,"lon":108.767998},"name":"Tanjungsari"},{"country":"ID","id":8076251,"coord":{"lat":-7.3109,"lon":108.762604},"name":"Bojongsari"},{"country":"ID","id":8076269,"coord":{"lat":-7.2545,"lon":108.783699},"name":"Walahir"},{"country":"ID","id":8076288,"coord":{"lat":-7.3127,"lon":108.782898},"name":"Kutasari"},{"country":"ID","id":8076290,"coord":{"lat":-7.3342,"lon":108.778603},"name":"Padangsari"},{"country":"ID","id":8076311,"coord":{"lat":-7.3249,"lon":108.8004},"name":"Kubangwaru"},{"country":"ID","id":8076328,"coord":{"lat":-7.267,"lon":108.8116},"name":"Cipeusing"},{"country":"ID","id":8076353,"coord":{"lat":-7.3547,"lon":108.804298},"name":"Karangtengah Lor"},{"country":"ID","id":8076362,"coord":{"lat":-7.2786,"lon":108.827698},"name":"Pesahangan"},{"country":"ID","id":8076371,"coord":{"lat":-7.3065,"lon":108.832802},"name":"Telagasari"},{"country":"ID","id":8076379,"coord":{"lat":-7.3421,"lon":108.833298},"name":"Cilempuyang"},{"country":"ID","id":8076415,"coord":{"lat":-7.3508,"lon":108.8405},"name":"Cimanggu Wetan"},{"country":"ID","id":8076419,"coord":{"lat":-7.3608,"lon":108.855698},"name":"Sindanghaji"},{"country":"ID","id":8076491,"coord":{"lat":-6.8775,"lon":111.875198},"name":"Ngluwuk"},{"country":"ID","id":8076492,"coord":{"lat":-6.8767,"lon":112.002052},"name":"Sendang"},{"country":"ID","id":8076495,"coord":{"lat":-6.892,"lon":111.877296},"name":"Margorejo"},{"country":"ID","id":8076502,"coord":{"lat":-6.8767,"lon":111.892303},"name":"Sumberarum"},{"country":"ID","id":8076505,"coord":{"lat":-6.8902,"lon":111.9076},"name":"Karangmulyo"},{"country":"ID","id":8076508,"coord":{"lat":-6.9037,"lon":111.903603},"name":"Padasan"},{"country":"ID","id":8076509,"coord":{"lat":-6.9039,"lon":111.889702},"name":"Temayang"},{"country":"ID","id":8076511,"coord":{"lat":-6.9442,"lon":111.900497},"name":"Pucangan"},{"country":"ID","id":8076513,"coord":{"lat":-6.9567,"lon":111.896896},"name":"Pakel"},{"country":"ID","id":8076515,"coord":{"lat":-6.9638,"lon":111.901299},"name":"Bean"},{"country":"ID","id":8076519,"coord":{"lat":-6.9562,"lon":111.906998},"name":"Jetak"},{"country":"ID","id":8076520,"coord":{"lat":-6.9535,"lon":111.9179},"name":"Talun"},{"country":"ID","id":8076538,"coord":{"lat":-6.8752,"lon":111.9842},"name":"Sambonggede"},{"country":"ID","id":8076542,"coord":{"lat":-6.8888,"lon":111.988503},"name":"Kapu"},{"country":"ID","id":8076549,"coord":{"lat":-6.9603,"lon":111.991798},"name":"Jadi"},{"country":"ID","id":8076551,"coord":{"lat":-6.8956,"lon":111.993202},"name":"Pelang"},{"country":"ID","id":8076797,"coord":{"lat":-7.2319,"lon":108.766098},"name":"Balekambang"},{"country":"ID","id":8076817,"coord":{"lat":-7.137,"lon":108.7827},"name":"Kandayakan Satu"},{"country":"ID","id":8076820,"coord":{"lat":-7.14188,"lon":108.798981},"name":"Cisitu"},{"country":"ID","id":8076841,"coord":{"lat":-7.1474,"lon":108.801697},"name":"Cogreg"},{"country":"ID","id":8076842,"coord":{"lat":-7.1506,"lon":108.809502},"name":"Bentar"},{"country":"ID","id":8076843,"coord":{"lat":-7.1539,"lon":108.816101},"name":"Bentarsari"},{"country":"ID","id":8076848,"coord":{"lat":-7.1637,"lon":108.8172},"name":"Ganggawang"},{"country":"ID","id":8076853,"coord":{"lat":-7.1855,"lon":108.804001},"name":"Salem Kidul"},{"country":"ID","id":8076866,"coord":{"lat":-7.1564,"lon":108.823097},"name":"Ciputih"},{"country":"ID","id":8076873,"coord":{"lat":-7.174,"lon":108.829498},"name":"Legoknyenang"},{"country":"ID","id":8076875,"coord":{"lat":-7.197,"lon":108.830902},"name":"Gununglarang"},{"country":"ID","id":8076877,"coord":{"lat":-7.2174,"lon":108.830101},"name":"Legok"},{"country":"ID","id":8076886,"coord":{"lat":-7.1668,"lon":108.843597},"name":"Gandoang"},{"country":"ID","id":8076897,"coord":{"lat":-7.1894,"lon":108.856697},"name":"Citimbang"},{"country":"ID","id":8076902,"coord":{"lat":-7.2346,"lon":108.860703},"name":"Sukasari"},{"country":"ID","id":8077621,"coord":{"lat":-6.8741,"lon":111.8862},"name":"Kasiman"},{"country":"ID","id":8077623,"coord":{"lat":-6.8337,"lon":111.890999},"name":"Mliwang"},{"country":"ID","id":8077624,"coord":{"lat":-6.8075,"lon":111.888802},"name":"Merkawang"},{"country":"ID","id":8077627,"coord":{"lat":-6.8144,"lon":111.985298},"name":"Wadung"},{"country":"ID","id":8077629,"coord":{"lat":-6.8057,"lon":111.891602},"name":"Karangasem"},{"country":"ID","id":8077633,"coord":{"lat":-6.7919,"lon":111.9161},"name":"Temuji"},{"country":"ID","id":8077637,"coord":{"lat":-6.8528,"lon":111.923698},"name":"Tlogowaru"},{"country":"ID","id":8077639,"coord":{"lat":-6.8596,"lon":111.983101},"name":"Sumber"},{"country":"ID","id":8077642,"coord":{"lat":-6.8375,"lon":111.932999},"name":"Tobo"},{"country":"ID","id":8077644,"coord":{"lat":-6.8626,"lon":111.933502},"name":"Temandangjero"},{"country":"ID","id":8077648,"coord":{"lat":-6.8715,"lon":111.945602},"name":"Pongpongan"},{"country":"ID","id":8077651,"coord":{"lat":-6.8617,"lon":111.956497},"name":"Banaran"},{"country":"ID","id":8077652,"coord":{"lat":-6.8406,"lon":111.951302},"name":"Sugihan"},{"country":"ID","id":8077654,"coord":{"lat":-6.8428,"lon":111.981003},"name":"Suwalan"},{"country":"ID","id":8077656,"coord":{"lat":-6.7739,"lon":111.963303},"name":"Remen"},{"country":"ID","id":8077658,"coord":{"lat":-6.8012,"lon":111.960899},"name":"Sumurgeneng"},{"country":"ID","id":8077661,"coord":{"lat":-6.8733,"lon":111.971703},"name":"Tuwiri Kulon"},{"country":"ID","id":8077663,"coord":{"lat":-6.8665,"lon":111.970596},"name":"Borehbangle"},{"country":"ID","id":8077668,"coord":{"lat":-6.7941,"lon":111.981102},"name":"Mentoso"},{"country":"ID","id":8077669,"coord":{"lat":-6.7969,"lon":111.977997},"name":"Rawasan"},{"country":"ID","id":8077968,"coord":{"lat":-7.044,"lon":108.756302},"name":"Citenjo"},{"country":"ID","id":8077972,"coord":{"lat":-7.0583,"lon":108.759201},"name":"Kliwon Cibingbin"},{"country":"ID","id":8077973,"coord":{"lat":-7.0557,"lon":108.751099},"name":"Sukasari"},{"country":"ID","id":8077974,"coord":{"lat":-7.0652,"lon":108.752296},"name":"Sindangjawa"},{"country":"ID","id":8077985,"coord":{"lat":-7.0645,"lon":108.811699},"name":"Cipanjang"},{"country":"ID","id":8077988,"coord":{"lat":-7.0771,"lon":108.820503},"name":"Bandungsari"},{"country":"ID","id":8078001,"coord":{"lat":-7.0142,"lon":108.837502},"name":"Dukuhkopi"},{"country":"ID","id":8078008,"coord":{"lat":-7.0685,"lon":108.829002},"name":"Kertasari"},{"country":"ID","id":8078012,"coord":{"lat":-7.0886,"lon":108.837799},"name":"Blandongan"},{"country":"ID","id":8078021,"coord":{"lat":-7.068,"lon":108.8647},"name":"Pamedaran"},{"country":"ID","id":8078414,"coord":{"lat":-6.8791,"lon":112.016403},"name":"Kuti"},{"country":"ID","id":8078420,"coord":{"lat":-6.8843,"lon":112.038696},"name":"Krajan Karangsari"},{"country":"ID","id":8078425,"coord":{"lat":-6.8894,"lon":112.054199},"name":"Paloh"},{"country":"ID","id":8078428,"coord":{"lat":-6.88543,"lon":112.049454},"name":"Karangsari"},{"country":"ID","id":8078444,"coord":{"lat":-6.8928,"lon":112.046097},"name":"Latsari"},{"country":"ID","id":8078447,"coord":{"lat":-6.8943,"lon":112.052803},"name":"Kranggan"},{"country":"ID","id":8078454,"coord":{"lat":-6.8933,"lon":112.060402},"name":"Kajongan"},{"country":"ID","id":8078456,"coord":{"lat":-6.8942,"lon":112.062897},"name":"Kutorejo"},{"country":"ID","id":8078462,"coord":{"lat":-6.8946,"lon":112.0681},"name":"Sendangharjo"},{"country":"ID","id":8078465,"coord":{"lat":-6.8983,"lon":112.070702},"name":"Kuncen"},{"country":"ID","id":8078467,"coord":{"lat":-6.896,"lon":112.077202},"name":"Sukolilo"},{"country":"ID","id":8078469,"coord":{"lat":-6.898,"lon":112.087502},"name":"Panyuran"},{"country":"ID","id":8078477,"coord":{"lat":-6.9024,"lon":112.119202},"name":"Krandenan"},{"country":"ID","id":8078478,"coord":{"lat":-6.9082,"lon":112.106003},"name":"Sumurgung"},{"country":"ID","id":8078480,"coord":{"lat":-6.8997,"lon":112.0942},"name":"Prambatan"},{"country":"ID","id":8078488,"coord":{"lat":-6.9044,"lon":112.064499},"name":"Kebonsari"},{"country":"ID","id":8078491,"coord":{"lat":-6.9027,"lon":112.058197},"name":"Sidomukti"},{"country":"ID","id":8078493,"coord":{"lat":-6.9021,"lon":112.049301},"name":"Merik"},{"country":"ID","id":8078495,"coord":{"lat":-6.9031,"lon":112.028397},"name":"Kembangbilo"},{"country":"ID","id":8078497,"coord":{"lat":-6.9013,"lon":112.016296},"name":"Sugiharjo"},{"country":"ID","id":8078499,"coord":{"lat":-6.9011,"lon":112.010101},"name":"Bonggol Satu"},{"country":"ID","id":8078501,"coord":{"lat":-6.9046,"lon":112.003197},"name":"Taraan"},{"country":"ID","id":8078505,"coord":{"lat":-6.9159,"lon":112.001701},"name":"Boto"},{"country":"ID","id":8078507,"coord":{"lat":-6.9137,"lon":112.050201},"name":"Tegalagung"},{"country":"ID","id":8078509,"coord":{"lat":-6.9086,"lon":112.055801},"name":"Karang"},{"country":"ID","id":8078512,"coord":{"lat":-6.916,"lon":112.063698},"name":"Krajan Bejagung"},{"country":"ID","id":8078513,"coord":{"lat":-6.9094,"lon":112.064697},"name":"Gedongombo"},{"country":"ID","id":8078523,"coord":{"lat":-6.9258,"lon":112.064796},"name":"Semanding Barat"},{"country":"ID","id":8078524,"coord":{"lat":-6.9205,"lon":112.063599},"name":"Bejagung Kidul"},{"country":"ID","id":8078527,"coord":{"lat":-6.9229,"lon":112.0522},"name":"Pericik"},{"country":"ID","id":8078533,"coord":{"lat":-6.9292,"lon":112.003601},"name":"Jadikrajan"},{"country":"ID","id":8078538,"coord":{"lat":-6.9278,"lon":112.056999},"name":"Bandaran"},{"country":"ID","id":8078541,"coord":{"lat":-6.9286,"lon":112.0989},"name":"Banjarsari"},{"country":"ID","id":8078542,"coord":{"lat":-6.9291,"lon":112.111702},"name":"Dawung"},{"country":"ID","id":8078546,"coord":{"lat":-6.9405,"lon":112.100403},"name":"Kebondempet"},{"country":"ID","id":8078550,"coord":{"lat":-6.9379,"lon":112.060898},"name":"Penambangan"},{"country":"ID","id":8078552,"coord":{"lat":-6.9381,"lon":112.0494},"name":"Krajan Prunggahan Wetan"},{"country":"ID","id":8078564,"coord":{"lat":-6.9439,"lon":112.086403},"name":"Kowang Utara"},{"country":"ID","id":8078577,"coord":{"lat":-6.9631,"lon":112.070702},"name":"Krajan Genaharjo"},{"country":"ID","id":8078584,"coord":{"lat":-6.9646,"lon":112.1092},"name":"Gesing"},{"country":"ID","id":8078595,"coord":{"lat":-6.9771,"lon":112.062599},"name":"Drudikrajan"},{"country":"ID","id":8078975,"coord":{"lat":-8.2537,"lon":112.070396},"name":"Bakung Utara"},{"country":"ID","id":8078977,"coord":{"lat":-8.2588,"lon":112.072601},"name":"Bakung"},{"country":"ID","id":8078983,"coord":{"lat":-8.2615,"lon":112.064102},"name":"Sumberdadi"},{"country":"ID","id":8078990,"coord":{"lat":-8.2671,"lon":112.018799},"name":"Apakbranjang"},{"country":"ID","id":8078993,"coord":{"lat":-8.2667,"lon":112.032402},"name":"Plandirejo"},{"country":"ID","id":8078994,"coord":{"lat":-8.2706,"lon":112.040901},"name":"Tumpakoyot"},{"country":"ID","id":8078999,"coord":{"lat":-8.2843,"lon":112.090302},"name":"Kalimeneng"},{"country":"ID","id":8079000,"coord":{"lat":-8.2852,"lon":112.076302},"name":"Kedunggajul"},{"country":"ID","id":8079009,"coord":{"lat":-8.2913,"lon":112.106903},"name":"Tumpakkepuh"},{"country":"ID","id":8079108,"coord":{"lat":-8.2537,"lon":112.170097},"name":"Gununggede"},{"country":"ID","id":8079121,"coord":{"lat":-8.2706,"lon":112.230904},"name":"Ngadipuro"},{"country":"ID","id":8079125,"coord":{"lat":-8.2739,"lon":112.129204},"name":"Kaligrenjeng"},{"country":"ID","id":8079140,"coord":{"lat":-8.3111,"lon":112.142899},"name":"Tambakrejo"},{"country":"ID","id":8079196,"coord":{"lat":-8.2542,"lon":112.300003},"name":"Balerejo"},{"country":"ID","id":8079219,"coord":{"lat":-8.3249,"lon":112.259697},"name":"Sumbersih"},{"country":"ID","id":8079245,"coord":{"lat":-8.2754,"lon":112.360802},"name":"Sukorejo"},{"country":"ID","id":8079246,"coord":{"lat":-8.2765,"lon":112.348297},"name":"Ringinrejo"},{"country":"ID","id":8079255,"coord":{"lat":-8.279,"lon":112.276001},"name":"Kaligambir"},{"country":"ID","id":8079264,"coord":{"lat":-8.2685,"lon":112.322701},"name":"Purworejo"},{"country":"ID","id":8079266,"coord":{"lat":-8.2697,"lon":112.3302},"name":"Tulungrejo"},{"country":"ID","id":8079534,"coord":{"lat":-8.2538,"lon":112.376297},"name":"Wates"},{"country":"ID","id":8079863,"coord":{"lat":-6.9294,"lon":112.134598},"name":"Cendoro Utara"},{"country":"ID","id":8079872,"coord":{"lat":-6.9222,"lon":112.141197},"name":"Pucangkrajan"},{"country":"ID","id":8079877,"coord":{"lat":-6.9077,"lon":112.148499},"name":"Bogorejo"},{"country":"ID","id":8079881,"coord":{"lat":-6.923,"lon":112.150703},"name":"Leran Kulon"},{"country":"ID","id":8079883,"coord":{"lat":-6.9635,"lon":112.143898},"name":"Ngimbang"},{"country":"ID","id":8079886,"coord":{"lat":-6.923,"lon":112.154297},"name":"Leran Wetan"},{"country":"ID","id":8079891,"coord":{"lat":-6.9013,"lon":112.153801},"name":"Banjaranyar"},{"country":"ID","id":8079895,"coord":{"lat":-6.8997,"lon":112.167702},"name":"Karangagung Timur"},{"country":"ID","id":8079899,"coord":{"lat":-6.929,"lon":112.166298},"name":"Wangun"},{"country":"ID","id":8079902,"coord":{"lat":-6.9977,"lon":112.166801},"name":"Sumberjo"},{"country":"ID","id":8079905,"coord":{"lat":-6.9203,"lon":112.1707},"name":"Karang Lor"},{"country":"ID","id":8079907,"coord":{"lat":-6.9042,"lon":112.1716},"name":"Pliwetan"},{"country":"ID","id":8079908,"coord":{"lat":-6.9002,"lon":112.175301},"name":"Tambakrejo"},{"country":"ID","id":8079915,"coord":{"lat":-6.9241,"lon":112.1875},"name":"Setro"},{"country":"ID","id":8079919,"coord":{"lat":-6.9081,"lon":112.1968},"name":"Sidomukti"},{"country":"ID","id":8079926,"coord":{"lat":-6.8844,"lon":112.205101},"name":"Labuhan"},{"country":"ID","id":8079928,"coord":{"lat":-6.9075,"lon":112.209297},"name":"Boho"},{"country":"ID","id":8079930,"coord":{"lat":-6.8956,"lon":112.217796},"name":"Brengkok"},{"country":"ID","id":8079932,"coord":{"lat":-6.9277,"lon":112.234703},"name":"Lembor"},{"country":"ID","id":8079933,"coord":{"lat":-6.9765,"lon":112.2314},"name":"Dateng"},{"country":"ID","id":8079935,"coord":{"lat":-6.9963,"lon":112.2295},"name":"Jabung"},{"country":"ID","id":8079936,"coord":{"lat":-6.9749,"lon":112.237801},"name":"Gelap"},{"country":"ID","id":8079939,"coord":{"lat":-6.9196,"lon":112.241096},"name":"Sendangharjo"},{"country":"ID","id":8080003,"coord":{"lat":-8.281,"lon":112.473297},"name":"Tlogosari"},{"country":"ID","id":8080017,"coord":{"lat":-8.289,"lon":112.380302},"name":"Tugurejo Satu"},{"country":"ID","id":8080018,"coord":{"lat":-8.2852,"lon":112.388496},"name":"Kalisangkrah Lor"},{"country":"ID","id":8080019,"coord":{"lat":-8.287,"lon":112.395203},"name":"Krajan Kulon Purworejo"},{"country":"ID","id":8080044,"coord":{"lat":-8.3049,"lon":112.424599},"name":"Mentaraman Satu"},{"country":"ID","id":8080047,"coord":{"lat":-8.3016,"lon":112.439796},"name":"Tempursarikrajan"},{"country":"ID","id":8080055,"coord":{"lat":-8.3161,"lon":112.482903},"name":"Banjarejo"},{"country":"ID","id":8080091,"coord":{"lat":-8.3317,"lon":112.494003},"name":"Tulungrejo"},{"country":"ID","id":8080100,"coord":{"lat":-8.3251,"lon":112.450104},"name":"Krajan Kedungsalam"},{"country":"ID","id":8080334,"coord":{"lat":-6.8762,"lon":112.296204},"name":"Blimbing"},{"country":"ID","id":8080337,"coord":{"lat":-6.88,"lon":112.272598},"name":"Sedayulawas"},{"country":"ID","id":8080345,"coord":{"lat":-6.8759,"lon":112.373901},"name":"Tunggul"},{"country":"ID","id":8080416,"coord":{"lat":-6.9726,"lon":112.366699},"name":"Brangsi"},{"country":"ID","id":8080417,"coord":{"lat":-6.9693,"lon":112.374603},"name":"Sawo"},{"country":"ID","id":8080430,"coord":{"lat":-6.885,"lon":112.343697},"name":"Sumurgayam"},{"country":"ID","id":8080434,"coord":{"lat":-6.9334,"lon":112.356102},"name":"Solokuro"},{"country":"ID","id":8080438,"coord":{"lat":-6.9959,"lon":112.365402},"name":"Karangwungu Lor"},{"country":"ID","id":8080441,"coord":{"lat":-6.9985,"lon":112.328903},"name":"Kaligerman"},{"country":"ID","id":8080443,"coord":{"lat":-6.9876,"lon":112.341698},"name":"Pilang"},{"country":"ID","id":8080445,"coord":{"lat":-6.9927,"lon":112.322098},"name":"Karangrejo"},{"country":"ID","id":8080447,"coord":{"lat":-6.9877,"lon":112.304298},"name":"Turi"},{"country":"ID","id":8080450,"coord":{"lat":-6.992,"lon":112.298698},"name":"Kanugrahan"},{"country":"ID","id":8080451,"coord":{"lat":-6.9873,"lon":112.284599},"name":"Jangkungkusumo"},{"country":"ID","id":8080454,"coord":{"lat":-6.9856,"lon":112.279297},"name":"Pelangwot"},{"country":"ID","id":8080468,"coord":{"lat":-6.894,"lon":112.294899},"name":"Sumberagung"},{"country":"ID","id":8080479,"coord":{"lat":-6.8963,"lon":112.347298},"name":"Sendangduwur"},{"country":"ID","id":8080480,"coord":{"lat":-6.8994,"lon":112.3461},"name":"Sendangagung"},{"country":"ID","id":8080484,"coord":{"lat":-6.9169,"lon":112.352798},"name":"Payaman"},{"country":"ID","id":8080485,"coord":{"lat":-6.9157,"lon":112.327003},"name":"Sugihan"},{"country":"ID","id":8080486,"coord":{"lat":-6.9222,"lon":112.314499},"name":"Dadapan"},{"country":"ID","id":8080492,"coord":{"lat":-6.9261,"lon":112.320801},"name":"Tebluru"},{"country":"ID","id":8080497,"coord":{"lat":-6.9345,"lon":112.336098},"name":"Tenggulun"},{"country":"ID","id":8080502,"coord":{"lat":-6.9645,"lon":112.338699},"name":"Karangtawar"},{"country":"ID","id":8080503,"coord":{"lat":-6.9633,"lon":112.348701},"name":"Godog"},{"country":"ID","id":8080504,"coord":{"lat":-6.9632,"lon":112.353996},"name":"Bulubrangsi"},{"country":"ID","id":8080506,"coord":{"lat":-6.9723,"lon":112.325104},"name":"Prijek"},{"country":"ID","id":8080507,"coord":{"lat":-6.9726,"lon":112.3088},"name":"Blumbang"},{"country":"ID","id":8080508,"coord":{"lat":-6.9689,"lon":112.2995},"name":"Gedangan"},{"country":"ID","id":8080514,"coord":{"lat":-6.9822,"lon":112.2864},"name":"Parengan"},{"country":"ID","id":8080516,"coord":{"lat":-6.9815,"lon":112.291901},"name":"Pangkatrejo"},{"country":"ID","id":8080517,"coord":{"lat":-6.9813,"lon":112.296898},"name":"Pringgoboyo"},{"country":"ID","id":8080524,"coord":{"lat":-6.9776,"lon":112.314903},"name":"Taman"},{"country":"ID","id":8080530,"coord":{"lat":-6.9824,"lon":112.338097},"name":"Tracal"},{"country":"ID","id":8080538,"coord":{"lat":-6.9987,"lon":112.353897},"name":"Jagran"},{"country":"ID","id":8080539,"coord":{"lat":-6.999,"lon":112.350899},"name":"Klagen"},{"country":"ID","id":8080575,"coord":{"lat":-8.2546,"lon":112.502502},"name":"Sempolkrajan"},{"country":"ID","id":8080579,"coord":{"lat":-8.3047,"lon":112.503899},"name":"Pandanrejokrajan"},{"country":"ID","id":8080585,"coord":{"lat":-8.3044,"lon":112.512299},"name":"Bandungrejo"},{"country":"ID","id":8080596,"coord":{"lat":-8.2693,"lon":112.521797},"name":"Sumberkertokrajan"},{"country":"ID","id":8080608,"coord":{"lat":-8.3334,"lon":112.542198},"name":"Krajan Sumberbening"},{"country":"ID","id":8080621,"coord":{"lat":-8.3418,"lon":112.561798},"name":"Krajan Srigonco"},{"country":"ID","id":8080629,"coord":{"lat":-8.2744,"lon":112.561302},"name":"Pringgodanikrajan"},{"country":"ID","id":8080635,"coord":{"lat":-8.3068,"lon":112.576302},"name":"Banturkrajan"},{"country":"ID","id":8080637,"coord":{"lat":-8.3178,"lon":112.574097},"name":"Wonorejo"},{"country":"ID","id":8080651,"coord":{"lat":-8.3519,"lon":112.587799},"name":"Gombangan"},{"country":"ID","id":8080662,"coord":{"lat":-8.2745,"lon":112.598701},"name":"Krajan Rejosari"},{"country":"ID","id":8137951,"coord":{"lat":-6.7482,"lon":111.408401},"name":"Ketangi"},{"country":"ID","id":8140898,"coord":{"lat":-6.8775,"lon":112.390198},"name":"Banjaranyar"},{"country":"ID","id":8140901,"coord":{"lat":-6.8776,"lon":112.448402},"name":"Paloh"},{"country":"ID","id":8140902,"coord":{"lat":-6.8801,"lon":112.450897},"name":"Weru"},{"country":"ID","id":8140903,"coord":{"lat":-6.8823,"lon":112.4533},"name":"Sidokumpul"},{"country":"ID","id":8140904,"coord":{"lat":-6.8835,"lon":112.454399},"name":"Waru Lor"},{"country":"ID","id":8140905,"coord":{"lat":-6.8843,"lon":112.452904},"name":"Campurrejo"},{"country":"ID","id":8140907,"coord":{"lat":-6.9564,"lon":112.498901},"name":"Doudo"},{"country":"ID","id":8140908,"coord":{"lat":-6.9594,"lon":112.486198},"name":"Wotan"},{"country":"ID","id":8140909,"coord":{"lat":-6.9699,"lon":112.496399},"name":"Gedangan"},{"country":"ID","id":8140911,"coord":{"lat":-6.9885,"lon":112.497803},"name":"Sambogunung"},{"country":"ID","id":8140912,"coord":{"lat":-6.9886,"lon":112.487198},"name":"Babakbawo"},{"country":"ID","id":8140913,"coord":{"lat":-6.9842,"lon":112.490898},"name":"Saniwonorejo"},{"country":"ID","id":8140915,"coord":{"lat":-6.998,"lon":112.448502},"name":"Madumulyorejo"},{"country":"ID","id":8140917,"coord":{"lat":-6.9949,"lon":112.405602},"name":"Kediren"},{"country":"ID","id":8140922,"coord":{"lat":-6.9852,"lon":112.377602},"name":"Karangcangkring"},{"country":"ID","id":8140923,"coord":{"lat":-6.9919,"lon":112.384697},"name":"Pangansalan"},{"country":"ID","id":8140924,"coord":{"lat":-6.986,"lon":112.382301},"name":"Gedongkedoan"},{"country":"ID","id":8140935,"coord":{"lat":-6.8919,"lon":112.452797},"name":"Banyutengah"},{"country":"ID","id":8140936,"coord":{"lat":-6.9008,"lon":112.462601},"name":"Delegan"},{"country":"ID","id":8140940,"coord":{"lat":-6.887,"lon":112.442902},"name":"Tlogosadang"},{"country":"ID","id":8140948,"coord":{"lat":-6.9187,"lon":112.453003},"name":"Watuguling"},{"country":"ID","id":8140950,"coord":{"lat":-6.9199,"lon":112.438103},"name":"Pantenan"},{"country":"ID","id":8140952,"coord":{"lat":-6.9252,"lon":112.441498},"name":"Ketanen"},{"country":"ID","id":8140953,"coord":{"lat":-6.9145,"lon":112.420601},"name":"Bluri"},{"country":"ID","id":8140954,"coord":{"lat":-6.9164,"lon":112.411697},"name":"Dagan"},{"country":"ID","id":8140959,"coord":{"lat":-6.9261,"lon":112.414803},"name":"Banyubang"},{"country":"ID","id":8140962,"coord":{"lat":-6.9407,"lon":112.411598},"name":"Takerharjo"},{"country":"ID","id":8140964,"coord":{"lat":-6.939,"lon":112.434303},"name":"Siwalan"},{"country":"ID","id":8140965,"coord":{"lat":-6.9365,"lon":112.453003},"name":"Gampeng"},{"country":"ID","id":8140967,"coord":{"lat":-6.9495,"lon":112.428802},"name":"Sumurber"},{"country":"ID","id":8140968,"coord":{"lat":-6.949,"lon":112.443901},"name":"Serah"},{"country":"ID","id":8140969,"coord":{"lat":-6.9586,"lon":112.456703},"name":"Sukodono"},{"country":"ID","id":8140971,"coord":{"lat":-6.9685,"lon":112.397499},"name":"Wonokerto"},{"country":"ID","id":8140974,"coord":{"lat":-6.9737,"lon":112.419197},"name":"Lowayu"},{"country":"ID","id":8140977,"coord":{"lat":-6.9725,"lon":112.4776},"name":"Petung"},{"country":"ID","id":8140978,"coord":{"lat":-6.9849,"lon":112.473701},"name":"Imaan"},{"country":"ID","id":8140979,"coord":{"lat":-6.9803,"lon":112.467796},"name":"Mojopetung"},{"country":"ID","id":8140981,"coord":{"lat":-6.9816,"lon":112.446899},"name":"Mentaras"},{"country":"ID","id":8140982,"coord":{"lat":-6.9813,"lon":112.439796},"name":"Tebuwung"},{"country":"ID","id":8140983,"coord":{"lat":-6.9776,"lon":112.432297},"name":"Jetis"},{"country":"ID","id":8140985,"coord":{"lat":-6.9817,"lon":112.4048},"name":"Bangeran"},{"country":"ID","id":8140987,"coord":{"lat":-6.9788,"lon":112.3918},"name":"Bulangan"},{"country":"ID","id":8140994,"coord":{"lat":-6.8753,"lon":112.403},"name":"Kemantren"},{"country":"ID","id":8140998,"coord":{"lat":-6.9936,"lon":112.393997},"name":"Butungan"},{"country":"ID","id":8140999,"coord":{"lat":-6.9979,"lon":112.4263},"name":"Tiremenggal"},{"country":"ID","id":8141000,"coord":{"lat":-6.9127,"lon":112.457802},"name":"Prupuh"},{"country":"ID","id":8141035,"coord":{"lat":-6.9998,"lon":112.443604},"name":"Sumampir"},{"country":"ID","id":8142541,"coord":{"lat":-6.9218,"lon":112.505798},"name":"Cangaan"},{"country":"ID","id":8142546,"coord":{"lat":-6.9889,"lon":112.5075},"name":"Lasem"},{"country":"ID","id":8142547,"coord":{"lat":-6.9997,"lon":112.508904},"name":"Gupakan"},{"country":"ID","id":8142566,"coord":{"lat":-6.9856,"lon":112.520599},"name":"Kertosonopilang"},{"country":"ID","id":8142567,"coord":{"lat":-6.995,"lon":112.564201},"name":"Asempapak"},{"country":"ID","id":8142568,"coord":{"lat":-6.9965,"lon":112.5728},"name":"Mojoasem"},{"country":"ID","id":8142569,"coord":{"lat":-6.9987,"lon":112.5755},"name":"Asemanis"},{"country":"ID","id":8142578,"coord":{"lat":-6.916,"lon":112.557503},"name":"Kemeduran"},{"country":"ID","id":8142588,"coord":{"lat":-6.9123,"lon":112.530998},"name":"Banyulegi"},{"country":"ID","id":8142598,"coord":{"lat":-6.9391,"lon":112.509499},"name":"Gosari"},{"country":"ID","id":8142603,"coord":{"lat":-6.9435,"lon":112.532204},"name":"Kebonagung"},{"country":"ID","id":8142604,"coord":{"lat":-6.9523,"lon":112.555099},"name":"Karangrejo"},{"country":"ID","id":8142605,"coord":{"lat":-6.9589,"lon":112.554497},"name":"Ketapang"},{"country":"ID","id":8142608,"coord":{"lat":-6.9621,"lon":112.5233},"name":"Bolo"},{"country":"ID","id":8142610,"coord":{"lat":-6.9664,"lon":112.513901},"name":"Wadeng"},{"country":"ID","id":8142611,"coord":{"lat":-6.972,"lon":112.525002},"name":"Sambipondok"},{"country":"ID","id":8142613,"coord":{"lat":-6.971,"lon":112.538597},"name":"Glatik"},{"country":"ID","id":8142615,"coord":{"lat":-6.9838,"lon":112.5644},"name":"Srowo"},{"country":"ID","id":8142617,"coord":{"lat":-6.9856,"lon":112.562302},"name":"Purwodadi"},{"country":"ID","id":8142618,"coord":{"lat":-6.9857,"lon":112.565102},"name":"Sedagaran"},{"country":"ID","id":8142619,"coord":{"lat":-6.9872,"lon":112.5634},"name":"Pengulu"},{"country":"ID","id":8142620,"coord":{"lat":-6.9901,"lon":112.563202},"name":"Kauman"},{"country":"ID","id":8142621,"coord":{"lat":-6.9902,"lon":112.566399},"name":"Mriyunan"},{"country":"ID","id":8142622,"coord":{"lat":-6.9908,"lon":112.561401},"name":"Bunderan"},{"country":"ID","id":8143758,"coord":{"lat":-8.2511,"lon":111.453796},"name":"Wonocoyo Utara"},{"country":"ID","id":8143761,"coord":{"lat":-8.2562,"lon":111.454102},"name":"Nglebeng"},{"country":"ID","id":8143767,"coord":{"lat":-8.2595,"lon":111.488899},"name":"Krajan Ngrambingan"},{"country":"ID","id":8143791,"coord":{"lat":-8.2676,"lon":111.479897},"name":"Banjar"},{"country":"ID","id":8143817,"coord":{"lat":-8.2928,"lon":111.486702},"name":"Ngulung Wetan"},{"country":"ID","id":8144448,"coord":{"lat":-8.1357,"lon":111.395302},"name":"Bangil"},{"country":"ID","id":8144470,"coord":{"lat":-8.144,"lon":111.439201},"name":"Sendang"},{"country":"ID","id":8144495,"coord":{"lat":-8.1878,"lon":111.442497},"name":"Depok"},{"country":"ID","id":8144503,"coord":{"lat":-8.1879,"lon":111.418198},"name":"Sunduk"},{"country":"ID","id":8144526,"coord":{"lat":-8.1953,"lon":111.3815},"name":"Ketanggung"},{"country":"ID","id":8144567,"coord":{"lat":-8.2471,"lon":111.380302},"name":"Sukorejo"},{"country":"ID","id":8144580,"coord":{"lat":-8.2368,"lon":111.411797},"name":"Ngangkruk"},{"country":"ID","id":8144599,"coord":{"lat":-8.2348,"lon":111.451302},"name":"Gayam"},{"country":"ID","id":8144603,"coord":{"lat":-8.2183,"lon":111.450401},"name":"Kertosono"},{"country":"ID","id":8144628,"coord":{"lat":-8.2025,"lon":111.418098},"name":"Ngromo"},{"country":"ID","id":8144641,"coord":{"lat":-8.2136,"lon":111.427696},"name":"Karangtengah"},{"country":"ID","id":8144646,"coord":{"lat":-8.1272,"lon":111.495598},"name":"Puyung"},{"country":"ID","id":8144651,"coord":{"lat":-8.1346,"lon":111.4813},"name":"Sidomulyo"},{"country":"ID","id":8144702,"coord":{"lat":-8.184,"lon":111.485298},"name":"Plalar"},{"country":"ID","id":8144723,"coord":{"lat":-8.2056,"lon":111.482399},"name":"Banteng"},{"country":"ID","id":8144728,"coord":{"lat":-8.2133,"lon":111.475197},"name":"Sawahan"},{"country":"ID","id":8144757,"coord":{"lat":-8.2384,"lon":111.464104},"name":"Ngrencak"},{"country":"ID","id":8144768,"coord":{"lat":-8.2355,"lon":111.456703},"name":"Kebonagung"},{"country":"ID","id":8144775,"coord":{"lat":-8.2151,"lon":111.457802},"name":"Kebonsari"},{"country":"ID","id":8144784,"coord":{"lat":-8.2178,"lon":111.466797},"name":"Barang"},{"country":"ID","id":8170706,"coord":{"lat":-8.3413,"lon":112.6493},"name":"Gajahrejo Krajan"},{"country":"ID","id":8170715,"coord":{"lat":-8.2949,"lon":112.651703},"name":"Gedangan"},{"country":"ID","id":8170724,"coord":{"lat":-8.2986,"lon":112.660202},"name":"Sumbergesing Wetan"},{"country":"ID","id":8170728,"coord":{"lat":-8.3702,"lon":112.657997},"name":"Krajan Sidodadi"},{"country":"ID","id":8170733,"coord":{"lat":-8.2773,"lon":112.675499},"name":"Ringinsari Krajan"},{"country":"ID","id":8170749,"coord":{"lat":-8.2885,"lon":112.6884},"name":"Argotirto Krajan"},{"country":"ID","id":8170753,"coord":{"lat":-8.2604,"lon":112.685799},"name":"Sumbermanjing Krajan"},{"country":"ID","id":8170763,"coord":{"lat":-8.3666,"lon":112.713501},"name":"Kedungbanteng Krajan"},{"country":"ID","id":8170770,"coord":{"lat":-8.2639,"lon":112.703499},"name":"Krajan Harjokuncaran"},{"country":"ID","id":8170781,"coord":{"lat":-8.2779,"lon":112.727501},"name":"Ringin Kembar"},{"country":"ID","id":8170800,"coord":{"lat":-8.2808,"lon":112.742104},"name":"Donorejo"},{"country":"ID","id":8170804,"coord":{"lat":-8.3512,"lon":112.743797},"name":"Sidomulyo Kulon"},{"country":"ID","id":8174561,"coord":{"lat":-8.2529,"lon":112.851402},"name":"Wirotaman"},{"country":"ID","id":8174563,"coord":{"lat":-8.2635,"lon":112.869797},"name":"Boncis"},{"country":"ID","id":8174578,"coord":{"lat":-8.2633,"lon":112.752502},"name":"Sekarbanyu"},{"country":"ID","id":8174593,"coord":{"lat":-8.2682,"lon":112.808197},"name":"Panggungsari"},{"country":"ID","id":8174598,"coord":{"lat":-8.2671,"lon":112.777199},"name":"Sumberarum"},{"country":"ID","id":8174627,"coord":{"lat":-8.2995,"lon":112.841003},"name":"Sumbersarikrajan"},{"country":"ID","id":8174638,"coord":{"lat":-8.3015,"lon":112.781898},"name":"Sawur Tengah"},{"country":"ID","id":8174647,"coord":{"lat":-8.3078,"lon":112.847},"name":"Gampingan"},{"country":"ID","id":8174678,"coord":{"lat":-8.3536,"lon":112.8452},"name":"Purwodadi Lor"},{"country":"ID","id":8180824,"coord":{"lat":-8.267,"lon":112.951302},"name":"Kaliuling"},{"country":"ID","id":8180829,"coord":{"lat":-8.2864,"lon":112.979103},"name":"Tempursari"},{"country":"ID","id":8180830,"coord":{"lat":-8.2791,"lon":112.973297},"name":"Krajan Pundungsari"},{"country":"ID","id":8180840,"coord":{"lat":-8.2915,"lon":112.974098},"name":"Krajan Tempursari"},{"country":"ID","id":8180843,"coord":{"lat":-8.2969,"lon":112.952797},"name":"Glagahan"},{"country":"ID","id":8180847,"coord":{"lat":-8.3016,"lon":112.903297},"name":"Krajan Satu B Lebakharjo"},{"country":"ID","id":8180853,"coord":{"lat":-8.3041,"lon":112.947304},"name":"Purorejo"},{"country":"ID","id":8180858,"coord":{"lat":-8.3075,"lon":112.950302},"name":"Umbulsari"},{"country":"ID","id":8180863,"coord":{"lat":-8.3294,"lon":112.951302},"name":"Tegalrejo"},{"country":"ID","id":8180911,"coord":{"lat":-8.2616,"lon":113.224701},"name":"Sumberwongso"},{"country":"ID","id":8180923,"coord":{"lat":-8.2588,"lon":113.270599},"name":"Sidomulyo"},{"country":"ID","id":8180924,"coord":{"lat":-8.27,"lon":113.279297},"name":"Wotgalih"},{"country":"ID","id":8180927,"coord":{"lat":-8.2661,"lon":113.307404},"name":"Tanjungrejo Lor"},{"country":"ID","id":8180931,"coord":{"lat":-8.2625,"lon":113.326698},"name":"Krajan Dua Keting"},{"country":"ID","id":8180933,"coord":{"lat":-8.2834,"lon":113.336098},"name":"Igir-igir"},{"country":"ID","id":8180936,"coord":{"lat":-8.3105,"lon":113.331703},"name":"Sidomulyo"},{"country":"ID","id":8180942,"coord":{"lat":-8.2997,"lon":113.3489},"name":"Kraton"},{"country":"ID","id":8180957,"coord":{"lat":-8.3436,"lon":113.372803},"name":"Kepanjen"},{"country":"ID","id":8183551,"coord":{"lat":-8.0163,"lon":111.379601},"name":"Krajan Tengah"},{"country":"ID","id":8183566,"coord":{"lat":-8.0361,"lon":111.389297},"name":"Krajan Tugurejo"},{"country":"ID","id":8183572,"coord":{"lat":-8.021,"lon":111.410004},"name":"Broto"},{"country":"ID","id":8183576,"coord":{"lat":-8.0065,"lon":111.414101},"name":"Melikan"},{"country":"ID","id":8183577,"coord":{"lat":-8.0014,"lon":111.421997},"name":"Banggel"},{"country":"ID","id":8183579,"coord":{"lat":-8.0059,"lon":111.4216},"name":"Maron"},{"country":"ID","id":8183584,"coord":{"lat":-8.0138,"lon":111.416603},"name":"Krajan Menggare"},{"country":"ID","id":8183587,"coord":{"lat":-8.0353,"lon":111.414497},"name":"Dawang"},{"country":"ID","id":8183593,"coord":{"lat":-8.0381,"lon":111.397499},"name":"Krajan Caluk"},{"country":"ID","id":8183595,"coord":{"lat":-8.0435,"lon":111.393402},"name":"Krajan Senepo"},{"country":"ID","id":8183623,"coord":{"lat":-8.0069,"lon":111.461899},"name":"Klatakan"},{"country":"ID","id":8183625,"coord":{"lat":-8.0058,"lon":111.452599},"name":"Kudo"},{"country":"ID","id":8183630,"coord":{"lat":-8.0186,"lon":111.452499},"name":"Gabahan"},{"country":"ID","id":8183632,"coord":{"lat":-8.0041,"lon":111.446503},"name":"Beluk"},{"country":"ID","id":8183634,"coord":{"lat":-8.009,"lon":111.446198},"name":"Nambak Tengah"},{"country":"ID","id":8183640,"coord":{"lat":-8.0198,"lon":111.444099},"name":"Bugis"},{"country":"ID","id":8183645,"coord":{"lat":-8.03,"lon":111.453697},"name":"Tiron"},{"country":"ID","id":8183651,"coord":{"lat":-8.0294,"lon":111.4627},"name":"Munung"},{"country":"ID","id":8183662,"coord":{"lat":-8.0083,"lon":111.432098},"name":"Setono"},{"country":"ID","id":8183690,"coord":{"lat":-8.0846,"lon":111.385101},"name":"Krajan Mrayan"},{"country":"ID","id":8183696,"coord":{"lat":-8.0894,"lon":111.414597},"name":"Ngembel"},{"country":"ID","id":8183733,"coord":{"lat":-8.0942,"lon":111.469902},"name":"Krajan Selur"},{"country":"ID","id":8183752,"coord":{"lat":-8.0935,"lon":111.462601},"name":"Nglorogan"},{"country":"ID","id":8185014,"coord":{"lat":-8.2558,"lon":113.430199},"name":"Gununglincingkrajan"},{"country":"ID","id":8185021,"coord":{"lat":-8.2717,"lon":113.493896},"name":"Karangduren Dua"},{"country":"ID","id":8185032,"coord":{"lat":-8.2641,"lon":113.447701},"name":"Kebonsari"},{"country":"ID","id":8185039,"coord":{"lat":-8.2766,"lon":113.451797},"name":"Kebonsari Kidul"},{"country":"ID","id":8185042,"coord":{"lat":-8.2796,"lon":113.428802},"name":"Rejosarikrajan"},{"country":"ID","id":8185043,"coord":{"lat":-8.2794,"lon":113.407303},"name":"Kesambilerenkrajan"},{"country":"ID","id":8185049,"coord":{"lat":-8.3344,"lon":113.472801},"name":"Grendenkrajan Satu"},{"country":"ID","id":8185050,"coord":{"lat":-8.2967,"lon":113.396698},"name":"Krebetkrajan"},{"country":"ID","id":8185057,"coord":{"lat":-8.2875,"lon":113.477699},"name":"Wringintelu"},{"country":"ID","id":8185059,"coord":{"lat":-8.2867,"lon":113.487396},"name":"Kedungsumurkrajan"},{"country":"ID","id":8185063,"coord":{"lat":-8.2864,"lon":113.381897},"name":"Krajan A Wonorejo"},{"country":"ID","id":8185064,"coord":{"lat":-8.2901,"lon":113.3862},"name":"Krajan C Wonorejo"},{"country":"ID","id":8185067,"coord":{"lat":-8.3166,"lon":113.482597},"name":"Purwoharjokrajan Satu"},{"country":"ID","id":8185069,"coord":{"lat":-8.3081,"lon":113.458603},"name":"Krajan Timur Mlokorejo"},{"country":"ID","id":8185073,"coord":{"lat":-8.308,"lon":113.433701},"name":"Ampeldentokrajan"},{"country":"ID","id":8185077,"coord":{"lat":-8.3122,"lon":113.407898},"name":"Kebonan"},{"country":"ID","id":8185084,"coord":{"lat":-8.3365,"lon":113.384201},"name":"Munengkrajan"},{"country":"ID","id":8185090,"coord":{"lat":-8.3445,"lon":113.429604},"name":"Mojomulyokrajan"},{"country":"ID","id":8185094,"coord":{"lat":-8.3553,"lon":113.446602},"name":"Mojosarikrajan"},{"country":"ID","id":8185102,"coord":{"lat":-8.3728,"lon":113.479103},"name":"Krajan Puger Wetan"},{"country":"ID","id":8185104,"coord":{"lat":-8.3722,"lon":113.475899},"name":"Kauman"},{"country":"ID","id":8185137,"coord":{"lat":-8.3307,"lon":113.414497},"name":"Menampukrajan"},{"country":"ID","id":8185272,"coord":{"lat":-8.2546,"lon":113.551498},"name":"Krajan Lor Gumelar"},{"country":"ID","id":8185303,"coord":{"lat":-8.397,"lon":113.592003},"name":"Sumberejo"},{"country":"ID","id":8185368,"coord":{"lat":-8.2622,"lon":113.565598},"name":"Gunungsari"},{"country":"ID","id":8185374,"coord":{"lat":-8.2714,"lon":113.505501},"name":"Lohong"},{"country":"ID","id":8185385,"coord":{"lat":-8.281,"lon":113.556702},"name":"Glundengankrajan"},{"country":"ID","id":8185389,"coord":{"lat":-8.2836,"lon":113.5196},"name":"Tutul"},{"country":"ID","id":8185393,"coord":{"lat":-8.2897,"lon":113.529297},"name":"Krajan Lor Balung Kulon"},{"country":"ID","id":8185394,"coord":{"lat":-8.2902,"lon":113.542099},"name":"Balungkopi"},{"country":"ID","id":8185403,"coord":{"lat":-8.2919,"lon":113.622704},"name":"Kemuning"},{"country":"ID","id":8185412,"coord":{"lat":-8.2987,"lon":113.507599},"name":"Darungan"},{"country":"ID","id":8185421,"coord":{"lat":-8.3082,"lon":113.615402},"name":"Krajan Kertonegoro"},{"country":"ID","id":8185429,"coord":{"lat":-8.3252,"lon":113.503502},"name":"Penitik"},{"country":"ID","id":8185431,"coord":{"lat":-8.3187,"lon":113.526604},"name":"Kebonsari"},{"country":"ID","id":8185436,"coord":{"lat":-8.3208,"lon":113.612297},"name":"Karanganyarkrajan"},{"country":"ID","id":8185447,"coord":{"lat":-8.3439,"lon":113.567802},"name":"Krajan Wetan Tanjungrejo"},{"country":"ID","id":8185452,"coord":{"lat":-8.3426,"lon":113.606003},"name":"Sumberan"},{"country":"ID","id":8185455,"coord":{"lat":-8.3436,"lon":113.582497},"name":"Kesilirkrajan"},{"country":"ID","id":8185463,"coord":{"lat":-8.3729,"lon":113.6036},"name":"Bonsari"},{"country":"ID","id":8185492,"coord":{"lat":-8.3558,"lon":113.537598},"name":"Sambiringkik"},{"country":"ID","id":8190773,"coord":{"lat":-8.1953,"lon":113.618301},"name":"Dukuhsia"},{"country":"ID","id":8190799,"coord":{"lat":-8.2452,"lon":113.546402},"name":"Curahlele Wetan"},{"country":"ID","id":8190832,"coord":{"lat":-8.1394,"lon":113.597397},"name":"Gludug"},{"country":"ID","id":8190875,"coord":{"lat":-8.1645,"lon":113.560898},"name":"Dukuh Dua"},{"country":"ID","id":8190881,"coord":{"lat":-8.1697,"lon":113.550499},"name":"Andongsari"},{"country":"ID","id":8190883,"coord":{"lat":-8.1741,"lon":113.603104},"name":"Kemuningsari"},{"country":"ID","id":8190921,"coord":{"lat":-8.1838,"lon":113.612099},"name":"Gugut"},{"country":"ID","id":8190949,"coord":{"lat":-8.2029,"lon":113.534599},"name":"Bangsalsari"},{"country":"ID","id":8190951,"coord":{"lat":-8.2028,"lon":113.556},"name":"Langkap"},{"country":"ID","id":8190952,"coord":{"lat":-8.201,"lon":113.564796},"name":"Jetis"},{"country":"ID","id":8190981,"coord":{"lat":-8.2089,"lon":113.591103},"name":"Pecoro"},{"country":"ID","id":8190990,"coord":{"lat":-8.2227,"lon":113.529099},"name":"Sukorejo"},{"country":"ID","id":8191020,"coord":{"lat":-8.2198,"lon":113.607498},"name":"Bedadung Kulon"},{"country":"ID","id":8191025,"coord":{"lat":-8.2315,"lon":113.580803},"name":"Rowotamtu"},{"country":"ID","id":8191031,"coord":{"lat":-8.2398,"lon":113.569298},"name":"Gumawang"},{"country":"ID","id":8195479,"coord":{"lat":-8.3849,"lon":113.677299},"name":"Kraton"},{"country":"ID","id":8195483,"coord":{"lat":-8.4068,"lon":113.740601},"name":"Andongrejo"},{"country":"ID","id":8197161,"coord":{"lat":-8.5415,"lon":113.970901},"name":"Kandangan"},{"country":"ID","id":8197207,"coord":{"lat":-8.5618,"lon":114.060303},"name":"Rejoagung"},{"country":"ID","id":8197220,"coord":{"lat":-8.5898,"lon":114.118896},"name":"Sidorukun"},{"country":"ID","id":8197226,"coord":{"lat":-8.5394,"lon":114.110298},"name":"Sumberbening"},{"country":"ID","id":8197230,"coord":{"lat":-8.5052,"lon":114.1138},"name":"Sukorejo"},{"country":"ID","id":8197234,"coord":{"lat":-8.5596,"lon":114.090401},"name":"Mulyosari"},{"country":"ID","id":8224624,"coord":{"lat":-1.24204,"lon":116.894188},"name":"City of Balikpapan"},{"country":"IE","id":2961129,"coord":{"lat":51.916672,"lon":-8.6},"name":"Tower"},{"country":"IE","id":2961461,"coord":{"lat":53.582779,"lon":-6.10833},"name":"Skerries"},{"country":"IE","id":2961690,"coord":{"lat":52.275829,"lon":-6.38444},"name":"Rosslare"},{"country":"IE","id":2962066,"coord":{"lat":51.87389,"lon":-8.34444},"name":"Passage West"},{"country":"IE","id":2962170,"coord":{"lat":53.106392,"lon":-6.76528},"name":"Old Kilcullen"},{"country":"IE","id":2962222,"coord":{"lat":53.55611,"lon":-6.77},"name":"Newtown Trim"},{"country":"IE","id":2962440,"coord":{"lat":53.33783,"lon":-9.18002},"name":"Moycullen"},{"country":"IE","id":2962450,"coord":{"lat":55.183331,"lon":-7.05},"name":"Moville"},{"country":"IE","id":2962543,"coord":{"lat":53.293079,"lon":-6.15312},"name":"Monkstown"},{"country":"IE","id":2962556,"coord":{"lat":53.14056,"lon":-7.06639},"name":"Monasterevin"},{"country":"IE","id":2963007,"coord":{"lat":53.681938,"lon":-6.23917},"name":"Laytown"},{"country":"IE","id":2963388,"coord":{"lat":52.176109,"lon":-7.335},"name":"Kill"},{"country":"IE","id":2964492,"coord":{"lat":52.15139,"lon":-6.98611},"name":"Dunmore East"},{"country":"IE","id":2964503,"coord":{"lat":55.01667,"lon":-8.1},"name":"Dunlewy"},{"country":"IE","id":2964820,"coord":{"lat":51.586658,"lon":-9.05026},"name":"Derry"},{"country":"IE","id":2965482,"coord":{"lat":53.342499,"lon":-7.61389},"name":"Clara"},{"country":"IE","id":2965509,"coord":{"lat":53.15694,"lon":-6.96667},"name":"Cherryville"},{"country":"IE","id":2966130,"coord":{"lat":53.96405,"lon":-6.36514},"name":"Blackrock"},{"country":"IE","id":2966658,"coord":{"lat":52.50972,"lon":-9.67167},"name":"Ballybunnion"},{"country":"IE","id":2966794,"coord":{"lat":53.612782,"lon":-6.18194},"name":"Balbriggan"},{"country":"IE","id":2966800,"coord":{"lat":52.70031,"lon":-6.96181},"name":"Bagenalstown"},{"country":"IE","id":2966883,"coord":{"lat":52.79306,"lon":-6.14139},"name":"Arklow"},{"country":"IE","id":3230840,"coord":{"lat":53.49667,"lon":-6.11111},"name":"Portraine"},{"country":"IE","id":3306439,"coord":{"lat":52.881672,"lon":-8.19583},"name":"Nenagh Bridge"},{"country":"IE","id":6857857,"coord":{"lat":53.127708,"lon":-6.06347},"name":"Charlesland"},{"country":"IE","id":7648535,"coord":{"lat":52.68198,"lon":-8.63955},"name":"Moyross"},{"country":"IL","id":282582,"coord":{"lat":31.827539,"lon":35.130932},"name":"Har Adar"},{"country":"IL","id":293014,"coord":{"lat":32.298191,"lon":34.913132},"name":"Zur Moshe"},{"country":"IL","id":293020,"coord":{"lat":31.717939,"lon":35.09549},"name":"Zur Hadassa"},{"country":"IL","id":293203,"coord":{"lat":30.987221,"lon":34.931389},"name":"Yeroham"},{"country":"IL","id":293220,"coord":{"lat":32.70356,"lon":35.506618},"name":"Yavneel"},{"country":"IL","id":293273,"coord":{"lat":32.792122,"lon":35.329842},"name":"Uzeir"},{"country":"IL","id":293310,"coord":{"lat":32.703609,"lon":35.226669},"name":"Timrat"},{"country":"IL","id":293354,"coord":{"lat":32.24995,"lon":34.91737},"name":"Tel Mond"},{"country":"IL","id":293449,"coord":{"lat":32.60606,"lon":35.33408},"name":"Sulam"},{"country":"IL","id":293522,"coord":{"lat":33.074718,"lon":35.14608},"name":"Shelomi"},{"country":"IL","id":293633,"coord":{"lat":32.053059,"lon":34.877781},"name":"Savyon"},{"country":"IL","id":293657,"coord":{"lat":32.942661,"lon":35.341358},"name":"Sajur"},{"country":"IL","id":293688,"coord":{"lat":32.968941,"lon":35.54258},"name":"Rosh Pinna"},{"country":"IL","id":293721,"coord":{"lat":32.75,"lon":35.099998},"name":"Rekhasim"},{"country":"IL","id":293773,"coord":{"lat":32.700562,"lon":35.179722},"name":"Ramat Yishay"},{"country":"IL","id":293942,"coord":{"lat":32.305771,"lon":34.909111},"name":"Pardesiyya"},{"country":"IL","id":294003,"coord":{"lat":32.314701,"lon":34.896172},"name":"Nordiyya"},{"country":"IL","id":294089,"coord":{"lat":32.63063,"lon":35.34885},"name":"Nein"},{"country":"IL","id":294093,"coord":{"lat":32.061939,"lon":34.913891},"name":"Nehalim"},{"country":"IL","id":294205,"coord":{"lat":33.027809,"lon":35.25658},"name":"Miilya"},{"country":"IL","id":294247,"coord":{"lat":33.279179,"lon":35.579498},"name":"Metulla"},{"country":"IL","id":294303,"coord":{"lat":31.853889,"lon":34.838612},"name":"Mazkeret Batya"},{"country":"IL","id":294545,"coord":{"lat":31.98667,"lon":34.851109},"name":"Kefar Habad"},{"country":"IL","id":294571,"coord":{"lat":32.833328,"lon":35.25},"name":"Kaukab Abu el Hija"},{"country":"IL","id":294600,"coord":{"lat":32.95451,"lon":35.1623},"name":"Kafr Yasif"},{"country":"IL","id":294607,"coord":{"lat":32.64521,"lon":35.421471},"name":"Kafr Misr"},{"country":"IL","id":294611,"coord":{"lat":32.721291,"lon":35.441219},"name":"Kafr Kama"},{"country":"IL","id":294615,"coord":{"lat":32.866669,"lon":35.213058},"name":"Kabul"},{"country":"IL","id":294627,"coord":{"lat":33.02216,"lon":35.446941},"name":"Jish"},{"country":"IL","id":294634,"coord":{"lat":32.15583,"lon":34.952782},"name":"Jaljulya"},{"country":"IL","id":294658,"coord":{"lat":32.681641,"lon":35.32365},"name":"Iksal"},{"country":"IL","id":294661,"coord":{"lat":32.761669,"lon":35.10083},"name":"Ibtin"},{"country":"IL","id":295089,"coord":{"lat":32.06028,"lon":34.874722},"name":"Ganne Tiqwa"},{"country":"IL","id":295104,"coord":{"lat":33.04895,"lon":35.308941},"name":"Mafshatah"},{"country":"IL","id":295122,"coord":{"lat":32.269588,"lon":34.887589},"name":"Even Yehuda"},{"country":"IL","id":295157,"coord":{"lat":32.99231,"lon":35.1479},"name":"Esh Sheikh Dannun"},{"country":"IL","id":295224,"coord":{"lat":31.201389,"lon":35.363892},"name":"En Boqeq"},{"country":"IL","id":295232,"coord":{"lat":32.407928,"lon":34.924332},"name":"Elyakhin"},{"country":"IL","id":295249,"coord":{"lat":32.983379,"lon":35.09837},"name":"El Mazraa"},{"country":"IL","id":295269,"coord":{"lat":32.599998,"lon":34.950001},"name":"El Fureidis"},{"country":"IL","id":295291,"coord":{"lat":32.83622,"lon":35.400398},"name":"Eilabun"},{"country":"IL","id":295339,"coord":{"lat":32.861961,"lon":35.363651},"name":"Deir Hanna"},{"country":"IL","id":295370,"coord":{"lat":32.692558,"lon":35.371231},"name":"Dabburiya"},{"country":"IL","id":295379,"coord":{"lat":32.977459,"lon":35.33345},"name":"Buqeia"},{"country":"IL","id":295380,"coord":{"lat":32.806358,"lon":35.364861},"name":"Bueina"},{"country":"IL","id":295404,"coord":{"lat":32.75,"lon":35.23333},"name":"Bir el Maksur"},{"country":"IL","id":295424,"coord":{"lat":32.327511,"lon":34.888779},"name":"Bet Yizhaq"},{"country":"IL","id":295475,"coord":{"lat":32.001389,"lon":34.83028},"name":"Bet Dagan"},{"country":"IL","id":295515,"coord":{"lat":31.783331,"lon":34.75},"name":"Bene Ayish"},{"country":"IL","id":295553,"coord":{"lat":32.73444,"lon":35.145828},"name":"Basmat Tabun"},{"country":"IL","id":295613,"coord":{"lat":32.683331,"lon":34.933331},"name":"Atlit"},{"country":"IL","id":295772,"coord":{"lat":31.80592,"lon":35.109299},"name":"Abu Ghaush"},{"country":"IL","id":386042,"coord":{"lat":32.694641,"lon":35.392521},"name":"Shibli"},{"country":"IL","id":386194,"coord":{"lat":32.779171,"lon":35.306938},"name":"Rumat Heib"},{"country":"IL","id":386253,"coord":{"lat":32.894428,"lon":35.369308},"name":"Sallama"},{"country":"IL","id":386445,"coord":{"lat":32.993851,"lon":35.277931},"name":"Kefar Weradim"},{"country":"IL","id":6693244,"coord":{"lat":31.372841,"lon":34.816189},"name":"Lehavim"},{"country":"IL","id":6929924,"coord":{"lat":30.85154,"lon":34.783401},"name":"Midreshet Ben-Gurion"},{"country":"IL","id":7117228,"coord":{"lat":32.518879,"lon":34.904591},"name":"Qesarya"},{"country":"IL","id":8199378,"coord":{"lat":31.932211,"lon":35.044159},"name":"Modiin Ilit"},{"country":"IL","id":8199382,"coord":{"lat":31.929729,"lon":35.0215},"name":"Hashmonaim"},{"country":"IL","id":8199383,"coord":{"lat":31.917641,"lon":35.032219},"name":"Lapid"},{"country":"IL","id":8199384,"coord":{"lat":31.919821,"lon":35.03669},"name":"Kfar NaOranim"},{"country":"IL","id":8199385,"coord":{"lat":31.848761,"lon":35.035831},"name":"Mevo horon"},{"country":"IL","id":8199386,"coord":{"lat":31.86145,"lon":35.16861},"name":"Givat Zeev"},{"country":"IL","id":8199387,"coord":{"lat":31.875811,"lon":35.12999},"name":"Beit Horon"},{"country":"IL","id":8199389,"coord":{"lat":31.96236,"lon":35.065529},"name":"Naale"},{"country":"IL","id":8199390,"coord":{"lat":31.84927,"lon":35.16106},"name":"Givon HaHadasha"},{"country":"IL","id":8199392,"coord":{"lat":31.93927,"lon":35.135391},"name":"Talmon"},{"country":"IL","id":8199393,"coord":{"lat":31.92609,"lon":35.13393},"name":"Dolev"},{"country":"IL","id":8199394,"coord":{"lat":32.106499,"lon":35.18449},"name":"Ariel"},{"country":"IL","id":8199421,"coord":{"lat":32.14677,"lon":34.986221},"name":"Nirit"},{"country":"IL","id":8199422,"coord":{"lat":32.119259,"lon":35.12896},"name":"Revava"},{"country":"IM","id":3042196,"coord":{"lat":54.084869,"lon":-4.75099},"name":"Port Erin"},{"country":"IN","id":1163626,"coord":{"lat":34.916672,"lon":76.75},"name":"Thang"},{"country":"IN","id":1252668,"coord":{"lat":27.633329,"lon":93.833328},"name":"Ziro"},{"country":"IN","id":1252702,"coord":{"lat":25.700001,"lon":82.73333},"name":"Zafarabad"},{"country":"IN","id":1252714,"coord":{"lat":32.166672,"lon":76.199997},"name":"Yol"},{"country":"IN","id":1252753,"coord":{"lat":15.63333,"lon":76.01667},"name":"Yelbarga"},{"country":"IN","id":1252756,"coord":{"lat":12.06667,"lon":77.033333},"name":"Yelandur"},{"country":"IN","id":1252783,"coord":{"lat":17.65,"lon":83.26667},"name":"Yarada"},{"country":"IN","id":1252810,"coord":{"lat":24.66667,"lon":94.066673},"name":"Yairipok"},{"country":"IN","id":1252964,"coord":{"lat":24.6,"lon":94.033333},"name":"Wangjing"},{"country":"IN","id":1252998,"coord":{"lat":12.76667,"lon":79.783333},"name":"Wallajahbad"},{"country":"IN","id":1253024,"coord":{"lat":20.76667,"lon":73.48333},"name":"Waghai"},{"country":"IN","id":1253052,"coord":{"lat":18.73333,"lon":73.650002},"name":"Wadgaon"},{"country":"IN","id":1253115,"coord":{"lat":23.183331,"lon":73.48333},"name":"Virpur"},{"country":"IN","id":1253147,"coord":{"lat":11.48333,"lon":78.73333},"name":"Viraganur"},{"country":"IN","id":1253162,"coord":{"lat":22.200001,"lon":71.366669},"name":"Vinchia"},{"country":"IN","id":1253175,"coord":{"lat":9.13227,"lon":78.166351},"name":"Vilattikulam"},{"country":"IN","id":1253177,"coord":{"lat":12.03333,"lon":79.550003},"name":"Vikravandi"},{"country":"IN","id":1253186,"coord":{"lat":11.23333,"lon":77.5},"name":"Vijayapuri"},{"country":"IN","id":1253217,"coord":{"lat":12.1,"lon":79.25},"name":"Vettavalam"},{"country":"IN","id":1253257,"coord":{"lat":15.86667,"lon":73.633331},"name":"Vengurla"},{"country":"IN","id":1253328,"coord":{"lat":10.53333,"lon":77.949997},"name":"Vedasandur"},{"country":"IN","id":1253381,"coord":{"lat":21.73333,"lon":72.066673},"name":"Vartej"},{"country":"IN","id":1253401,"coord":{"lat":15.21667,"lon":73.916672},"name":"Varca"},{"country":"IN","id":1253425,"coord":{"lat":20.75,"lon":73.366669},"name":"Vansada"},{"country":"IN","id":1253454,"coord":{"lat":12.89278,"lon":80.080833},"name":"Vandalur"},{"country":"IN","id":1253471,"coord":{"lat":15.53333,"lon":74.133331},"name":"Valpoy"},{"country":"IN","id":1253481,"coord":{"lat":10.71667,"lon":79.083328},"name":"Vallam"},{"country":"IN","id":1253490,"coord":{"lat":11.92094,"lon":79.58239},"name":"Valavanur"},{"country":"IN","id":1253500,"coord":{"lat":11.9,"lon":75.366669},"name":"Valapattanam"},{"country":"IN","id":1253504,"coord":{"lat":10.89012,"lon":79.393219},"name":"Valangaiman"},{"country":"IN","id":1253559,"coord":{"lat":22.299999,"lon":73.383331},"name":"Vaghodia"},{"country":"IN","id":1253621,"coord":{"lat":11.16667,"lon":77.433327},"name":"Uttukkuli"},{"country":"IN","id":1253640,"coord":{"lat":21.23333,"lon":72.866669},"name":"Utran"},{"country":"IN","id":1253694,"coord":{"lat":34.083328,"lon":74.033333},"name":"Uri"},{"country":"IN","id":1253719,"coord":{"lat":11.26667,"lon":78.51667},"name":"Uppiliyapuram"},{"country":"IN","id":1253751,"coord":{"lat":26.15,"lon":75.216667},"name":"Uniara"},{"country":"IN","id":1253796,"coord":{"lat":26.510559,"lon":78.936668},"name":"Umri"},{"country":"IN","id":1253815,"coord":{"lat":21.83333,"lon":71.816673},"name":"Umrala"},{"country":"IN","id":1253898,"coord":{"lat":21.966669,"lon":80.466667},"name":"Ukwa"},{"country":"IN","id":1253901,"coord":{"lat":29.51667,"lon":75.866669},"name":"Uklana"},{"country":"IN","id":1253930,"coord":{"lat":26.783331,"lon":80.333328},"name":"Ugu"},{"country":"IN","id":1253947,"coord":{"lat":24.716669,"lon":75.966667},"name":"Udpura"},{"country":"IN","id":1253992,"coord":{"lat":20.133329,"lon":84.383331},"name":"Udaigiri"},{"country":"IN","id":1254025,"coord":{"lat":13.16417,"lon":76.666672},"name":"Turuvekere"},{"country":"IN","id":1254142,"coord":{"lat":33.866669,"lon":74.76667},"name":"Tsrar Sharif"},{"country":"IN","id":1254177,"coord":{"lat":19.933331,"lon":73.550003},"name":"Trimbak"},{"country":"IN","id":1254198,"coord":{"lat":33.933331,"lon":75.099998},"name":"Tral"},{"country":"IN","id":1254214,"coord":{"lat":28.883329,"lon":75.916672},"name":"Tosham"},{"country":"IN","id":1254222,"coord":{"lat":25.450001,"lon":79.133331},"name":"Tori Fatehpur"},{"country":"IN","id":1254231,"coord":{"lat":23.9,"lon":86.199997},"name":"Topchanchi"},{"country":"IN","id":1254302,"coord":{"lat":29.66806,"lon":77.322502},"name":"Titron"},{"country":"IN","id":1254310,"coord":{"lat":26.6,"lon":94.199997},"name":"Titabar"},{"country":"IN","id":1254321,"coord":{"lat":10.99857,"lon":79.452271},"name":"Thiruvidaimaruthur"},{"country":"IN","id":1254367,"coord":{"lat":11.23333,"lon":79.833328},"name":"Tirumullaivasal"},{"country":"IN","id":1254374,"coord":{"lat":12.21,"lon":76.906387},"name":"Tirumakudal Narsipur"},{"country":"IN","id":1254378,"coord":{"lat":10.84431,"lon":78.956467},"name":"Thirukattupalli"},{"country":"IN","id":1254400,"coord":{"lat":21.683331,"lon":79.699997},"name":"Tirodi"},{"country":"IN","id":1254415,"coord":{"lat":31.83333,"lon":76.5},"name":"Tira Sujanpur"},{"country":"IN","id":1254442,"coord":{"lat":25.616671,"lon":80.533333},"name":"Tindwari"},{"country":"IN","id":1254513,"coord":{"lat":29.23333,"lon":77.349998},"name":"Tikri"},{"country":"IN","id":1254590,"coord":{"lat":10.88405,"lon":79.103622},"name":"Thiruvaiyaru"},{"country":"IN","id":1254608,"coord":{"lat":31.116671,"lon":77.349998},"name":"Theog"},{"country":"IN","id":1254609,"coord":{"lat":23.316669,"lon":92.75},"name":"Thenzawl"},{"country":"IN","id":1254647,"coord":{"lat":33.549999,"lon":74.383331},"name":"Thanna Mandi"},{"country":"IN","id":1254663,"coord":{"lat":23,"lon":74.566673},"name":"Thandla"},{"country":"IN","id":1254709,"coord":{"lat":27.91667,"lon":96.166672},"name":"Tezu"},{"country":"IN","id":1254751,"coord":{"lat":23.4,"lon":79.550003},"name":"Tendukheda"},{"country":"IN","id":1254798,"coord":{"lat":25.98333,"lon":78.26667},"name":"Tekanpur"},{"country":"IN","id":1254832,"coord":{"lat":27.58333,"lon":91.866669},"name":"Tawang"},{"country":"IN","id":1254842,"coord":{"lat":11.13333,"lon":78.449997},"name":"Tattayyangarpettai"},{"country":"IN","id":1254925,"coord":{"lat":20.73333,"lon":83.650002},"name":"Tarabha"},{"country":"IN","id":1254972,"coord":{"lat":22.66667,"lon":70.73333},"name":"Tankara"},{"country":"IN","id":1255127,"coord":{"lat":27.049999,"lon":79.650002},"name":"Talgram"},{"country":"IN","id":1255130,"coord":{"lat":23.566669,"lon":76.716667},"name":"Talen"},{"country":"IN","id":1255146,"coord":{"lat":25.049999,"lon":78.433327},"name":"Talbahat"},{"country":"IN","id":1255187,"coord":{"lat":23.716669,"lon":75.383331},"name":"Tal"},{"country":"IN","id":1255283,"coord":{"lat":10.95,"lon":79.333328},"name":"Swamimalai"},{"country":"IN","id":1255301,"coord":{"lat":23.950001,"lon":76.083328},"name":"Susner"},{"country":"IN","id":1255348,"coord":{"lat":20.566669,"lon":73.616669},"name":"Surgana"},{"country":"IN","id":1255405,"coord":{"lat":12.45594,"lon":75.829697},"name":"Suntikoppa"},{"country":"IN","id":1255478,"coord":{"lat":34.23333,"lon":74.633331},"name":"Sumbal"},{"country":"IN","id":1255489,"coord":{"lat":29.75,"lon":78.116669},"name":"Sultanpur"},{"country":"IN","id":1255493,"coord":{"lat":23.15,"lon":77.933327},"name":"Sultanpur"},{"country":"IN","id":1255584,"coord":{"lat":8.15,"lon":77.48333},"name":"Suchindram"},{"country":"IN","id":1255640,"coord":{"lat":11.4,"lon":79.416672},"name":"Srimushnam"},{"country":"IN","id":1255708,"coord":{"lat":26.5,"lon":90.866669},"name":"Sorbhog"},{"country":"IN","id":1255713,"coord":{"lat":14.38333,"lon":75.099998},"name":"Sorab"},{"country":"IN","id":1255766,"coord":{"lat":20.65,"lon":78.683327},"name":"Sonegaon"},{"country":"IN","id":1255791,"coord":{"lat":23.471939,"lon":91.266388},"name":"Sonamura"},{"country":"IN","id":1255811,"coord":{"lat":12.6,"lon":75.866669},"name":"Somvarpet"},{"country":"IN","id":1255844,"coord":{"lat":15.61667,"lon":73.76667},"name":"Solim"},{"country":"IN","id":1255887,"coord":{"lat":24.98333,"lon":81.699997},"name":"Sohagi"},{"country":"IN","id":1255893,"coord":{"lat":22.708891,"lon":88.387222},"name":"Sodpur"},{"country":"IN","id":1255910,"coord":{"lat":26.16806,"lon":91.571114},"name":"Soalkuchi"},{"country":"IN","id":1255981,"coord":{"lat":24.01667,"lon":75.349998},"name":"Sitamau"},{"country":"IN","id":1256053,"coord":{"lat":25.283331,"lon":82.083328},"name":"Sirsa"},{"country":"IN","id":1256063,"coord":{"lat":19.48333,"lon":79.599998},"name":"Sirpur"},{"country":"IN","id":1256072,"coord":{"lat":24.85,"lon":81.383331},"name":"Sirmaur"},{"country":"IN","id":1256096,"coord":{"lat":25.65,"lon":81.316673},"name":"Sirathu"},{"country":"IN","id":1256117,"coord":{"lat":21.91667,"lon":73.333328},"name":"Sinor"},{"country":"IN","id":1256122,"coord":{"lat":22.799999,"lon":85.966667},"name":"Sini"},{"country":"IN","id":1256126,"coord":{"lat":27.23333,"lon":88.5},"name":"Singtam"},{"country":"IN","id":1256146,"coord":{"lat":24.966669,"lon":75.300003},"name":"Singoli"},{"country":"IN","id":1256181,"coord":{"lat":12.76111,"lon":80.010002},"name":"Singapperumalkovil"},{"country":"IN","id":1256206,"coord":{"lat":20.799999,"lon":78.866669},"name":"Sindi"},{"country":"IN","id":1256245,"coord":{"lat":21.633329,"lon":81.699997},"name":"Simga"},{"country":"IN","id":1256251,"coord":{"lat":24.799999,"lon":81.150002},"name":"Simaria"},{"country":"IN","id":1256324,"coord":{"lat":26.366671,"lon":79.650002},"name":"Sikandra"},{"country":"IN","id":1256367,"coord":{"lat":27.633329,"lon":78.883331},"name":"Sidhpura"},{"country":"IN","id":1256385,"coord":{"lat":14.33333,"lon":74.883331},"name":"Siddapur"},{"country":"IN","id":1256414,"coord":{"lat":33.716671,"lon":74.833328},"name":"Shupiyan"},{"country":"IN","id":1256428,"coord":{"lat":12.85833,"lon":76.489441},"name":"Shravanabelagola"},{"country":"IN","id":1256450,"coord":{"lat":22.41667,"lon":73.650002},"name":"Shivrajpur"},{"country":"IN","id":1256469,"coord":{"lat":18.133329,"lon":73.98333},"name":"Shirwal"},{"country":"IN","id":1256486,"coord":{"lat":19.700001,"lon":72.699997},"name":"Shirgaon"},{"country":"IN","id":1256574,"coord":{"lat":28.65,"lon":79.349998},"name":"Shergarh"},{"country":"IN","id":1256650,"coord":{"lat":25.183331,"lon":81.616669},"name":"Shankargarh"},{"country":"IN","id":1256676,"coord":{"lat":31.49972,"lon":75.749443},"name":"Sham Churasi"},{"country":"IN","id":1256708,"coord":{"lat":23.133329,"lon":79.666672},"name":"Shahpura"},{"country":"IN","id":1256716,"coord":{"lat":23.883329,"lon":79.050003},"name":"Shahpur"},{"country":"IN","id":1256717,"coord":{"lat":23.01667,"lon":81},"name":"Shahpur"},{"country":"IN","id":1256718,"coord":{"lat":22.200001,"lon":77.900002},"name":"Shahpur"},{"country":"IN","id":1256719,"coord":{"lat":22.15,"lon":70.76667},"name":"Shahpur"},{"country":"IN","id":1256725,"coord":{"lat":31.077499,"lon":75.337219},"name":"Shahkot"},{"country":"IN","id":1256734,"coord":{"lat":24.316669,"lon":79.133331},"name":"Shahgarh"},{"country":"IN","id":1256747,"coord":{"lat":19.450001,"lon":73.333328},"name":"Shahapur"},{"country":"IN","id":1256796,"coord":{"lat":15.53333,"lon":73.833328},"name":"Serula"},{"country":"IN","id":1256820,"coord":{"lat":21.73333,"lon":82.583328},"name":"Seorinarayan"},{"country":"IN","id":1256825,"coord":{"lat":31.24361,"lon":77.123062},"name":"Seoni"},{"country":"IN","id":1256934,"coord":{"lat":9.18333,"lon":78.449997},"name":"Sayalkudi"},{"country":"IN","id":1256976,"coord":{"lat":27.028999,"lon":79.489601},"name":"Saurikh"},{"country":"IN","id":1256990,"coord":{"lat":22.533331,"lon":76.683327},"name":"Satwas"},{"country":"IN","id":1257004,"coord":{"lat":8.44164,"lon":77.91349},"name":"Sathankulam"},{"country":"IN","id":1257077,"coord":{"lat":27.716669,"lon":78.083328},"name":"Sasni"},{"country":"IN","id":1257111,"coord":{"lat":23.816669,"lon":86},"name":"Sarubera"},{"country":"IN","id":1257156,"coord":{"lat":31.700001,"lon":76.73333},"name":"Sarka Ghat"},{"country":"IN","id":1257167,"coord":{"lat":25.76667,"lon":79.683327},"name":"Sarila"},{"country":"IN","id":1257178,"coord":{"lat":11.98333,"lon":76.416672},"name":"Sargur"},{"country":"IN","id":1257242,"coord":{"lat":21.6,"lon":83.083328},"name":"Sarangarh"},{"country":"IN","id":1257263,"coord":{"lat":22.716669,"lon":85.949997},"name":"Saraikela"},{"country":"IN","id":1257264,"coord":{"lat":26.75,"lon":79.099998},"name":"Sarai Ekdil"},{"country":"IN","id":1257277,"coord":{"lat":31.51667,"lon":77.800003},"name":"Sarahan"},{"country":"IN","id":1257298,"coord":{"lat":26.333441,"lon":90.109047},"name":"Sapatgram"},{"country":"IN","id":1257313,"coord":{"lat":22.98333,"lon":75.833328},"name":"Sanwer"},{"country":"IN","id":1257316,"coord":{"lat":15.26667,"lon":74.116669},"name":"Sanvordem"},{"country":"IN","id":1257325,"coord":{"lat":22.52528,"lon":88.264999},"name":"Santoshpur"},{"country":"IN","id":1257326,"coord":{"lat":31.366671,"lon":76.316673},"name":"Santokhgarh"},{"country":"IN","id":1257347,"coord":{"lat":15.58333,"lon":74},"name":"Sanquelim"},{"country":"IN","id":1257366,"coord":{"lat":22.16667,"lon":73.583328},"name":"Sankheda"},{"country":"IN","id":1257390,"coord":{"lat":12.73333,"lon":75.900002},"name":"Sanivarsante"},{"country":"IN","id":1257399,"coord":{"lat":15.23333,"lon":74.166672},"name":"Sanguem"},{"country":"IN","id":1257479,"coord":{"lat":23.48333,"lon":77.73333},"name":"Sanchi"},{"country":"IN","id":1257599,"coord":{"lat":26.033331,"lon":81.449997},"name":"Salon"},{"country":"IN","id":1257611,"coord":{"lat":15.55,"lon":73.76667},"name":"Saligao"},{"country":"IN","id":1257703,"coord":{"lat":27.450001,"lon":78.816673},"name":"Sakit"},{"country":"IN","id":1257737,"coord":{"lat":23.966669,"lon":92.583328},"name":"Saitlaw"},{"country":"IN","id":1257743,"coord":{"lat":23.799999,"lon":92.666672},"name":"Sairang"},{"country":"IN","id":1257765,"coord":{"lat":23.466669,"lon":74.916672},"name":"Sailana"},{"country":"IN","id":1257775,"coord":{"lat":28.616671,"lon":77.916672},"name":"Saidpur"},{"country":"IN","id":1257887,"coord":{"lat":25.683331,"lon":83.283333},"name":"Sadat"},{"country":"IN","id":1257901,"coord":{"lat":21.08333,"lon":72.883331},"name":"Sachin"},{"country":"IN","id":1257908,"coord":{"lat":23,"lon":91.731941},"name":"Sabrum"},{"country":"IN","id":1257919,"coord":{"lat":30.971939,"lon":76.993332},"name":"Sabathu"},{"country":"IN","id":1258003,"coord":{"lat":30.283331,"lon":78.98333},"name":"Rudraprayag"},{"country":"IN","id":1258078,"coord":{"lat":31.216669,"lon":77.75},"name":"Rohru"},{"country":"IN","id":1258098,"coord":{"lat":23.200001,"lon":69.26667},"name":"Roha"},{"country":"IN","id":1258167,"coord":{"lat":33.083328,"lon":74.833328},"name":"Riasi"},{"country":"IN","id":1258190,"coord":{"lat":18.55028,"lon":72.92778},"name":"Revadanda"},{"country":"IN","id":1258221,"coord":{"lat":21.633329,"lon":84.050003},"name":"Rengali"},{"country":"IN","id":1258242,"coord":{"lat":22.73333,"lon":77.433327},"name":"Rehti"},{"country":"IN","id":1258269,"coord":{"lat":16.48333,"lon":81.833328},"name":"Razole"},{"country":"IN","id":1258293,"coord":{"lat":23.683331,"lon":85.050003},"name":"Ray"},{"country":"IN","id":1258367,"coord":{"lat":24.816669,"lon":75.116669},"name":"Ratangarh"},{"country":"IN","id":1258375,"coord":{"lat":26.75,"lon":80.48333},"name":"Rasulabad"},{"country":"IN","id":1258447,"coord":{"lat":23.83333,"lon":91.366669},"name":"Ranir Bazar"},{"country":"IN","id":1258478,"coord":{"lat":25.350309,"lon":73.308853},"name":"Rani"},{"country":"IN","id":1258484,"coord":{"lat":27.183331,"lon":88.533333},"name":"Rangpo"},{"country":"IN","id":1258537,"coord":{"lat":22.65,"lon":74.533333},"name":"Ranapur"},{"country":"IN","id":1258590,"coord":{"lat":26.349701,"lon":79.183296},"name":"Rampura"},{"country":"IN","id":1258596,"coord":{"lat":31.450001,"lon":77.633331},"name":"Rampur"},{"country":"IN","id":1258635,"coord":{"lat":32.816669,"lon":75.316673},"name":"Ramnagar"},{"country":"IN","id":1258640,"coord":{"lat":27.08333,"lon":81.416672},"name":"Ramnagar"},{"country":"IN","id":1258652,"coord":{"lat":26.904169,"lon":83.84111},"name":"Ramkola"},{"country":"IN","id":1258669,"coord":{"lat":33.400002,"lon":74.199997},"name":"Ramgarh"},{"country":"IN","id":1258708,"coord":{"lat":31.96611,"lon":74.904716},"name":"Ram Das"},{"country":"IN","id":1258714,"coord":{"lat":19.51667,"lon":85.099998},"name":"Rambha"},{"country":"IN","id":1258715,"coord":{"lat":33.25,"lon":75.25},"name":"Ramban"},{"country":"IN","id":1258724,"coord":{"lat":15.28333,"lon":77.866669},"name":"Ramapuram"},{"country":"IN","id":1258731,"coord":{"lat":23.799999,"lon":83.699997},"name":"Ramanuj Ganj"},{"country":"IN","id":1258788,"coord":{"lat":20.116671,"lon":78.916672},"name":"Rajur"},{"country":"IN","id":1258835,"coord":{"lat":24.883329,"lon":79.916672},"name":"Rajnagar"},{"country":"IN","id":1258867,"coord":{"lat":30.85,"lon":77.300003},"name":"Rajgarh"},{"country":"IN","id":1258911,"coord":{"lat":25.383329,"lon":81.150002},"name":"Rajapur"},{"country":"IN","id":1258914,"coord":{"lat":16.66667,"lon":73.51667},"name":"Rajapur"},{"country":"IN","id":1258942,"coord":{"lat":30.01667,"lon":78.216667},"name":"Raiwala"},{"country":"IN","id":1259017,"coord":{"lat":15.3,"lon":73.966667},"name":"Raia"},{"country":"IN","id":1259022,"coord":{"lat":31.049999,"lon":76.116669},"name":"Rahon"},{"country":"IN","id":1259039,"coord":{"lat":26.23333,"lon":92.51667},"name":"Raha"},{"country":"IN","id":1259047,"coord":{"lat":25.633329,"lon":87.900002},"name":"Raghunathpur"},{"country":"IN","id":1259072,"coord":{"lat":27.533331,"lon":77.48333},"name":"Radha Kund"},{"country":"IN","id":1259075,"coord":{"lat":30.033331,"lon":77.150002},"name":"Radaur"},{"country":"IN","id":1259082,"coord":{"lat":28.25,"lon":77.599998},"name":"Rabupura"},{"country":"IN","id":1259094,"coord":{"lat":15.38333,"lon":73.966667},"name":"Queula"},{"country":"IN","id":1259098,"coord":{"lat":15.21667,"lon":74.066673},"name":"Quepem"},{"country":"IN","id":1259102,"coord":{"lat":33.633331,"lon":75.150002},"name":"Qazigund"},{"country":"IN","id":1259158,"coord":{"lat":19.533331,"lon":84.883331},"name":"Purushottampur"},{"country":"IN","id":1259259,"coord":{"lat":10.96667,"lon":78.916672},"name":"Pullambadi"},{"country":"IN","id":1259261,"coord":{"lat":10.63333,"lon":78.833328},"name":"Puliyur"},{"country":"IN","id":1259290,"coord":{"lat":13.33333,"lon":80.166672},"name":"Puduvayal"},{"country":"IN","id":1259292,"coord":{"lat":13,"lon":79.150002},"name":"Pudur"},