[{"country":"PK","id":1177107,"coord":{"lat":33.999969,"lon":72.93409},"name":"Haripur"},{"country":"PK","id":1177203,"coord":{"lat":33.531078,"lon":71.059341},"name":"Hangu"},{"country":"PK","id":1177278,"coord":{"lat":25.81308,"lon":68.422729},"name":"Hala"},{"country":"PK","id":1177384,"coord":{"lat":32.06786,"lon":73.685448},"name":"Hafizabad"},{"country":"PK","id":1177397,"coord":{"lat":32.641319,"lon":74.569038},"name":"Hadali"},{"country":"PK","id":1177446,"coord":{"lat":25.12163,"lon":62.325409},"name":"Gwadar"},{"country":"PK","id":1177662,"coord":{"lat":32.161671,"lon":74.188309},"name":"Gujranwala"},{"country":"PK","id":1177682,"coord":{"lat":33.255791,"lon":73.302551},"name":"Gujar Khan"},{"country":"PK","id":1178456,"coord":{"lat":28.006041,"lon":69.316078},"name":"Ghotki"},{"country":"PK","id":1178587,"coord":{"lat":24.742411,"lon":67.585648},"name":"Gharo"},{"country":"PK","id":1179061,"coord":{"lat":27.35145,"lon":68.520508},"name":"Gambat"},{"country":"PK","id":1179255,"coord":{"lat":32.183331,"lon":75.066673},"name":"Fazalpur"},{"country":"PK","id":1179305,"coord":{"lat":31.17959,"lon":71.209457},"name":"Chak Two Hundred Forty-Nine TDA"},{"country":"PK","id":1179346,"coord":{"lat":31.88722,"lon":72.414398},"name":"Faruka"},{"country":"PK","id":1179377,"coord":{"lat":29.466311,"lon":73.034027},"name":"Faqirwali"},{"country":"PK","id":1179406,"coord":{"lat":32.042191,"lon":74.259438},"name":"Eminabad"},{"country":"PK","id":1179450,"coord":{"lat":29.7995,"lon":71.719582},"name":"Dunyapur"},{"country":"PK","id":1179463,"coord":{"lat":29.74931,"lon":73.24324},"name":"Dunga Bunga"},{"country":"PK","id":1179496,"coord":{"lat":31.835871,"lon":71.436249},"name":"Dullewala"},{"country":"PK","id":1179757,"coord":{"lat":35.20583,"lon":71.875557},"name":"Dir"},{"country":"PK","id":1179760,"coord":{"lat":30.67091,"lon":73.652924},"name":"Dipalpur"},{"country":"PK","id":1179790,"coord":{"lat":32.639759,"lon":73.722023},"name":"Dinga"},{"country":"PK","id":1179834,"coord":{"lat":31.216669,"lon":72.98333},"name":"Dijkot"},{"country":"PK","id":1179837,"coord":{"lat":25.15579,"lon":69.11129},"name":"Digri"},{"country":"PK","id":1179902,"coord":{"lat":25.5,"lon":69.566673},"name":"Dhoro Naro"},{"country":"PK","id":1180133,"coord":{"lat":29.57991,"lon":71.752129},"name":"Dhanot"},{"country":"PK","id":1180289,"coord":{"lat":30.056141,"lon":70.634773},"name":"Dera Ghazi Khan"},{"country":"PK","id":1180295,"coord":{"lat":29.030689,"lon":69.150993},"name":"Dera Bugti"},{"country":"PK","id":1180374,"coord":{"lat":26.45834,"lon":68.319153},"name":"Daur"},{"country":"PK","id":1180419,"coord":{"lat":32.874981,"lon":71.570122},"name":"Daud Khel"},{"country":"PK","id":1180436,"coord":{"lat":32.324261,"lon":74.349739},"name":"Daska"},{"country":"PK","id":1180454,"coord":{"lat":31.791229,"lon":71.103943},"name":"Darya Khan"},{"country":"PK","id":1180752,"coord":{"lat":29.557671,"lon":70.376152},"name":"Dajal"},{"country":"PK","id":1180825,"coord":{"lat":29.475269,"lon":67.651352},"name":"Dadhar"},{"country":"PK","id":1180942,"coord":{"lat":30.96397,"lon":73.980293},"name":"Chunian"},{"country":"PK","id":1180983,"coord":{"lat":31.75,"lon":73.800003},"name":"Chuhar Kana"},{"country":"PK","id":1181022,"coord":{"lat":25.51667,"lon":69.76667},"name":"Chor"},{"country":"PK","id":1181053,"coord":{"lat":32.720058,"lon":72.984863},"name":"Choa Saidan Shah"},{"country":"PK","id":1181073,"coord":{"lat":29.799999,"lon":72.866669},"name":"Chishtian Mandi"},{"country":"PK","id":1181163,"coord":{"lat":30.533331,"lon":72.699997},"name":"Chichawatni"},{"country":"PK","id":1181352,"coord":{"lat":32.34692,"lon":74.706123},"name":"Chawinda"},{"country":"PK","id":1181611,"coord":{"lat":30.923599,"lon":66.451157},"name":"Chaman"},{"country":"PK","id":1181636,"coord":{"lat":32.93338,"lon":72.858528},"name":"Chakwal"},{"country":"PK","id":1181887,"coord":{"lat":30.75,"lon":73.033333},"name":"Chak Azam Saffo"},{"country":"PK","id":1182092,"coord":{"lat":30.16667,"lon":72.650002},"name":"Burewala"},{"country":"PK","id":1182577,"coord":{"lat":32.428879,"lon":74.363297},"name":"Bhopalwala"},{"country":"PK","id":1182607,"coord":{"lat":25.804371,"lon":68.492653},"name":"Bhit Shah"},{"country":"PK","id":1182637,"coord":{"lat":32.975681,"lon":74.079262},"name":"Bhimbar"},{"country":"PK","id":1182665,"coord":{"lat":32.483181,"lon":72.909698},"name":"Bhera"},{"country":"PK","id":1182682,"coord":{"lat":31.56918,"lon":72.648987},"name":"Bhawana"},{"country":"PK","id":1182775,"coord":{"lat":26.55831,"lon":67.72139},"name":"Bhan"},{"country":"PK","id":1182787,"coord":{"lat":32.272041,"lon":72.904251},"name":"Bhalwal"},{"country":"PK","id":1182815,"coord":{"lat":31.62525,"lon":71.065742},"name":"Bhakkar"},{"country":"PK","id":1182829,"coord":{"lat":31.200001,"lon":73.949997},"name":"Bhai Pheru"},{"country":"PK","id":1182998,"coord":{"lat":26.2271,"lon":66.311096},"name":"Bela"},{"country":"PK","id":1183090,"coord":{"lat":34.616669,"lon":71.97139},"name":"Bat Khela"},{"country":"PK","id":1183883,"coord":{"lat":29.998659,"lon":73.253601},"name":"Bahawalnagar"},{"country":"PK","id":1184075,"coord":{"lat":31.99283,"lon":74.668343},"name":"Baddomalhi"},{"country":"PK","id":1184249,"coord":{"lat":33.773109,"lon":72.3741},"name":"Attock City"},{"country":"PK","id":1184370,"coord":{"lat":30.293989,"lon":73.07354},"name":"Arifwala"},{"country":"PK","id":1184569,"coord":{"lat":34.005829,"lon":71.93},"name":"Amangarh"},{"country":"PK","id":1184752,"coord":{"lat":34.003609,"lon":72.126106},"name":"Akora"},{"country":"PK","id":1184845,"coord":{"lat":29.143089,"lon":71.259758},"name":"Ahmadpur East"},{"country":"PK","id":1341204,"coord":{"lat":33.99667,"lon":72.013062},"name":"Nowshera Cantonment"},{"country":"PK","id":1357699,"coord":{"lat":27.341669,"lon":68.031937},"name":"New Badah"},{"country":"PK","id":1360491,"coord":{"lat":25.131109,"lon":68.867592},"name":"Tando Ghulam Ali"},{"country":"PK","id":1412008,"coord":{"lat":27.2127,"lon":68.468826},"name":"Setharja Old"},{"country":"PK","id":1448637,"coord":{"lat":34.061859,"lon":71.991661},"name":"Risalpur"},{"country":"PK","id":6457378,"coord":{"lat":32.55492,"lon":73.212196},"name":"Malakwal City"},{"country":"PL","id":752967,"coord":{"lat":52.048801,"lon":20.44599},"name":"Zyrardow"},{"country":"PL","id":753866,"coord":{"lat":50.723141,"lon":23.251961},"name":"Zamosc"},{"country":"PL","id":754800,"coord":{"lat":52.340061,"lon":21.242069},"name":"Wolomin"},{"country":"PL","id":755889,"coord":{"lat":49.987381,"lon":20.06473},"name":"Wieliczka"},{"country":"PL","id":757692,"coord":{"lat":51.218979,"lon":22.696211},"name":"Swidnik"},{"country":"PL","id":758390,"coord":{"lat":51.037399,"lon":21.07126},"name":"Starachowice"},{"country":"PL","id":758651,"coord":{"lat":53.40715,"lon":23.502279},"name":"Sokolka"},{"country":"PL","id":759141,"coord":{"lat":51.11311,"lon":20.87162},"name":"Skarzysko-Kamienna"},{"country":"PL","id":759320,"coord":{"lat":52.427189,"lon":22.86231},"name":"Siemiatycze"},{"country":"PL","id":759412,"coord":{"lat":52.167721,"lon":22.29006},"name":"Siedlce"},{"country":"PL","id":761168,"coord":{"lat":49.784981,"lon":22.767281},"name":"Przemysl"},{"country":"PL","id":761228,"coord":{"lat":52.170719,"lon":20.81214},"name":"Pruszkow"},{"country":"PL","id":762788,"coord":{"lat":52.10577,"lon":21.26129},"name":"Otwock"},{"country":"PL","id":763291,"coord":{"lat":54.033741,"lon":22.50704},"name":"Olecko"},{"country":"PL","id":763829,"coord":{"lat":50.519871,"lon":22.139681},"name":"Nisko"},{"country":"PL","id":7532581,"coord":{"lat":52.178902,"lon":21.556601},"name":"Mi\u0144sk Mazowiecki"},{"country":"PL","id":764679,"coord":{"lat":52.179352,"lon":21.57251},"name":"Minsk Mazowiecki"},{"country":"PL","id":764749,"coord":{"lat":52.11879,"lon":20.671551},"name":"Milanowek"},{"country":"PL","id":7532950,"coord":{"lat":52.337002,"lon":21.1199},"name":"Marki"},{"country":"PL","id":765191,"coord":{"lat":52.320648,"lon":21.10474},"name":"Marki"},{"country":"PL","id":7532097,"coord":{"lat":51.925201,"lon":22.3855},"name":"\u0141uk\u00f3w"},{"country":"PL","id":765749,"coord":{"lat":51.929001,"lon":22.37956},"name":"Lukow"},{"country":"PL","id":765927,"coord":{"lat":51.460258,"lon":22.60952},"name":"Lubartow"},{"country":"PL","id":766027,"coord":{"lat":53.178059,"lon":22.059349},"name":"Lomza"},{"country":"PL","id":766042,"coord":{"lat":52.334129,"lon":20.886021},"name":"Lomianki"},{"country":"PL","id":766583,"coord":{"lat":51.301208,"lon":22.88135},"name":"Leczna"},{"country":"PL","id":766783,"coord":{"lat":52.9911,"lon":22.88422},"name":"Lapy"},{"country":"PL","id":767623,"coord":{"lat":50.923599,"lon":22.22706},"name":"Krasnik"},{"country":"PL","id":768216,"coord":{"lat":52.0938,"lon":21.117611},"name":"Konstancin-Jeziorna"},{"country":"PL","id":769893,"coord":{"lat":52.130119,"lon":21.08148},"name":"Kabaty"},{"country":"PL","id":7532209,"coord":{"lat":50.806702,"lon":23.8904},"name":"Hrubiesz\u00f3w"},{"country":"PL","id":770966,"coord":{"lat":50.805019,"lon":23.892509},"name":"Hrubieszow"},{"country":"PL","id":771401,"coord":{"lat":52.10387,"lon":20.633699},"name":"Grodzisk Mazowiecki"},{"country":"PL","id":772227,"coord":{"lat":54.081341,"lon":21.49551},"name":"Gierloz"},{"country":"PL","id":7531031,"coord":{"lat":51.826569,"lon":21.61615},"name":"Powiat garwoli\u0144ski"},{"country":"PL","id":7532094,"coord":{"lat":51.895901,"lon":21.6231},"name":"Garwolin"},{"country":"PL","id":772339,"coord":{"lat":51.897469,"lon":21.61466},"name":"Garwolin"},{"country":"PL","id":7531012,"coord":{"lat":53.81673,"lon":22.40465},"name":"Powiat e\u0142cki"},{"country":"PL","id":772621,"coord":{"lat":53.828239,"lon":22.364691},"name":"Elk"},{"country":"PL","id":7532434,"coord":{"lat":51.135502,"lon":23.4897},"name":"Che\u0142m"},{"country":"PL","id":774558,"coord":{"lat":51.14312,"lon":23.4716},"name":"Chelm"},{"country":"PL","id":775922,"coord":{"lat":50.541142,"lon":22.72204},"name":"Bilgoraj"},{"country":"PL","id":776069,"coord":{"lat":53.133331,"lon":23.15},"name":"Bialystok"},{"country":"PL","id":3079855,"coord":{"lat":49.685291,"lon":19.19243},"name":"Zywiec"},{"country":"PL","id":3080526,"coord":{"lat":50.487659,"lon":19.41679},"name":"Zawiercie"},{"country":"PL","id":3081741,"coord":{"lat":52.64817,"lon":19.067801},"name":"Wloclawek"},{"country":"PL","id":3082712,"coord":{"lat":52.808418,"lon":17.19961},"name":"Wagrowiec"},{"country":"PL","id":3082914,"coord":{"lat":50.137169,"lon":18.96641},"name":"Tychy"},{"country":"PL","id":3082998,"coord":{"lat":52.01548,"lon":18.500549},"name":"Turek"},{"country":"PL","id":3083185,"coord":{"lat":53.04063,"lon":16.45628},"name":"Trzcianka"},{"country":"PL","id":3083988,"coord":{"lat":50.29636,"lon":18.917259},"name":"Swietochlowice"},{"country":"PL","id":3085128,"coord":{"lat":50.286819,"lon":19.103849},"name":"Sosnowiec"},{"country":"PL","id":3086024,"coord":{"lat":50.327381,"lon":19.029011},"name":"Siemianowice Slaskie"},{"country":"PL","id":3086586,"coord":{"lat":50.09713,"lon":18.54179},"name":"Rybnik"},{"country":"PL","id":3086800,"coord":{"lat":50.2584,"lon":18.856319},"name":"Ruda Slaska"},{"country":"PL","id":3087529,"coord":{"lat":50.050201,"lon":18.476259},"name":"Radlin"},{"country":"PL","id":3088171,"coord":{"lat":52.406921,"lon":16.92993},"name":"Poznan"},{"country":"PL","id":7533013,"coord":{"lat":51.501301,"lon":16.068199},"name":"Polkowice"},{"country":"PL","id":3088435,"coord":{"lat":51.50391,"lon":16.072611},"name":"Polkowice"},{"country":"PL","id":3088461,"coord":{"lat":53.552139,"lon":14.57182},"name":"Police"},{"country":"PL","id":3088848,"coord":{"lat":51.896358,"lon":17.78549},"name":"Pleszew"},{"country":"PL","id":3089125,"coord":{"lat":50.380169,"lon":18.926531},"name":"Piekary Slaskie"},{"country":"PL","id":3089658,"coord":{"lat":50.03437,"lon":19.210369},"name":"Oswiecim"},{"country":"PL","id":3091217,"coord":{"lat":50.575199,"lon":19.32461},"name":"Myszkow"},{"country":"PL","id":7530950,"coord":{"lat":50.209621,"lon":19.153879},"name":"Mys\u0142owice"},{"country":"PL","id":3091232,"coord":{"lat":50.207451,"lon":19.166679},"name":"Myslowice"},{"country":"PL","id":3091831,"coord":{"lat":50.171028,"lon":18.9041},"name":"Mikolow"},{"country":"PL","id":3091969,"coord":{"lat":52.444611,"lon":15.57801},"name":"Miedzyrzecz"},{"country":"PL","id":3092472,"coord":{"lat":54.035912,"lon":19.0266},"name":"Malbork"},{"country":"PL","id":3093457,"coord":{"lat":50.103958,"lon":19.31568},"name":"Libiaz"},{"country":"PL","id":3093726,"coord":{"lat":52.059589,"lon":19.19972},"name":"Leczyca"},{"country":"PL","id":3095049,"coord":{"lat":54.194382,"lon":16.17222},"name":"Koszalin"},{"country":"PL","id":3095151,"coord":{"lat":52.088291,"lon":16.648661},"name":"Koscian"},{"country":"PL","id":3095797,"coord":{"lat":52.200241,"lon":18.638651},"name":"Kolo"},{"country":"PL","id":3096472,"coord":{"lat":50.258419,"lon":19.02754},"name":"Katowice"},{"country":"PL","id":3097391,"coord":{"lat":49.955421,"lon":18.574789},"name":"Jastrzebie Zdroj"},{"country":"PL","id":3098130,"coord":{"lat":51.949558,"lon":14.72837},"name":"Gubin"},{"country":"PL","id":3099112,"coord":{"lat":52.534809,"lon":17.58259},"name":"Gniezno"},{"country":"PL","id":3100796,"coord":{"lat":50.31818,"lon":19.2374},"name":"Dabrowa Gornicza"},{"country":"PL","id":3101057,"coord":{"lat":50.315418,"lon":19.078239},"name":"Czeladz"},{"country":"PL","id":7532301,"coord":{"lat":49.749222,"lon":18.631781},"name":"Cieszyn"},{"country":"PL","id":3101321,"coord":{"lat":49.751331,"lon":18.63213},"name":"Cieszyn"},{"country":"PL","id":3101680,"coord":{"lat":52.995049,"lon":16.9198},"name":"Chodziez"},{"country":"PL","id":3101950,"coord":{"lat":50.348019,"lon":18.932819},"name":"Bytom"},{"country":"PL","id":3102014,"coord":{"lat":53.123501,"lon":18.00762},"name":"Bydgoszcz"},{"country":"PL","id":3103719,"coord":{"lat":50.326069,"lon":19.12565},"name":"Bedzin"},{"country":"PL","id":3104132,"coord":{"lat":51.819649,"lon":19.303841},"name":"Aleksandrow Lodzki"},{"country":"PN","id":4030699,"coord":{"lat":-25.066669,"lon":-130.100006},"name":"Henderson, Ducie and Oeno Islands Pitcairn"},{"country":"PR","id":4563243,"coord":{"lat":18.380779,"lon":-65.95739},"name":"Carolina"},{"country":"PR","id":4563298,"coord":{"lat":18.441339,"lon":-66.118217},"name":"Catano"},{"country":"PR","id":4563308,"coord":{"lat":18.11191,"lon":-66.166},"name":"Cayey"},{"country":"PR","id":4564946,"coord":{"lat":18.32579,"lon":-65.652382},"name":"Fajardo"},{"country":"PR","id":4565105,"coord":{"lat":17.984131,"lon":-66.113777},"name":"Guayama"},{"country":"PR","id":4565119,"coord":{"lat":18.35745,"lon":-66.111},"name":"Guaynabo"},{"country":"PR","id":4565564,"coord":{"lat":18.149679,"lon":-65.827377},"name":"Humacao"},{"country":"PR","id":4566002,"coord":{"lat":18.449949,"lon":-66.181557},"name":"Levittown"},{"country":"PR","id":4566137,"coord":{"lat":18.42745,"lon":-66.492119},"name":"Manati"},{"country":"PR","id":4566385,"coord":{"lat":18.201071,"lon":-67.139618},"name":"Mayaguez"},{"country":"PR","id":4566880,"coord":{"lat":18.01108,"lon":-66.614059},"name":"Ponce"},{"country":"PR","id":4568127,"coord":{"lat":18.46633,"lon":-66.105721},"name":"San Juan"},{"country":"PS","id":281102,"coord":{"lat":31.287001,"lon":34.259521},"name":"Rafah"},{"country":"PS","id":281124,"coord":{"lat":31.340179,"lon":34.306271},"name":"Khan Yunis"},{"country":"PS","id":281129,"coord":{"lat":31.52722,"lon":34.48634},"name":"Jabalya"},{"country":"PS","id":281133,"coord":{"lat":31.5,"lon":34.466671},"name":"Gaza"},{"country":"PS","id":281145,"coord":{"lat":31.5464,"lon":34.49514},"name":"Bayt Lahya"},{"country":"PS","id":281148,"coord":{"lat":31.34337,"lon":34.323372},"name":"Bani Suhayla"},{"country":"PS","id":281165,"coord":{"lat":31.31913,"lon":34.34005},"name":"Abasan al Kabirah"},{"country":"PS","id":281292,"coord":{"lat":31.450001,"lon":35.083328},"name":"Yuta"},{"country":"PS","id":281577,"coord":{"lat":32.310371,"lon":35.028629},"name":"Tulkarm"},{"country":"PS","id":281793,"coord":{"lat":31.57855,"lon":35.140171},"name":"Sair"},{"country":"PS","id":282239,"coord":{"lat":31.89502,"lon":35.184589},"name":"Ramallah"},{"country":"PS","id":282457,"coord":{"lat":32.18924,"lon":34.970341},"name":"Qalqilyah"},{"country":"PS","id":283506,"coord":{"lat":32.458839,"lon":35.295101},"name":"Janin"},{"country":"PS","id":284011,"coord":{"lat":31.507,"lon":35.02652},"name":"Dura"},{"country":"PS","id":284315,"coord":{"lat":31.70619,"lon":35.200321},"name":"Bethlehem"},{"country":"PS","id":284583,"coord":{"lat":31.396709,"lon":35.066109},"name":"As Samu"},{"country":"PS","id":284890,"coord":{"lat":31.855391,"lon":35.23402},"name":"Ar Ram wa Dahiyat al Barid"},{"country":"PS","id":284899,"coord":{"lat":31.866671,"lon":35.450001},"name":"Jericho"},{"country":"PS","id":285066,"coord":{"lat":31.533331,"lon":35.099998},"name":"Hebron"},{"country":"PS","id":285111,"coord":{"lat":31.770781,"lon":35.269161},"name":"Al Ayzariyah"},{"country":"PS","id":6967865,"coord":{"lat":31.37389,"lon":34.340851},"name":"Al Qararah"},{"country":"PS","id":7303419,"coord":{"lat":31.78336,"lon":35.233879},"name":"East Jerusalem"},{"country":"PT","id":2261639,"coord":{"lat":38.95525,"lon":-8.98966},"name":"Vila Franca de Xira"},{"country":"PT","id":2261697,"coord":{"lat":38.870941,"lon":-9.06823},"name":"Vialonga"},{"country":"PT","id":2262581,"coord":{"lat":39.091091,"lon":-9.2586},"name":"Torres Vedras"},{"country":"PT","id":2262912,"coord":{"lat":38.800968,"lon":-9.37826},"name":"Sintra"},{"country":"PT","id":2263523,"coord":{"lat":38.846291,"lon":-9.08748},"name":"Santa Iria da Azoia"},{"country":"PT","id":2263667,"coord":{"lat":38.792019,"lon":-9.10801},"name":"Sacavem"},{"country":"PT","id":2263827,"coord":{"lat":38.77457,"lon":-9.3276},"name":"Rio de Mouro"},{"country":"PT","id":2264087,"coord":{"lat":38.802349,"lon":-9.19216},"name":"Ramada"},{"country":"PT","id":2264268,"coord":{"lat":38.756569,"lon":-9.25451},"name":"Queluz"},{"country":"PT","id":2264508,"coord":{"lat":39.293789,"lon":-7.43122},"name":"Portalegre"},{"country":"PT","id":2265326,"coord":{"lat":38.69569,"lon":-9.29143},"name":"Paco de Arcos"},{"country":"PT","id":2265467,"coord":{"lat":38.79269,"lon":-9.1838},"name":"Odivelas"},{"country":"PT","id":2265927,"coord":{"lat":38.702789,"lon":-9.41606},"name":"Monte Estoril"},{"country":"PT","id":2267827,"coord":{"lat":32.633331,"lon":-16.9},"name":"Funchal"},{"country":"PT","id":2268436,"coord":{"lat":38.705711,"lon":-9.39773},"name":"Estoril"},{"country":"PT","id":2269594,"coord":{"lat":38.697899,"lon":-9.42146},"name":"Cascais"},{"country":"PT","id":2270157,"coord":{"lat":38.727058,"lon":-9.24671},"name":"Carnaxide"},{"country":"PT","id":2270229,"coord":{"lat":38.666672,"lon":-9.2},"name":"Caparica"},{"country":"PT","id":2270380,"coord":{"lat":32.633331,"lon":-16.966669},"name":"Camara de Lobos"},{"country":"PT","id":2271680,"coord":{"lat":38.629608,"lon":-9.11557},"name":"Amora"},{"country":"PT","id":2271961,"coord":{"lat":38.67902,"lon":-9.1569},"name":"Almada"},{"country":"PT","id":2272215,"coord":{"lat":38.733662,"lon":-9.40928},"name":"Alcabideche"},{"country":"PT","id":2732544,"coord":{"lat":41.133629,"lon":-8.61742},"name":"Vila Nova de Gaia"},{"country":"PT","id":2735787,"coord":{"lat":41.383438,"lon":-8.76364},"name":"Povoa de Varzim"},{"country":"PT","id":2735943,"coord":{"lat":41.149609,"lon":-8.61099},"name":"Porto"},{"country":"PT","id":2738752,"coord":{"lat":41.444439,"lon":-8.29619},"name":"Guimaraes"},{"country":"PT","id":2740637,"coord":{"lat":40.205639,"lon":-8.41955},"name":"Coimbra"},{"country":"PT","id":2742032,"coord":{"lat":41.55032,"lon":-8.42005},"name":"Braga"},{"country":"PT","id":2742611,"coord":{"lat":40.644272,"lon":-8.64554},"name":"Aveiro"},{"country":"PT","id":2743304,"coord":{"lat":41.210609,"lon":-8.5866},"name":"Aguas Santas"},{"country":"PY","id":3437056,"coord":{"lat":-25.33333,"lon":-57.533329},"name":"San Lorenzo"},{"country":"PY","id":3437954,"coord":{"lat":-25.48333,"lon":-57.349998},"name":"Ita"},{"country":"QA","id":389467,"coord":{"lat":25.466669,"lon":51.333328},"name":"Balad\u012byat Umm \u015eal\u0101l"},{"country":"QA","id":289523,"coord":{"lat":25.416941,"lon":51.403889},"name":"Umm Salal Muhammad"},{"country":"QA","id":289888,"coord":{"lat":25.291941,"lon":51.424438},"name":"Ar Rayyan"},{"country":"QA","id":289915,"coord":{"lat":25.171511,"lon":51.603371},"name":"Al Wakrah"},{"country":"QA","id":289962,"coord":{"lat":25.683889,"lon":51.505829},"name":"Al Khawr"},{"country":"RE","id":935214,"coord":{"lat":-21.3393,"lon":55.478111},"name":"Saint-Pierre"},{"country":"RE","id":935223,"coord":{"lat":-21.285851,"lon":55.41124},"name":"Saint-Louis"},{"country":"RE","id":935225,"coord":{"lat":-21.170589,"lon":55.288239},"name":"Saint-Leu"},{"country":"RE","id":935227,"coord":{"lat":-21.37838,"lon":55.619179},"name":"Saint-Joseph"},{"country":"RE","id":935264,"coord":{"lat":-20.882311,"lon":55.450401},"name":"Saint-Denis"},{"country":"RE","id":935268,"coord":{"lat":-20.963329,"lon":55.650311},"name":"Saint-Andre"},{"country":"RE","id":935582,"coord":{"lat":-21.283091,"lon":55.518021},"name":"Le Tampon"},{"country":"RE","id":7932385,"coord":{"lat":-21.21962,"lon":55.315128},"name":"Piton Saint-Leu"},{"country":"RO","id":662432,"coord":{"lat":45.383331,"lon":23.26667},"name":"Vulcan"},{"country":"RO","id":662476,"coord":{"lat":44.466671,"lon":26.133329},"name":"Voluntari"},{"country":"RO","id":665000,"coord":{"lat":46,"lon":26.133329},"name":"Targu Secuiesc"},{"country":"RO","id":668732,"coord":{"lat":46.916672,"lon":26.91667},"name":"Roman"},{"country":"RO","id":669870,"coord":{"lat":44.383331,"lon":26.16667},"name":"Popesti-Leordeni"},{"country":"RO","id":671382,"coord":{"lat":44.450001,"lon":26.200001},"name":"Pantelimon"},{"country":"RO","id":671964,"coord":{"lat":46.299999,"lon":25.299999},"name":"Odorheiu Secuiesc"},{"country":"RO","id":673033,"coord":{"lat":45.01667,"lon":26.450001},"name":"Mizil"},{"country":"RO","id":673441,"coord":{"lat":46.349998,"lon":25.799999},"name":"Miercurea-Ciuc"},{"country":"RO","id":679065,"coord":{"lat":47.950001,"lon":26.4},"name":"Dorohoi"},{"country":"RO","id":681502,"coord":{"lat":45.716671,"lon":24.15},"name":"Cisnadie"},{"country":"RO","id":683760,"coord":{"lat":45.183331,"lon":25.66667},"name":"Breaza"},{"country":"RO","id":684490,"coord":{"lat":45.373329,"lon":21.709169},"name":"Bocsa"},{"country":"RO","id":684612,"coord":{"lat":46.183331,"lon":23.91667},"name":"Blaj"},{"country":"RO","id":685811,"coord":{"lat":45.033329,"lon":25.85},"name":"Baicoi"},{"country":"RO","id":685823,"coord":{"lat":47.661888,"lon":23.69215},"name":"Baia Sprie"},{"country":"RO","id":686669,"coord":{"lat":46.099998,"lon":27.16667},"name":"Adjud"},{"country":"RO","id":6697994,"coord":{"lat":44.921421,"lon":25.45575},"name":"Targoviste"},{"country":"RO","id":6942372,"coord":{"lat":46.357948,"lon":25.80405},"name":"Miercurea Ciuc"},{"country":"RS","id":784873,"coord":{"lat":43.61694,"lon":21.002501},"name":"Trstenik"},{"country":"RS","id":785615,"coord":{"lat":44.676529,"lon":20.392321},"name":"Sremcica"},{"country":"RS","id":788771,"coord":{"lat":44.385342,"lon":20.255699},"name":"Lazarevac"},{"country":"RS","id":789518,"coord":{"lat":45.82972,"lon":20.465281},"name":"Kikinda"},{"country":"RS","id":792680,"coord":{"lat":44.804008,"lon":20.46513},"name":"Belgrade"},{"country":"RS","id":3188402,"coord":{"lat":44.275131,"lon":19.898211},"name":"Valjevo"},{"country":"RU","id":467120,"coord":{"lat":51.351299,"lon":48.2766},"name":"Yershov"},{"country":"RU","id":467525,"coord":{"lat":62.589989,"lon":50.85939},"name":"Yemva"},{"country":"RU","id":467854,"coord":{"lat":45.04446,"lon":38.795799},"name":"Yelizavetinskaya"},{"country":"RU","id":468866,"coord":{"lat":55.066669,"lon":32.696388},"name":"Yartsevo"},{"country":"RU","id":469844,"coord":{"lat":44.98901,"lon":38.943241},"name":"Yablonovskiy"},{"country":"RU","id":472722,"coord":{"lat":59.9258,"lon":32.338188},"name":"Volkhov"},{"country":"RU","id":477494,"coord":{"lat":53.981789,"lon":38.171181},"name":"Uzlovaya"},{"country":"RU","id":479687,"coord":{"lat":43.937778,"lon":42.511669},"name":"Uchkeken"},{"country":"RU","id":480122,"coord":{"lat":57.885288,"lon":39.5406},"name":"Tutayev"},{"country":"RU","id":482283,"coord":{"lat":53.5303,"lon":49.3461},"name":"Tolyatti"},{"country":"RU","id":483495,"coord":{"lat":43.48333,"lon":44.136108},"name":"Terek"},{"country":"RU","id":484856,"coord":{"lat":55.9077,"lon":53.935501},"name":"Agidel"},{"country":"RU","id":485239,"coord":{"lat":61.676418,"lon":50.80994},"name":"Syktyvkar"},{"country":"RU","id":493231,"coord":{"lat":56.848652,"lon":41.388329},"name":"Shuya"},{"country":"RU","id":493316,"coord":{"lat":59.80917,"lon":30.38167},"name":"Shushary"},{"country":"RU","id":495206,"coord":{"lat":51.875549,"lon":36.90432},"name":"Shchigry"},{"country":"RU","id":496269,"coord":{"lat":54.034809,"lon":38.401718},"name":"Severo-Zadonsk"},{"country":"RU","id":496934,"coord":{"lat":52.458611,"lon":44.216888},"name":"Serdobsk"},{"country":"RU","id":497206,"coord":{"lat":51.685261,"lon":39.02787},"name":"Semiluki"},{"country":"RU","id":498708,"coord":{"lat":51.786621,"lon":51.786621},"name":"Saraktash"},{"country":"RU","id":500047,"coord":{"lat":53.7038,"lon":40.110901},"name":"Ryazhsk"},{"country":"RU","id":500886,"coord":{"lat":52.26041,"lon":43.787449},"name":"Rtishchevo"},{"country":"RU","id":501231,"coord":{"lat":50.19828,"lon":39.567261},"name":"Rossosh"},{"country":"RU","id":504003,"coord":{"lat":59.687328,"lon":30.34046},"name":"Pushkin"},{"country":"RU","id":504935,"coord":{"lat":43.757408,"lon":44.029701},"name":"Prokhladnyy"},{"country":"RU","id":506762,"coord":{"lat":67.366112,"lon":32.498058},"name":"Polyarnyye Zori"},{"country":"RU","id":507624,"coord":{"lat":53.65237,"lon":52.12738},"name":"Pokhvistnevo"},{"country":"RU","id":508656,"coord":{"lat":52.933601,"lon":33.4464},"name":"Pochep"},{"country":"RU","id":509598,"coord":{"lat":59.51833,"lon":34.166389},"name":"Pikalevo"},{"country":"RU","id":509987,"coord":{"lat":52.306389,"lon":45.39167},"name":"Petrovsk"},{"country":"RU","id":510364,"coord":{"lat":58.593819,"lon":35.802441},"name":"Pestovo"},{"country":"RU","id":511196,"coord":{"lat":58.01741,"lon":56.285519},"name":"Perm"},{"country":"RU","id":511359,"coord":{"lat":56.739342,"lon":38.856258},"name":"Pereslavl-Zalesskiy"},{"country":"RU","id":514171,"coord":{"lat":57.343948,"lon":28.35368},"name":"Ostrov"},{"country":"RU","id":515003,"coord":{"lat":51.772701,"lon":55.098801},"name":"Orenburg"},{"country":"RU","id":516716,"coord":{"lat":54.427662,"lon":50.805111},"name":"Nurlat"},{"country":"RU","id":517739,"coord":{"lat":50.459171,"lon":48.143059},"name":"Novouzensk"},{"country":"RU","id":517766,"coord":{"lat":54.149609,"lon":48.389069},"name":"Novoulyanovsk"},{"country":"RU","id":518557,"coord":{"lat":54.010502,"lon":38.284599},"name":"Novomoskovsk"},{"country":"RU","id":518602,"coord":{"lat":54.038399,"lon":39.747898},"name":"Novomichurinsk"},{"country":"RU","id":518659,"coord":{"lat":53.095901,"lon":49.946201},"name":"Novokuybyshevsk"},{"country":"RU","id":520204,"coord":{"lat":58.629299,"lon":59.811798},"name":"Nizhnyaya Tura"},{"country":"RU","id":521874,"coord":{"lat":50.02824,"lon":45.45953},"name":"Nikolayevsk"},{"country":"RU","id":522470,"coord":{"lat":43.238609,"lon":45.050282},"name":"Nesterovskaya"},{"country":"RU","id":522945,"coord":{"lat":52.801998,"lon":51.166},"name":"Neftegorsk"},{"country":"RU","id":523064,"coord":{"lat":43.226109,"lon":44.764999},"name":"Nazran"},{"country":"RU","id":524640,"coord":{"lat":53.276569,"lon":36.573341},"name":"Mtsensk"},{"country":"RU","id":524699,"coord":{"lat":56.444691,"lon":52.227631},"name":"Mozhga"},{"country":"RU","id":524736,"coord":{"lat":43.749168,"lon":44.688061},"name":"Mozdok"},{"country":"RU","id":524809,"coord":{"lat":44.41222,"lon":40.79361},"name":"Mostovskoy"},{"country":"RU","id":527361,"coord":{"lat":59.800831,"lon":30.547779},"name":"Metallostroy"},{"country":"RU","id":528056,"coord":{"lat":56.633881,"lon":47.80405},"name":"Medvedevo"},{"country":"RU","id":531129,"coord":{"lat":43.509171,"lon":44.59306},"name":"Malgobek"},{"country":"RU","id":532459,"coord":{"lat":53.86639,"lon":34.447781},"name":"Lyudinovo"},{"country":"RU","id":534341,"coord":{"lat":59.90612,"lon":29.77253},"name":"Lomonosov"},{"country":"RU","id":534560,"coord":{"lat":60.726002,"lon":33.553059},"name":"Lodeynoye Pole"},{"country":"RU","id":535334,"coord":{"lat":51.630692,"lon":35.2775},"name":"Lgovskiy"},{"country":"RU","id":536162,"coord":{"lat":54.602558,"lon":52.460869},"name":"Leninogorsk"},{"country":"RU","id":537345,"coord":{"lat":43.662498,"lon":43.536942},"name":"Dugulubgey"},{"country":"RU","id":538908,"coord":{"lat":51.660099,"lon":35.6521},"name":"Kurchatov"},{"country":"RU","id":538913,"coord":{"lat":43.201839,"lon":46.0881},"name":"Kurchaloy"},{"country":"RU","id":543348,"coord":{"lat":54.03746,"lon":35.771591},"name":"Kozelsk"},{"country":"RU","id":543737,"coord":{"lat":58.308899,"lon":48.348},"name":"Kotelnich"},{"country":"RU","id":543899,"coord":{"lat":64.570999,"lon":30.57667},"name":"Kostomuksha"},{"country":"RU","id":548442,"coord":{"lat":59.447121,"lon":32.020489},"name":"Kirishi"},{"country":"RU","id":548506,"coord":{"lat":53.933609,"lon":37.927921},"name":"Kireyevsk"},{"country":"RU","id":548602,"coord":{"lat":59.37331,"lon":28.61343},"name":"Kingisepp"},{"country":"RU","id":548622,"coord":{"lat":53.4706,"lon":51.4743},"name":"Kinel-Cherkassy"},{"country":"RU","id":551487,"coord":{"lat":55.788738,"lon":49.122139},"name":"Kazan"},{"country":"RU","id":553092,"coord":{"lat":43.226391,"lon":44.638062},"name":"Kantyshevo"},{"country":"RU","id":553152,"coord":{"lat":46.0849,"lon":38.959599},"name":"Kanevskaya"},{"country":"RU","id":555111,"coord":{"lat":55.971111,"lon":37.92083},"name":"Ivanteyevka"},{"country":"RU","id":556320,"coord":{"lat":44.09264,"lon":43.091129},"name":"Inozemtsevo"},{"country":"RU","id":557775,"coord":{"lat":55.61113,"lon":40.651859},"name":"Gus-Khrustalnyy"},{"country":"RU","id":558082,"coord":{"lat":48.053059,"lon":39.93111},"name":"Gukovo"},{"country":"RU","id":558146,"coord":{"lat":51.28167,"lon":37.54583},"name":"Gubkin"},{"country":"RU","id":558209,"coord":{"lat":58.838619,"lon":57.553249},"name":"Gubakha"},{"country":"RU","id":558799,"coord":{"lat":51.45792,"lon":41.97636},"name":"Gribanovskiy"},{"country":"RU","id":561887,"coord":{"lat":59.576389,"lon":30.12833},"name":"Gatchina"},{"country":"RU","id":563379,"coord":{"lat":61.812809,"lon":50.72834},"name":"Ezhva"},{"country":"RU","id":565289,"coord":{"lat":45.455181,"lon":41.97411},"name":"Donskoye"},{"country":"RU","id":565290,"coord":{"lat":53.971062,"lon":38.336269},"name":"Donskoy"},{"country":"RU","id":565348,"coord":{"lat":48.333721,"lon":39.947762},"name":"Donetsk"},{"country":"RU","id":565614,"coord":{"lat":55.90411,"lon":37.560638},"name":"Dolgoprudnyy"},{"country":"RU","id":567183,"coord":{"lat":58.1908,"lon":40.171711},"name":"Danilov"},{"country":"RU","id":569742,"coord":{"lat":56.768639,"lon":54.114841},"name":"Chaykovskiy"},{"country":"RU","id":571159,"coord":{"lat":53.655399,"lon":52.442001},"name":"Buguruslan"},{"country":"RU","id":571420,"coord":{"lat":45.80603,"lon":38.999592},"name":"Bryukhovetskaya"},{"country":"RU","id":576116,"coord":{"lat":55.035,"lon":55.978062},"name":"Blagoveshchensk"},{"country":"RU","id":576566,"coord":{"lat":57.785061,"lon":36.69651},"name":"Bezhetsk"},{"country":"RU","id":578534,"coord":{"lat":52.59333,"lon":58.322498},"name":"Baymak"},{"country":"RU","id":578931,"coord":{"lat":53.655331,"lon":47.112289},"name":"Barysh"},{"country":"RU","id":579464,"coord":{"lat":55.809448,"lon":37.958061},"name":"Balashikha"},{"country":"RU","id":581049,"coord":{"lat":64.5401,"lon":40.543301},"name":"Arkhangelsk"},{"country":"RU","id":581321,"coord":{"lat":55.551941,"lon":37.080101},"name":"Aprelevka"},{"country":"RU","id":582978,"coord":{"lat":56.400002,"lon":38.716671},"name":"Aleksandrow"},{"country":"RU","id":857689,"coord":{"lat":55.611938,"lon":37.296108},"name":"Vnukovo"},{"country":"RU","id":874045,"coord":{"lat":43.54417,"lon":44.589439},"name":"Staryy Malgobek"},{"country":"RU","id":1486209,"coord":{"lat":56.857498,"lon":60.612499},"name":"Yekaterinburg"},{"country":"RU","id":1486913,"coord":{"lat":67.583328,"lon":63.950001},"name":"Vorgashor"},{"country":"RU","id":1490402,"coord":{"lat":56.495281,"lon":60.819172},"name":"Sysert"},{"country":"RU","id":1491706,"coord":{"lat":52.997799,"lon":78.644897},"name":"Slavgorod"},{"country":"RU","id":1494276,"coord":{"lat":61.23333,"lon":73.333328},"name":"Poykovskiy"},{"country":"RU","id":1494907,"coord":{"lat":54.369141,"lon":60.81361},"name":"Plast"},{"country":"RU","id":1496421,"coord":{"lat":54.987202,"lon":82.716599},"name":"Ob"},{"country":"RU","id":1496739,"coord":{"lat":53.309719,"lon":83.623894},"name":"Novosilikatnyy"},{"country":"RU","id":1497173,"coord":{"lat":53.391701,"lon":83.936302},"name":"Novoaltaysk"},{"country":"RU","id":1497917,"coord":{"lat":61.099789,"lon":72.603493},"name":"Nefteyugansk"},{"country":"RU","id":1501321,"coord":{"lat":55.450001,"lon":65.333328},"name":"Kurgan"},{"country":"RU","id":1501460,"coord":{"lat":52.566002,"lon":78.938499},"name":"Kulunda"},{"country":"RU","id":1502060,"coord":{"lat":58.3638,"lon":60.040699},"name":"Krasnouralsk"},{"country":"RU","id":1502603,"coord":{"lat":55.131001,"lon":61.679199},"name":"Kopeysk"},{"country":"RU","id":1502725,"coord":{"lat":61.313332,"lon":63.33194},"name":"Yugorsk"},{"country":"RU","id":1503940,"coord":{"lat":55.533329,"lon":86.050003},"name":"Kedrovka"},{"country":"RU","id":1504212,"coord":{"lat":56.289001,"lon":62.584099},"name":"Kataysk"},{"country":"RU","id":1504826,"coord":{"lat":56.418499,"lon":61.932899},"name":"Kamensk-Uralskiy"},{"country":"RU","id":1505429,"coord":{"lat":54.6366,"lon":83.304497},"name":"Iskitim"},{"country":"RU","id":1509819,"coord":{"lat":55.671669,"lon":84.398064},"name":"Bolotnoye"},{"country":"RU","id":1509852,"coord":{"lat":56.207779,"lon":89.534172},"name":"Bogotol"},{"country":"RU","id":1510018,"coord":{"lat":52.536388,"lon":85.207222},"name":"Biysk"},{"country":"RU","id":1510205,"coord":{"lat":55.599998,"lon":86.199997},"name":"Berezovskiy"},{"country":"RU","id":1510350,"coord":{"lat":54.7551,"lon":83.096703},"name":"Berdsk"},{"country":"RU","id":1510450,"coord":{"lat":63.711941,"lon":66.672218},"name":"Beloyarskiy"},{"country":"RU","id":1512086,"coord":{"lat":54.852299,"lon":83.106003},"name":"Akademgorodok"},{"country":"RU","id":2012484,"coord":{"lat":53.9202,"lon":102.044197},"name":"Zima"},{"country":"RU","id":2013923,"coord":{"lat":56.7938,"lon":105.767197},"name":"Ust-Kut"},{"country":"RU","id":2014407,"coord":{"lat":51.82605,"lon":107.609787},"name":"Ulan-Ude"},{"country":"RU","id":2051471,"coord":{"lat":44.56039,"lon":135.570084},"name":"Dalnegorsk"},{"country":"RU","id":2056752,"coord":{"lat":48.443062,"lon":135.135559},"name":"Khabarovsk Vtoroy"},{"country":"RU","id":2121909,"coord":{"lat":49.216671,"lon":143.116669},"name":"Poronaysk"},{"country":"RU","id":6417459,"coord":{"lat":55.599442,"lon":37.038609},"name":"Krasnoznamensk"},{"country":"RU","id":7117880,"coord":{"lat":55.755329,"lon":38.095779},"name":"Zarya"},{"country":"RU","id":7290697,"coord":{"lat":60.979439,"lon":76.92421},"name":"Izluchinsk"},{"country":"RW","id":201463,"coord":{"lat":-1.9487,"lon":30.4347},"name":"Rwamagana"},{"country":"RW","id":201521,"coord":{"lat":-1.49984,"lon":29.63497},"name":"Musanze"},{"country":"RW","id":202065,"coord":{"lat":-2.0597,"lon":29.3482},"name":"Kibuye"},{"country":"RW","id":202326,"coord":{"lat":-2.4846,"lon":28.907499},"name":"Cyangugu"},{"country":"RW","id":203104,"coord":{"lat":-1.5763,"lon":30.067499},"name":"Byumba"},{"country":"SA","id":101554,"coord":{"lat":26.57332,"lon":50.036942},"name":"Tarut"},{"country":"SA","id":101760,"coord":{"lat":24.49258,"lon":39.58572},"name":"Sultanah"},{"country":"SA","id":102318,"coord":{"lat":26.48522,"lon":50.040459},"name":"Sayhat"},{"country":"SA","id":102527,"coord":{"lat":29.96974,"lon":40.206409},"name":"Sakaka"},{"country":"SA","id":102585,"coord":{"lat":26.64986,"lon":49.952229},"name":"Safwa"},{"country":"SA","id":102985,"coord":{"lat":26.707911,"lon":50.061939},"name":"Rahimah"},{"country":"SA","id":103035,"coord":{"lat":22.798559,"lon":39.034931},"name":"Rabigh"},{"country":"SA","id":103369,"coord":{"lat":20.00054,"lon":42.605202},"name":"Qalat Bishah"},{"country":"SA","id":103630,"coord":{"lat":17.492399,"lon":44.127659},"name":"Najran"},{"country":"SA","id":106909,"coord":{"lat":27.351339,"lon":35.69014},"name":"Zbe"},{"country":"SA","id":107744,"coord":{"lat":23.782921,"lon":38.79047},"name":"Badr Hunayn"},{"country":"SA","id":107959,"coord":{"lat":25.362761,"lon":49.72504},"name":"At Taraf"},{"country":"SA","id":108048,"coord":{"lat":20.46067,"lon":45.577919},"name":"As Sulayyil"},{"country":"SA","id":109323,"coord":{"lat":26.27944,"lon":50.208328},"name":"Al Khubar"},{"country":"SA","id":109380,"coord":{"lat":28.439051,"lon":48.491322},"name":"Al Khafji"},{"country":"SA","id":109417,"coord":{"lat":21.61694,"lon":39.698059},"name":"Al Jumum"},{"country":"SA","id":109571,"coord":{"lat":25.364571,"lon":49.565319},"name":"Al Hufuf"},{"country":"SA","id":109878,"coord":{"lat":26.14422,"lon":43.659328},"name":"Al Bukayriyah"},{"country":"SA","id":109915,"coord":{"lat":25.433331,"lon":49.633331},"name":"Al Battaliyah"},{"country":"SA","id":109953,"coord":{"lat":20.01288,"lon":41.46767},"name":"Al Bahah"},{"country":"SA","id":110619,"coord":{"lat":16.96887,"lon":42.832512},"name":"Abu Arish"},{"country":"SB","id":2108831,"coord":{"lat":-9.75,"lon":160},"name":"Guadalcanal Province"},{"country":"SB","id":2108502,"coord":{"lat":-9.43333,"lon":159.949997},"name":"Honiara"},{"country":"SD","id":364103,"coord":{"lat":14.40118,"lon":33.51989},"name":"Wad Medani"},{"country":"SD","id":365137,"coord":{"lat":15.64453,"lon":32.47773},"name":"Omdurman"},{"country":"SD","id":367644,"coord":{"lat":13.56907,"lon":33.567181},"name":"Sinnar"},{"country":"SD","id":371760,"coord":{"lat":13.1629,"lon":32.663471},"name":"Kosti"},{"country":"SD","id":373141,"coord":{"lat":11.01667,"lon":29.716669},"name":"Kadugli"},{"country":"SD","id":378231,"coord":{"lat":17.702169,"lon":33.986382},"name":"Atbara"},{"country":"SD","id":379014,"coord":{"lat":14.8648,"lon":32.366798},"name":"Al Qitena"},{"country":"SD","id":379252,"coord":{"lat":15.55177,"lon":32.53241},"name":"Khartoum"},{"country":"SD","id":380174,"coord":{"lat":11.7891,"lon":34.3592},"name":"Ad-Damazin"},{"country":"SD","id":380348,"coord":{"lat":12.35,"lon":29.25},"name":"Abu Zabad"},{"country":"SD","id":380757,"coord":{"lat":11.4562,"lon":31.2285},"name":"Abu Jibeha"},{"country":"SE","id":602913,"coord":{"lat":64.750671,"lon":20.952789},"name":"Skelleftea"},{"country":"SE","id":603570,"coord":{"lat":65.317169,"lon":21.479441},"name":"Pitea"},{"country":"SE","id":606531,"coord":{"lat":65.82518,"lon":21.688641},"name":"Boden"},{"country":"SE","id":2662148,"coord":{"lat":55.433331,"lon":13.85},"name":"Ystads Kommun"},{"country":"SE","id":2662149,"coord":{"lat":55.429661,"lon":13.82041},"name":"Ystad"},{"country":"SE","id":2662689,"coord":{"lat":57.640888,"lon":18.296021},"name":"Visby"},{"country":"SE","id":2665171,"coord":{"lat":58.380749,"lon":12.3234},"name":"Vanersborg"},{"country":"SE","id":2665452,"coord":{"lat":59.534359,"lon":18.077579},"name":"Vallentuna"},{"country":"SE","id":2666238,"coord":{"lat":59.518391,"lon":17.91128},"name":"Upplands Vaesby"},{"country":"SE","id":2666670,"coord":{"lat":58.347839,"lon":11.9424},"name":"Uddevalla"},{"country":"SE","id":2667094,"coord":{"lat":59.198582,"lon":17.83317},"name":"Tumba"},{"country":"SE","id":2667109,"coord":{"lat":59.200001,"lon":17.9},"name":"Tullinge"},{"country":"SE","id":2667303,"coord":{"lat":58.283649,"lon":12.28864},"name":"Trollhattan"},{"country":"SE","id":2667402,"coord":{"lat":55.375141,"lon":13.15691},"name":"Trelleborg"},{"country":"SE","id":2670781,"coord":{"lat":62.391289,"lon":17.306299},"name":"Sundsvall"},{"country":"SE","id":2670879,"coord":{"lat":59.361279,"lon":17.97114},"name":"Sundbyberg"},{"country":"SE","id":2675397,"coord":{"lat":59.360039,"lon":18.00086},"name":"Solna"},{"country":"SE","id":2675406,"coord":{"lat":59.444988,"lon":17.935181},"name":"Sollentuna Kommun"},{"country":"SE","id":2675408,"coord":{"lat":59.42804,"lon":17.95093},"name":"Sollentuna"},{"country":"SE","id":2677234,"coord":{"lat":58.391178,"lon":13.84506},"name":"Skoevde"},{"country":"SE","id":2684395,"coord":{"lat":57.739498,"lon":12.10642},"name":"Partille"},{"country":"SE","id":2685828,"coord":{"lat":59.338791,"lon":18.084869},"name":"OEstermalm"},{"country":"SE","id":2690580,"coord":{"lat":59.310532,"lon":18.163719},"name":"Nacka"},{"country":"SE","id":2690960,"coord":{"lat":58.53706,"lon":15.03649},"name":"Motala"},{"country":"SE","id":2691459,"coord":{"lat":57.655399,"lon":12.01378},"name":"Moelndal"},{"country":"SE","id":2692475,"coord":{"lat":59.621571,"lon":17.854759},"name":"Marsta"},{"country":"SE","id":2696334,"coord":{"lat":59.366669,"lon":18.133329},"name":"Lidingoe"},{"country":"SE","id":2696503,"coord":{"lat":57.770512,"lon":12.26904},"name":"Lerum"},{"country":"SE","id":2698729,"coord":{"lat":57.48719,"lon":12.07612},"name":"Kungsbacka"},{"country":"SE","id":2698739,"coord":{"lat":57.87096,"lon":11.98054},"name":"Kungalv"},{"country":"SE","id":2699282,"coord":{"lat":59.30978,"lon":14.10808},"name":"Kristinehamn"},{"country":"SE","id":2699310,"coord":{"lat":56.031288,"lon":14.15242},"name":"Kristianstad"},{"country":"SE","id":2699791,"coord":{"lat":59.514042,"lon":15.99255},"name":"Koping"},{"country":"SE","id":2700791,"coord":{"lat":59.40316,"lon":17.94479},"name":"Kista"},{"country":"SE","id":2701680,"coord":{"lat":59.379299,"lon":13.50357},"name":"Karlstad"},{"country":"SE","id":2701713,"coord":{"lat":56.16156,"lon":15.58661},"name":"Karlskrona"},{"country":"SE","id":2704620,"coord":{"lat":59.237049,"lon":17.98192},"name":"Huddinge"},{"country":"SE","id":2707399,"coord":{"lat":56.15905,"lon":13.76638},"name":"Hassleholm"},{"country":"SE","id":2707684,"coord":{"lat":62.632278,"lon":17.937941},"name":"Harnosand"},{"country":"SE","id":2707953,"coord":{"lat":59.167751,"lon":18.144779},"name":"Haninge"},{"country":"SE","id":2712414,"coord":{"lat":60.674519,"lon":17.141741},"name":"Gavle"},{"country":"SE","id":2715568,"coord":{"lat":58.17347,"lon":13.55068},"name":"Falkoeping"},{"country":"SE","id":2715573,"coord":{"lat":56.905521,"lon":12.49118},"name":"Falkenberg"},{"country":"SE","id":2715946,"coord":{"lat":55.839279,"lon":13.30393},"name":"Eslov"},{"country":"SE","id":2719111,"coord":{"lat":59.34,"lon":17.940001},"name":"Bromma"},{"country":"SE","id":2720383,"coord":{"lat":60.485802,"lon":15.43714},"name":"Borlaenge"},{"country":"SE","id":2721259,"coord":{"lat":59.333328,"lon":18.283331},"name":"Boo"},{"country":"SE","id":2725901,"coord":{"lat":56.242802,"lon":12.86219},"name":"AEngelholm Municipality"},{"country":"SE","id":2726756,"coord":{"lat":57.930328,"lon":12.53345},"name":"Alingsas"},{"country":"SE","id":2727234,"coord":{"lat":59.479439,"lon":18.299669},"name":"Akersberga"},{"country":"SE","id":6619708,"coord":{"lat":57.691952,"lon":11.91605},"name":"Majorna"},{"country":"SH","id":3370903,"coord":{"lat":-15.93872,"lon":-5.71675},"name":"Jamestown"},{"country":"SJ","id":2729907,"coord":{"lat":78.218597,"lon":15.64007},"name":"Longyearbyen"},{"country":"SK","id":723505,"coord":{"lat":49.298592,"lon":20.686199},"name":"Stara lubovna"},{"country":"SK","id":724144,"coord":{"lat":48.754341,"lon":21.9195},"name":"Michalovce"},{"country":"SK","id":3056508,"coord":{"lat":49.223148,"lon":18.73941},"name":"Zilina"},{"country":"SK","id":3057140,"coord":{"lat":48.89452,"lon":18.044359},"name":"Trencin"},{"country":"SK","id":3057789,"coord":{"lat":49.074799,"lon":19.30751},"name":"Ruzomberok"},{"country":"SK","id":3057963,"coord":{"lat":49.124939,"lon":18.32596},"name":"Puchov"},{"country":"SK","id":3058000,"coord":{"lat":48.77446,"lon":18.627501},"name":"Prievidza"},{"country":"SK","id":3058060,"coord":{"lat":49.121529,"lon":18.42169},"name":"Povazska Bystrica"},{"country":"SK","id":3058202,"coord":{"lat":48.594791,"lon":17.825911},"name":"Piestany"},{"country":"SK","id":3059050,"coord":{"lat":49.080608,"lon":19.622181},"name":"Liptovsky Mikulas"},{"country":"SK","id":3060095,"coord":{"lat":48.43174,"lon":17.803101},"name":"Hlohovec"},{"country":"SK","id":3060219,"coord":{"lat":48.19001,"lon":17.72747},"name":"Galanta"},{"country":"SK","id":3060308,"coord":{"lat":47.99268,"lon":17.61211},"name":"Dunajska Streda"},{"country":"SK","id":3060346,"coord":{"lat":48.959808,"lon":18.16634},"name":"Dubnica nad Vahom"},{"country":"SK","id":3060405,"coord":{"lat":49.209831,"lon":19.30341},"name":"Dolny Kubin"},{"country":"SK","id":3060950,"coord":{"lat":48.80431,"lon":19.636311},"name":"Brezno"},{"country":"SM","id":3168070,"coord":{"lat":43.933331,"lon":12.45},"name":"San Marino"},{"country":"SO","id":64536,"coord":{"lat":3.11383,"lon":43.649799},"name":"Baydhabo"},{"country":"SR","id":3383330,"coord":{"lat":5.86638,"lon":-55.166821},"name":"Paramaribo"},{"country":"SV","id":3583446,"coord":{"lat":13.48333,"lon":-88.183327},"name":"San Miquel"},{"country":"SV","id":3583480,"coord":{"lat":13.65889,"lon":-89.18306},"name":"San Marcos"},{"country":"SV","id":3584003,"coord":{"lat":13.28333,"lon":-88.550003},"name":"Puerto El Triunfo"},{"country":"SV","id":3584384,"coord":{"lat":14.33333,"lon":-89.449997},"name":"Metapan"},{"country":"SV","id":3584772,"coord":{"lat":13.33694,"lon":-87.843887},"name":"La Union"},{"country":"SV","id":3587428,"coord":{"lat":13.95722,"lon":-89.18972},"name":"Aguilares"},{"country":"SX","id":3513392,"coord":{"lat":18.025999,"lon":-63.045818},"name":"Philipsburg"},{"country":"SY","id":163345,"coord":{"lat":34.889019,"lon":35.886589},"name":"Tartouss"},{"country":"SY","id":163533,"coord":{"lat":34.668419,"lon":36.259949},"name":"Tall Kalakh"},{"country":"SY","id":163806,"coord":{"lat":32.735641,"lon":36.06694},"name":"Tafas"},{"country":"SY","id":163808,"coord":{"lat":34.560768,"lon":38.280548},"name":"Tadmur"},{"country":"SY","id":164328,"coord":{"lat":32.829441,"lon":36.159328},"name":"Shaykh Miskin"},{"country":"SY","id":164816,"coord":{"lat":35.864471,"lon":36.805908},"name":"Saraqib"},{"country":"SY","id":164898,"coord":{"lat":36.138088,"lon":36.45322},"name":"Salqin"},{"country":"SY","id":165060,"coord":{"lat":34.818359,"lon":36.113762},"name":"Satita"},{"country":"SY","id":165929,"coord":{"lat":33.43544,"lon":36.081478},"name":"Qatana"},{"country":"SY","id":166111,"coord":{"lat":34.152699,"lon":36.74152},"name":"Qarah"},{"country":"SY","id":166331,"coord":{"lat":36.377102,"lon":36.992378},"name":"Nubl"},{"country":"SY","id":167046,"coord":{"lat":35.0653,"lon":36.340599},"name":"Masyaf"},{"country":"SY","id":167357,"coord":{"lat":36.528149,"lon":37.954948},"name":"Manbij"},{"country":"SY","id":167605,"coord":{"lat":36.013371,"lon":36.672539},"name":"Maarrat Misrin"},{"country":"SY","id":168325,"coord":{"lat":35.440632,"lon":36.649948},"name":"Khan Shaykhun"},{"country":"SY","id":168629,"coord":{"lat":36.11684,"lon":36.515282},"name":"Kafr Takharim"},{"country":"SY","id":168661,"coord":{"lat":35.613762,"lon":36.564491},"name":"Kafr Nabl"},{"country":"SY","id":168668,"coord":{"lat":34.894691,"lon":36.495819},"name":"Kafr Laha"},{"country":"SY","id":169023,"coord":{"lat":35.814259,"lon":36.320621},"name":"Jisr ash Shughur"},{"country":"SY","id":169179,"coord":{"lat":36.817501,"lon":38.011108},"name":"Jarabulus"},{"country":"SY","id":169304,"coord":{"lat":35.36137,"lon":35.925621},"name":"Jablah"},{"country":"SY","id":169372,"coord":{"lat":33.53994,"lon":36.367161},"name":"Irbin"},{"country":"SY","id":169375,"coord":{"lat":33.017971,"lon":36.128059},"name":"Inkhil"},{"country":"SY","id":169389,"coord":{"lat":35.930618,"lon":36.63393},"name":"Idlib"},{"country":"SY","id":169577,"coord":{"lat":34.726822,"lon":36.723389},"name":"Homs"},{"country":"SY","id":170017,"coord":{"lat":35.13179,"lon":36.757832},"name":"Hamah"},{"country":"SY","id":170063,"coord":{"lat":36.201241,"lon":37.161171},"name":"Aleppo"},{"country":"SY","id":170654,"coord":{"lat":33.510201,"lon":36.291279},"name":"Damascus"},{"country":"SY","id":172059,"coord":{"lat":33.72488,"lon":36.100498},"name":"Az Zabadani"},{"country":"SY","id":172082,"coord":{"lat":36.58662,"lon":37.04628},"name":"Izaz"},{"country":"SY","id":172957,"coord":{"lat":36,"lon":39},"name":"Mu\u1e29\u0101faz\u0327at ar Raqqah"},{"country":"SY","id":172410,"coord":{"lat":32.75,"lon":36.75},"name":"Mu\u1e29\u0101faz\u0327at as Suwayd\u0101\u2019"},{"country":"SY","id":172408,"coord":{"lat":32.708961,"lon":36.569511},"name":"As Suwayda"},{"country":"SY","id":172469,"coord":{"lat":33.072269,"lon":36.183819},"name":"Sanamayn"},{"country":"SY","id":172503,"coord":{"lat":36.076962,"lon":37.372509},"name":"Safirah"},{"country":"SY","id":172946,"coord":{"lat":34.926529,"lon":36.73238},"name":"Ar Rastan"},{"country":"SY","id":172955,"coord":{"lat":35.950001,"lon":39.01667},"name":"Ar Raqqah"},{"country":"SY","id":173193,"coord":{"lat":34.025471,"lon":36.728371},"name":"An Nabk"},{"country":"SY","id":173322,"coord":{"lat":34.50914,"lon":36.57975},"name":"Al Qusayr"},{"country":"SY","id":173336,"coord":{"lat":33,"lon":35.833328},"name":"Mu\u1e29\u0101faz\u0327at al Qunay\u0163irah"},{"country":"SY","id":173334,"coord":{"lat":33.125938,"lon":35.824612},"name":"Al Qunaytirah"},{"country":"SY","id":173480,"coord":{"lat":35.020889,"lon":40.453461},"name":"Mayadin"},{"country":"SY","id":173598,"coord":{"lat":33.357201,"lon":36.242779},"name":"Al Kiswah"},{"country":"SY","id":173811,"coord":{"lat":36.502369,"lon":40.747719},"name":"Al Hasakah"},{"country":"SY","id":173819,"coord":{"lat":32.749321,"lon":36.30994},"name":"Al Harak"},{"country":"SY","id":174018,"coord":{"lat":36.369942,"lon":37.517879},"name":"Al Bab"},{"country":"SY","id":174186,"coord":{"lat":36.51598,"lon":36.863049},"name":"Afrin"},{"country":"SY","id":174259,"coord":{"lat":36.212521,"lon":36.769779},"name":"Ad Dana"},{"country":"SY","id":174448,"coord":{"lat":34.450001,"lon":40.91861},"name":"Albu Kamal"},{"country":"SZ","id":934995,"coord":{"lat":-26.48333,"lon":31.366671},"name":"Manzini"},{"country":"TD","id":2425791,"coord":{"lat":9.1429,"lon":18.3923},"name":"Sagh"},{"country":"TD","id":7603255,"coord":{"lat":14.66667,"lon":16.91667},"name":"R\u00e9gion du Barh el Gazel"},{"country":"TD","id":2428231,"coord":{"lat":12.47554,"lon":15.43647},"name":"Massaguet"},{"country":"TD","id":2430873,"coord":{"lat":15,"lon":15},"name":"R\u00e9gion du Kanem"},{"country":"TD","id":2428394,"coord":{"lat":14.12116,"lon":15.3103},"name":"Mao"},{"country":"TD","id":7603252,"coord":{"lat":8.32942,"lon":17.91567},"name":"R\u00e9gion du Mandoul"},{"country":"TD","id":2430506,"coord":{"lat":9.30859,"lon":15.80658},"name":"Kelo"},{"country":"TD","id":2433437,"coord":{"lat":8.65,"lon":16.85},"name":"Doba"},{"country":"TD","id":2436400,"coord":{"lat":13.2154,"lon":18.3353},"name":"Ati"},{"country":"TG","id":2363490,"coord":{"lat":6.33333,"lon":1.53333},"name":"Vogan"},{"country":"TG","id":2363534,"coord":{"lat":6.42611,"lon":1.21333},"name":"Tsevie"},{"country":"TG","id":2363908,"coord":{"lat":9.03333,"lon":1.41667},"name":"Tchamba"},{"country":"TG","id":2364104,"coord":{"lat":8.98333,"lon":1.13333},"name":"Sokode"},{"country":"TG","id":2364370,"coord":{"lat":7.5,"lon":1.16667},"name":"R\u00e9gion des Plateaux"},{"country":"TG","id":2364752,"coord":{"lat":6.95,"lon":1.16667},"name":"Notse"},{"country":"TG","id":2364812,"coord":{"lat":9.76806,"lon":1.10528},"name":"Niamtougou"},{"country":"TG","id":2364205,"coord":{"lat":10.5,"lon":0.5},"name":"R\u00e9gion des Savanes"},{"country":"TG","id":2365190,"coord":{"lat":10.35917,"lon":0.47083},"name":"Sansanne-Mango"},{"country":"TG","id":2365267,"coord":{"lat":6.13748,"lon":1.21227},"name":"Lome"},{"country":"TG","id":2367568,"coord":{"lat":9.25,"lon":0.78333},"name":"Bassar"},{"country":"TG","id":2367656,"coord":{"lat":9.35,"lon":1.26667},"name":"Bafilo"},{"country":"TG","id":2367660,"coord":{"lat":7.58333,"lon":0.6},"name":"Badou"},{"country":"TG","id":2367990,"coord":{"lat":6.23333,"lon":1.6},"name":"Aneho"},{"country":"TH","id":1117656,"coord":{"lat":7.88489,"lon":98.385567},"name":"Ban Talat Nua"},{"country":"TH","id":1117823,"coord":{"lat":12.27081,"lon":99.872032},"name":"Sam Roi Yot"},{"country":"TH","id":1149698,"coord":{"lat":13.11189,"lon":99.944672},"name":"Phetchaburi"},{"country":"TH","id":1149965,"coord":{"lat":15.38333,"lon":99.550003},"name":"Changwat Uthai Thani"},{"country":"TH","id":1150246,"coord":{"lat":13.96118,"lon":99.64122},"name":"Tha Muang"},{"country":"TH","id":1150275,"coord":{"lat":13.9,"lon":99.76667},"name":"Tha Maka"},{"country":"TH","id":1150490,"coord":{"lat":16.86968,"lon":99.128983},"name":"Tak"},{"country":"TH","id":1150515,"coord":{"lat":9.14011,"lon":99.333107},"name":"Surat Thani"},{"country":"TH","id":1150533,"coord":{"lat":17.00778,"lon":99.822998},"name":"Sukhothai"},{"country":"TH","id":1150624,"coord":{"lat":17.51692,"lon":99.759781},"name":"Si Satchanalai"},{"country":"TH","id":1150681,"coord":{"lat":17.315969,"lon":99.831863},"name":"Sawankhalok"},{"country":"TH","id":1150728,"coord":{"lat":18.628281,"lon":98.895721},"name":"San Pa Tong"},{"country":"TH","id":1150732,"coord":{"lat":18.74486,"lon":99.11953},"name":"San Kamphaeng"},{"country":"TH","id":1150921,"coord":{"lat":8.17911,"lon":99.854248},"name":"Ron Phibun"},{"country":"TH","id":1150954,"coord":{"lat":13.53671,"lon":99.817123},"name":"Ratchaburi"},{"country":"TH","id":1151211,"coord":{"lat":9.11072,"lon":99.232079},"name":"Phunphin"},{"country":"TH","id":1151254,"coord":{"lat":7.89059,"lon":98.398102},"name":"Phuket"},{"country":"TH","id":1151340,"coord":{"lat":13.69234,"lon":99.849693},"name":"Photharam"},{"country":"TH","id":1151426,"coord":{"lat":19.19203,"lon":99.87883},"name":"Phayao"},{"country":"TH","id":1151528,"coord":{"lat":18.526171,"lon":98.939362},"name":"Pa Sang"},{"country":"TH","id":1152227,"coord":{"lat":20.146749,"lon":99.852562},"name":"Mae Chan"},{"country":"TH","id":1152468,"coord":{"lat":18.58054,"lon":99.007446},"name":"Lamphun"},{"country":"TH","id":1152919,"coord":{"lat":13.24025,"lon":99.82428},"name":"Khao Yoi"},{"country":"TH","id":1153034,"coord":{"lat":7.91456,"lon":98.333298},"name":"Amphoe Kathu"},{"country":"TH","id":1153035,"coord":{"lat":7.91779,"lon":98.333221},"name":"Kathu"},{"country":"TH","id":1153081,"coord":{"lat":14.00412,"lon":99.548317},"name":"Kanchanaburi"},{"country":"TH","id":1153090,"coord":{"lat":16.48344,"lon":99.52153},"name":"Kamphaeng Phet"},{"country":"TH","id":1153241,"coord":{"lat":7.78933,"lon":99.634781},"name":"Huai Yot"},{"country":"TH","id":1153269,"coord":{"lat":12.57065,"lon":99.958763},"name":"Hua Hin"},{"country":"TH","id":1153386,"coord":{"lat":18.687031,"lon":98.919388},"name":"Hang Dong"},{"country":"TH","id":1153464,"coord":{"lat":19.16242,"lon":99.993423},"name":"Dok Kham Tai"},{"country":"TH","id":1153513,"coord":{"lat":13.51824,"lon":99.954689},"name":"Damnoen Saduak"},{"country":"TH","id":1153557,"coord":{"lat":10.5,"lon":99.166672},"name":"Chumphon"},{"country":"TH","id":1153646,"coord":{"lat":13.62,"lon":99.59169},"name":"Chom Bueng"},{"country":"TH","id":1153807,"coord":{"lat":12.8,"lon":99.966667},"name":"Cha-am"},{"country":"TH","id":1154677,"coord":{"lat":17.043249,"lon":99.081284},"name":"Ban Tak"},{"country":"TH","id":1155139,"coord":{"lat":13.81629,"lon":99.877388},"name":"Ban Pong"},{"country":"TH","id":1156046,"coord":{"lat":8.80036,"lon":99.363724},"name":"Ban Na San"},{"country":"TH","id":1157662,"coord":{"lat":11.21259,"lon":99.511673},"name":"Bang Saphan"},{"country":"TH","id":1157683,"coord":{"lat":13.69157,"lon":99.929817},"name":"Bang Phae"},{"country":"TH","id":1601579,"coord":{"lat":7.20411,"lon":100.545082},"name":"Ban Mai"},{"country":"TH","id":1604452,"coord":{"lat":13.64172,"lon":100.832718},"name":"Ban Khlong Bang Sao Thong"},{"country":"TH","id":1906690,"coord":{"lat":17.25,"lon":102.25},"name":"Changwat Nong Bua Lamphu"},{"country":"TH","id":1604769,"coord":{"lat":15.79408,"lon":104.145103},"name":"Yasothon"},{"country":"TH","id":1605018,"coord":{"lat":14.5945,"lon":100.338249},"name":"Wiset Chaichan"},{"country":"TH","id":1605024,"coord":{"lat":15.65778,"lon":101.106033},"name":"Wichian Buri"},{"country":"TH","id":1605069,"coord":{"lat":15.19319,"lon":104.862801},"name":"Warin Chamrap"},{"country":"TH","id":1605102,"coord":{"lat":17.30097,"lon":101.768501},"name":"Wang Saphung"},{"country":"TH","id":1605118,"coord":{"lat":14.22689,"lon":100.7155},"name":"Wang Noi"},{"country":"TH","id":1605215,"coord":{"lat":17.62557,"lon":100.094208},"name":"Uttaradit"},{"country":"TH","id":1605239,"coord":{"lat":17.41567,"lon":102.785889},"name":"Udon Thani"},{"country":"TH","id":1605467,"coord":{"lat":12.95772,"lon":99.905548},"name":"Tha Yang"},{"country":"TH","id":1605509,"coord":{"lat":14.56739,"lon":100.725983},"name":"Tha Ruea"},{"country":"TH","id":1605601,"coord":{"lat":12.62137,"lon":102.004799},"name":"Tha Mai"},{"country":"TH","id":1605754,"coord":{"lat":16.22094,"lon":100.419777},"name":"Taphan Hin"},{"country":"TH","id":1605957,"coord":{"lat":6.25947,"lon":102.054611},"name":"Tak Bai"},{"country":"TH","id":1606033,"coord":{"lat":14.47418,"lon":100.122177},"name":"Suphan Buri"},{"country":"TH","id":1606050,"coord":{"lat":6.02977,"lon":101.965858},"name":"Su-ngai Kolok"},{"country":"TH","id":1606238,"coord":{"lat":14.83333,"lon":104.333328},"name":"Changwat Sisaket"},{"country":"TH","id":1606239,"coord":{"lat":15.11481,"lon":104.329376},"name":"Si Sa Ket"},{"country":"TH","id":1606250,"coord":{"lat":13.17372,"lon":100.931107},"name":"Si Racha"},{"country":"TH","id":1606269,"coord":{"lat":14.85,"lon":100.23333},"name":"Changwat Sing Buri"},{"country":"TH","id":1606270,"coord":{"lat":14.88786,"lon":100.40464},"name":"Sing Buri"},{"country":"TH","id":1606350,"coord":{"lat":17.475309,"lon":103.457527},"name":"Sawang Daen Din"},{"country":"TH","id":1606375,"coord":{"lat":6.83333,"lon":100},"name":"Changwat Satun"},{"country":"TH","id":1606376,"coord":{"lat":6.62314,"lon":100.066757},"name":"Satun"},{"country":"TH","id":1606386,"coord":{"lat":12.66644,"lon":100.900726},"name":"Sattahip"},{"country":"TH","id":1606417,"coord":{"lat":14.60838,"lon":100.968224},"name":"Changwat Sara Buri"},{"country":"TH","id":1606418,"coord":{"lat":14.53333,"lon":100.916672},"name":"Saraburi"},{"country":"TH","id":1606585,"coord":{"lat":13.4,"lon":99.958328},"name":"Changwat Samut Songkhram"},{"country":"TH","id":1606586,"coord":{"lat":13.41456,"lon":100.00264},"name":"Samut Songkhram"},{"country":"TH","id":1606588,"coord":{"lat":13.54753,"lon":100.273621},"name":"Samut Sakhon"},{"country":"TH","id":1606590,"coord":{"lat":13.59934,"lon":100.596748},"name":"Samut Prakan"},{"country":"TH","id":1606638,"coord":{"lat":13.72698,"lon":100.215263},"name":"Sam Phran"},{"country":"TH","id":1606790,"coord":{"lat":17.16116,"lon":104.147247},"name":"Sakon Nakhon"},{"country":"TH","id":1606807,"coord":{"lat":13.81411,"lon":102.07222},"name":"Sa Kaeo"},{"country":"TH","id":1606939,"coord":{"lat":6.63883,"lon":100.423424},"name":"Sadao"},{"country":"TH","id":1607001,"coord":{"lat":16.0567,"lon":103.653091},"name":"Roi Et"},{"country":"TH","id":1607017,"coord":{"lat":12.68095,"lon":101.25798},"name":"Rayong"},{"country":"TH","id":1607435,"coord":{"lat":16.884251,"lon":101.884666},"name":"Phu Kradueng"},{"country":"TH","id":1611406,"coord":{"lat":15.75,"lon":102},"name":"Changwat Chaiyaphum"},{"country":"TH","id":1607508,"coord":{"lat":13.65854,"lon":100.533623},"name":"Phra Pradaeng"},{"country":"TH","id":1607532,"coord":{"lat":14.35167,"lon":100.577393},"name":"Phra Nakhon Si Ayutthaya"},{"country":"TH","id":1607552,"coord":{"lat":18.145889,"lon":100.141029},"name":"Phrae"},{"country":"TH","id":1607737,"coord":{"lat":16.419041,"lon":101.160561},"name":"Phetchabun"},{"country":"TH","id":1607779,"coord":{"lat":7.61786,"lon":100.077919},"name":"Phatthalung"},{"country":"TH","id":1607801,"coord":{"lat":13.74787,"lon":101.355301},"name":"Phanom Sarakham"},{"country":"TH","id":1607838,"coord":{"lat":13.44581,"lon":101.184448},"name":"Phanat Nikhom"},{"country":"TH","id":1607865,"coord":{"lat":14.45736,"lon":100.369888},"name":"Phak Hai"},{"country":"TH","id":1607978,"coord":{"lat":6.86814,"lon":101.250092},"name":"Pattani"},{"country":"TH","id":1607983,"coord":{"lat":14.01346,"lon":100.530487},"name":"Pathum Thani"},{"country":"TH","id":1608033,"coord":{"lat":8.35109,"lon":100.20195},"name":"Pak Phanang"},{"country":"TH","id":1608133,"coord":{"lat":13.86075,"lon":100.514771},"name":"Mueang Nonthaburi"},{"country":"TH","id":1608191,"coord":{"lat":15.99025,"lon":101.061829},"name":"Nong Phai"},{"country":"TH","id":1608232,"coord":{"lat":17.878469,"lon":102.741997},"name":"Nong Khai"},{"country":"TH","id":1608239,"coord":{"lat":14.34062,"lon":100.867332},"name":"Nong Khae"},{"country":"TH","id":1608409,"coord":{"lat":6.42639,"lon":101.823082},"name":"Narathiwat"},{"country":"TH","id":1608424,"coord":{"lat":14.6377,"lon":102.791382},"name":"Nang Rong"},{"country":"TH","id":1608452,"coord":{"lat":18.792919,"lon":100.729721},"name":"Nan"},{"country":"TH","id":1608462,"coord":{"lat":17.770361,"lon":102.189468},"name":"Nam Som"},{"country":"TH","id":1608527,"coord":{"lat":15.70472,"lon":100.137169},"name":"Nakhon Sawan"},{"country":"TH","id":1608529,"coord":{"lat":14.97066,"lon":102.101959},"name":"Nakhon Ratchasima"},{"country":"TH","id":1608531,"coord":{"lat":17.41081,"lon":104.778557},"name":"Nakhon Phanom"},{"country":"TH","id":1608534,"coord":{"lat":13.8196,"lon":100.044273},"name":"Nakhon Pathom"},{"country":"TH","id":1608539,"coord":{"lat":14.20463,"lon":101.212952},"name":"Nakhon Nayok"},{"country":"TH","id":1608541,"coord":{"lat":14.46281,"lon":100.608322},"name":"Nakhon Luang"},{"country":"TH","id":1608597,"coord":{"lat":16.545309,"lon":104.723511},"name":"Mukdahan"},{"country":"TH","id":1608900,"coord":{"lat":16.18483,"lon":103.300667},"name":"Maha Sarakham"},{"country":"TH","id":1609032,"coord":{"lat":14.79808,"lon":100.653969},"name":"Lop Buri"},{"country":"TH","id":1609043,"coord":{"lat":16.779831,"lon":101.242249},"name":"Lom Sak"},{"country":"TH","id":1609071,"coord":{"lat":17.49052,"lon":101.727493},"name":"Loei"},{"country":"TH","id":1609278,"coord":{"lat":12.48164,"lon":102.073753},"name":"Laem Sing"},{"country":"TH","id":1609324,"coord":{"lat":17.425699,"lon":102.566917},"name":"Kut Chap"},{"country":"TH","id":1609395,"coord":{"lat":13.6533,"lon":100.25972},"name":"Krathum Baen"},{"country":"TH","id":1609610,"coord":{"lat":12.77972,"lon":101.648308},"name":"Klaeng"},{"country":"TH","id":1609776,"coord":{"lat":16.446711,"lon":102.833},"name":"Khon Kaen"},{"country":"TH","id":1609795,"coord":{"lat":14.52541,"lon":102.245911},"name":"Khon Buri"},{"country":"TH","id":1609899,"coord":{"lat":14.06467,"lon":100.645782},"name":"Khlong Luang"},{"country":"TH","id":1610227,"coord":{"lat":14.64056,"lon":104.649918},"name":"Kantharalak"},{"country":"TH","id":1610469,"coord":{"lat":16.43281,"lon":103.506577},"name":"Kalasin"},{"country":"TH","id":1610503,"coord":{"lat":14.58617,"lon":100.997581},"name":"Kaeng Khoi"},{"country":"TH","id":1610940,"coord":{"lat":14.90598,"lon":105.078362},"name":"Det Udom"},{"country":"TH","id":1610943,"coord":{"lat":17.983721,"lon":100.05217},"name":"Den Chai"},{"country":"TH","id":1611106,"coord":{"lat":16.189529,"lon":100.859581},"name":"Chon Daen"},{"country":"TH","id":1611110,"coord":{"lat":13.3622,"lon":100.983452},"name":"Chon Buri"},{"country":"TH","id":1611135,"coord":{"lat":14.72844,"lon":102.165237},"name":"Chok Chai"},{"country":"TH","id":1611269,"coord":{"lat":12.60961,"lon":102.104469},"name":"Chanthaburi"},{"country":"TH","id":1611407,"coord":{"lat":15.81047,"lon":102.028809},"name":"Chaiyaphum"},{"country":"TH","id":1611416,"coord":{"lat":15.18636,"lon":100.123528},"name":"Chai Nat"},{"country":"TH","id":1611439,"coord":{"lat":13.6882,"lon":101.071564},"name":"Chachoengsao"},{"country":"TH","id":1611492,"coord":{"lat":15.58552,"lon":102.425873},"name":"Bua Yai"},{"country":"TH","id":1611635,"coord":{"lat":5.77434,"lon":101.072311},"name":"Betong"},{"country":"TH","id":1613769,"coord":{"lat":14.02775,"lon":100.756027},"name":"Ban Rangsit"},{"country":"TH","id":1614455,"coord":{"lat":16.059971,"lon":102.730972},"name":"Ban Phai"},{"country":"TH","id":1614465,"coord":{"lat":13.59072,"lon":100.107483},"name":"Ban Phaeo"},{"country":"TH","id":1616658,"coord":{"lat":14.61544,"lon":100.72731},"name":"Ban Mo"},{"country":"TH","id":1617111,"coord":{"lat":13.97738,"lon":100.777763},"name":"Ban Lam Luk Ka"},{"country":"TH","id":1619276,"coord":{"lat":16.758471,"lon":100.117416},"name":"Bang Rakam"},{"country":"TH","id":1619281,"coord":{"lat":14.892,"lon":100.317284},"name":"Bang Racham"},{"country":"TH","id":1619363,"coord":{"lat":13.54297,"lon":100.993332},"name":"Bang Pakong"},{"country":"TH","id":1619369,"coord":{"lat":14.22783,"lon":100.57589},"name":"Bang Pa-in"},{"country":"TH","id":1619400,"coord":{"lat":16.027809,"lon":100.379173},"name":"Bang Mun Nak"},{"country":"TH","id":1619415,"coord":{"lat":14.02188,"lon":100.171829},"name":"Bang Len"},{"country":"TH","id":1619423,"coord":{"lat":13.04704,"lon":100.928909},"name":"Bang Lamung"},{"country":"TH","id":1619434,"coord":{"lat":13.805,"lon":100.472832},"name":"Bang Kruai"},{"country":"TH","id":1619437,"coord":{"lat":16.57831,"lon":100.300339},"name":"Bang Krathum"},{"country":"TH","id":1619602,"coord":{"lat":13.91783,"lon":100.424026},"name":"Bang Bua Thong"},{"country":"TH","id":1619616,"coord":{"lat":14.37394,"lon":100.485283},"name":"Bang Ban"},{"country":"TH","id":1619650,"coord":{"lat":17.698999,"lon":103.259567},"name":"Ban Dung"},{"country":"TH","id":1620254,"coord":{"lat":12.72543,"lon":101.055298},"name":"Ban Chang"},{"country":"TH","id":1620442,"coord":{"lat":13.07147,"lon":101.003143},"name":"Ban Talat Bueng"},{"country":"TH","id":1620875,"coord":{"lat":13.99904,"lon":100.549622},"name":"Ban Bang Kadi Pathum Thani"},{"country":"TH","id":1620919,"coord":{"lat":13.58333,"lon":100.816673},"name":"Ban Bang Bo (1)"},{"country":"TH","id":1621020,"coord":{"lat":13.69276,"lon":102.501282},"name":"Aranyaprathet"},{"country":"TH","id":1906689,"coord":{"lat":15.91667,"lon":104.75},"name":"Changwat Amnat Charoen"},{"country":"TH","id":1621060,"coord":{"lat":15.85851,"lon":104.62883},"name":"Amnat Charoen"},{"country":"TH","id":7091861,"coord":{"lat":7.84468,"lon":98.338966},"name":"Ban Chalong"},{"country":"TH","id":7091912,"coord":{"lat":7.90963,"lon":98.402481},"name":"Ban Ratsada"},{"country":"TJ","id":1220301,"coord":{"lat":38.51437,"lon":68.233269},"name":"Tursunzoda"},{"country":"TJ","id":1220826,"coord":{"lat":37.492191,"lon":69.403557},"name":"Farkhor"},{"country":"TJ","id":1220855,"coord":{"lat":38.55632,"lon":69.013542},"name":"Vahdat"},{"country":"TJ","id":1221714,"coord":{"lat":38.52504,"lon":68.551239},"name":"Hisor"},{"country":"TJ","id":1221874,"coord":{"lat":38.535751,"lon":68.779053},"name":"Dushanbe"},{"country":"TL","id":1645456,"coord":{"lat":-8.55,"lon":125.666672},"name":"Distrito D\u00edli"},{"country":"TL","id":1645457,"coord":{"lat":-8.55861,"lon":125.573608},"name":"Dili"},{"country":"TM","id":161616,"coord":{"lat":39.51075,"lon":54.36713},"name":"Balkanabat"},{"country":"TM","id":162199,"coord":{"lat":37.887569,"lon":58.515999},"name":"Annau"},{"country":"TM","id":601475,"coord":{"lat":41.65041,"lon":59.916401},"name":"Tagta"},{"country":"TM","id":601608,"coord":{"lat":42.327728,"lon":59.154419},"name":"Koeneuergench"},{"country":"TM","id":601661,"coord":{"lat":42.128239,"lon":59.671009},"name":"Boldumsaz"},{"country":"TM","id":601734,"coord":{"lat":41.83625,"lon":59.966621},"name":"Dasoguz"},{"country":"TM","id":1218021,"coord":{"lat":37.298859,"lon":62.359749},"name":"Yoloten"},{"country":"TM","id":1218239,"coord":{"lat":37.383381,"lon":60.50544},"name":"Tejen"},{"country":"TM","id":1218420,"coord":{"lat":39.481602,"lon":62.913738},"name":"Seydi"},{"country":"TM","id":1218436,"coord":{"lat":38.78392,"lon":63.880348},"name":"Sayat"},{"country":"TM","id":1218667,"coord":{"lat":37.593781,"lon":61.830311},"name":"Mary"},{"country":"TM","id":1219002,"coord":{"lat":37.835739,"lon":65.210579},"name":"Atamyrat"},{"country":"TM","id":1219649,"coord":{"lat":39.07328,"lon":63.578621},"name":"Turkmenabat"},{"country":"TN","id":2464041,"coord":{"lat":36.402908,"lon":10.14292},"name":"Zaghouan"},{"country":"TN","id":2464168,"coord":{"lat":36.83408,"lon":10.04057},"name":"Oued Lill"},{"country":"TN","id":2464795,"coord":{"lat":35.572441,"lon":8.67031},"name":"Thala"},{"country":"TN","id":2464804,"coord":{"lat":36.783329,"lon":10.63333},"name":"Taklisah"},{"country":"TN","id":2464809,"coord":{"lat":35.891739,"lon":8.55276},"name":"Tajerouine"},{"country":"TN","id":2467920,"coord":{"lat":36.578609,"lon":10.85861},"name":"Korba"},{"country":"TN","id":2468106,"coord":{"lat":35.647732,"lon":10.89046},"name":"Qasr Hallal"},{"country":"TN","id":2468245,"coord":{"lat":36.86108,"lon":10.33161},"name":"Carthage"},{"country":"TN","id":2468329,"coord":{"lat":37.062901,"lon":10.11829},"name":"Qalat al Andalus"},{"country":"TN","id":2468561,"coord":{"lat":33.873089,"lon":7.87765},"name":"Nefta"},{"country":"TN","id":2468925,"coord":{"lat":33.808128,"lon":10.99228},"name":"Midoun"},{"country":"TN","id":2469088,"coord":{"lat":37.040451,"lon":9.66557},"name":"Mateur"},{"country":"TN","id":2469256,"coord":{"lat":37.236179,"lon":9.91448},"name":"Menzel Jemil"},{"country":"TN","id":2469262,"coord":{"lat":36.683121,"lon":10.58431},"name":"Manzil Bu Zalafah"},{"country":"TN","id":2469264,"coord":{"lat":37.153679,"lon":9.78594},"name":"Menzel Bourguiba"},{"country":"TN","id":6201192,"coord":{"lat":36.833328,"lon":9.83333},"name":"Gouvernorat de la Manouba"},{"country":"TN","id":2469274,"coord":{"lat":36.808029,"lon":10.0972},"name":"Manouba"},{"country":"TN","id":2469386,"coord":{"lat":36.649639,"lon":9.61231},"name":"Majaz al Bab"},{"country":"TN","id":2470173,"coord":{"lat":33.503979,"lon":11.11216},"name":"Zarzis"},{"country":"TN","id":2470384,"coord":{"lat":33.875759,"lon":10.85745},"name":"Houmt Souk"},{"country":"TN","id":2470579,"coord":{"lat":35.860901,"lon":10.60313},"name":"Hammam Sousse"},{"country":"TN","id":2470588,"coord":{"lat":36.728661,"lon":10.34163},"name":"Hammam-Lif"},{"country":"TN","id":2471287,"coord":{"lat":33.46632,"lon":9.0203},"name":"Douz"},{"country":"TN","id":2471637,"coord":{"lat":36.467979,"lon":10.75167},"name":"Dar Chabanne"},{"country":"TN","id":2473229,"coord":{"lat":35.237221,"lon":11.115},"name":"Chebba"},{"country":"TN","id":2473493,"coord":{"lat":35.783329,"lon":10.83333},"name":"Monastir"},{"country":"TN","id":2473540,"coord":{"lat":36.878181,"lon":10.32466},"name":"Al Marsa"},{"country":"TN","id":2473747,"coord":{"lat":33.891521,"lon":9.79629},"name":"El Hamma"},{"country":"TN","id":2473826,"coord":{"lat":35.61739,"lon":10.99466},"name":"Al Baqalitah"},{"country":"TN","id":2473876,"coord":{"lat":37.169102,"lon":10.03478},"name":"Al Aliyah"},{"country":"TN","id":2473913,"coord":{"lat":35.869099,"lon":10.5653},"name":"Akouda"},{"country":"TO","id":4032402,"coord":{"lat":-21.133329,"lon":-175.199997},"name":"Nukualofa"},{"country":"TR","id":297090,"coord":{"lat":37.375561,"lon":27.26778},"name":"Didim"},{"country":"TR","id":297917,"coord":{"lat":38.10228,"lon":35.35704},"name":"Yahyali"},{"country":"TR","id":298935,"coord":{"lat":38.151901,"lon":27.36223},"name":"Torbali"},{"country":"TR","id":299137,"coord":{"lat":38.088772,"lon":27.735081},"name":"Tire"},{"country":"TR","id":299545,"coord":{"lat":39.54237,"lon":29.498659},"name":"Tavsanli"},{"country":"TR","id":299900,"coord":{"lat":38.6908,"lon":35.553799},"name":"Talas"},{"country":"TR","id":300075,"coord":{"lat":36.976139,"lon":38.42495},"name":"Suruc"},{"country":"TR","id":300371,"coord":{"lat":39.185539,"lon":27.609449},"name":"Soma"},{"country":"TR","id":300796,"coord":{"lat":38.141941,"lon":41.00806},"name":"Silvan"},{"country":"TR","id":300808,"coord":{"lat":36.377781,"lon":33.934441},"name":"Silifke"},{"country":"TR","id":301010,"coord":{"lat":37.419258,"lon":31.84527},"name":"Seydisehir"},{"country":"TR","id":301116,"coord":{"lat":38.939251,"lon":33.538601},"name":"Sereflikochisar"},{"country":"TR","id":301172,"coord":{"lat":38.104439,"lon":30.548611},"name":"Senirkent"},{"country":"TR","id":301209,"coord":{"lat":37.305141,"lon":44.5742},"name":"Semdinli"},{"country":"TR","id":301256,"coord":{"lat":37.95137,"lon":27.36849},"name":"Selcuk"},{"country":"TR","id":301537,"coord":{"lat":39.35186,"lon":36.40976},"name":"Sarkisla"},{"country":"TR","id":301539,"coord":{"lat":38.079441,"lon":31.36639},"name":"Sarkikaraagac"},{"country":"TR","id":301911,"coord":{"lat":38.464722,"lon":30.269461},"name":"Sandikli"},{"country":"TR","id":302800,"coord":{"lat":37.486851,"lon":37.29961},"name":"Pazarcik"},{"country":"TR","id":302819,"coord":{"lat":39.233608,"lon":42.863441},"name":"Patnos"},{"country":"TR","id":302824,"coord":{"lat":39.980309,"lon":41.67635},"name":"Pasinler"},{"country":"TR","id":303354,"coord":{"lat":36.829441,"lon":28.77083},"name":"Ortaca"},{"country":"TR","id":303750,"coord":{"lat":37.077801,"lon":41.2178},"name":"Nusaybin"},{"country":"TR","id":303827,"coord":{"lat":37.965832,"lon":34.679352},"name":"Nigde"},{"country":"TR","id":304081,"coord":{"lat":38.745251,"lon":41.506931},"name":"Mus"},{"country":"TR","id":304196,"coord":{"lat":39.06147,"lon":34.382858},"name":"Mucur"},{"country":"TR","id":304531,"coord":{"lat":36.795261,"lon":34.61792},"name":"Mercin"},{"country":"TR","id":304782,"coord":{"lat":36.855,"lon":28.27417},"name":"Marmaris"},{"country":"TR","id":304797,"coord":{"lat":37.313091,"lon":40.743568},"name":"Mardin"},{"country":"TR","id":307084,"coord":{"lat":37.193329,"lon":40.584999},"name":"Kiziltepe"},{"country":"TR","id":307623,"coord":{"lat":39.10638,"lon":27.66925},"name":"Kirkagac"},{"country":"TR","id":307657,"coord":{"lat":36.49939,"lon":36.357552},"name":"Kirikhan"},{"country":"TR","id":308024,"coord":{"lat":39.673061,"lon":33.613609},"name":"Keskin"},{"country":"TR","id":308220,"coord":{"lat":36.597778,"lon":30.56056},"name":"Kemer"},{"country":"TR","id":310004,"coord":{"lat":39.34919,"lon":42.112389},"name":"Karacoban"},{"country":"TR","id":310907,"coord":{"lat":38.239719,"lon":32.211391},"name":"Kadinhani"},{"country":"TR","id":311111,"coord":{"lat":36.587181,"lon":36.17347},"name":"Iskenderun"},{"country":"TR","id":311314,"coord":{"lat":37.852219,"lon":27.72361},"name":"Incirliova"},{"country":"TR","id":312899,"coord":{"lat":36.987759,"lon":32.456741},"name":"Hadim"},{"country":"TR","id":313013,"coord":{"lat":38.646309,"lon":35.449371},"name":"Hacilar"},{"country":"TR","id":313331,"coord":{"lat":38.577389,"lon":42.028111},"name":"Guroymak"},{"country":"TR","id":314136,"coord":{"lat":37.783611,"lon":37.636669},"name":"Golbasi"},{"country":"TR","id":314648,"coord":{"lat":38.75071,"lon":40.560349},"name":"Genc"},{"country":"TR","id":314665,"coord":{"lat":39.183418,"lon":36.071892},"name":"Gemerek"},{"country":"TR","id":314812,"coord":{"lat":36.269421,"lon":32.317921},"name":"Gazipasa"},{"country":"TR","id":315061,"coord":{"lat":39.78561,"lon":26.34083},"name":"Ezine"},{"country":"TR","id":315401,"coord":{"lat":36.64043,"lon":32.891788},"name":"Ermenek"},{"country":"TR","id":315515,"coord":{"lat":36.60498,"lon":34.308361},"name":"Erdemli"},{"country":"TR","id":315621,"coord":{"lat":39.019718,"lon":31.15},"name":"Emirdag"},{"country":"TR","id":315720,"coord":{"lat":39.92083,"lon":33.230831},"name":"Elmadag"},{"country":"TR","id":315758,"coord":{"lat":39.803329,"lon":42.673611},"name":"Eleskirt"},{"country":"TR","id":315905,"coord":{"lat":37.874619,"lon":30.85042},"name":"Egirdir"},{"country":"TR","id":316284,"coord":{"lat":36.86158,"lon":36.228851},"name":"Dortyol"},{"country":"TR","id":316542,"coord":{"lat":39.540562,"lon":43.671349},"name":"Diyadin"},{"country":"TR","id":316634,"coord":{"lat":38.064999,"lon":30.165569},"name":"Dinar"},{"country":"TR","id":317241,"coord":{"lat":39.04607,"lon":28.65889},"name":"Demirci"},{"country":"TR","id":317587,"coord":{"lat":37.545448,"lon":41.719662},"name":"Dargecit"},{"country":"TR","id":317588,"coord":{"lat":38.54583,"lon":37.505829},"name":"Darende"},{"country":"TR","id":317844,"coord":{"lat":37.5732,"lon":32.77446},"name":"Cumra"},{"country":"TR","id":318372,"coord":{"lat":37.611671,"lon":28.06139},"name":"Cine"},{"country":"TR","id":318668,"coord":{"lat":36.847221,"lon":40.049999},"name":"Ceylanpinar"},{"country":"TR","id":319104,"coord":{"lat":38.591671,"lon":31.02861},"name":"Cay"},{"country":"TR","id":320004,"coord":{"lat":37.749592,"lon":37.296219},"name":"Caglayancerit"},{"country":"TR","id":320369,"coord":{"lat":39.500408,"lon":26.972691},"name":"Burhaniye"},{"country":"TR","id":320448,"coord":{"lat":39.092918,"lon":42.270309},"name":"Bulanik"},{"country":"TR","id":320552,"coord":{"lat":36.1082,"lon":32.961128},"name":"Bozyazi"},{"country":"TR","id":320557,"coord":{"lat":39.90778,"lon":30.036671},"name":"Bozuyuk"},{"country":"TR","id":320879,"coord":{"lat":38.711109,"lon":31.048611},"name":"Bolvadin"},{"country":"TR","id":321031,"coord":{"lat":37.84861,"lon":40.665829},"name":"Bismil"},{"country":"TR","id":321337,"coord":{"lat":37.69278,"lon":37.861111},"name":"Besni"},{"country":"TR","id":321572,"coord":{"lat":36.489109,"lon":36.223309},"name":"Belen"},{"country":"TR","id":321786,"coord":{"lat":38.217411,"lon":27.64744},"name":"Bayindir"},{"country":"TR","id":322051,"coord":{"lat":38.737068,"lon":29.75194},"name":"Banaz"},{"country":"TR","id":322391,"coord":{"lat":37.197239,"lon":36.57658},"name":"Bahce"},{"country":"TR","id":323094,"coord":{"lat":39.92083,"lon":40.695},"name":"Askale"},{"country":"TR","id":323777,"coord":{"lat":36.908119,"lon":30.69556},"name":"Antalya"},{"country":"TR","id":324172,"coord":{"lat":38.35083,"lon":28.517179},"name":"Alasehir"},{"country":"TR","id":324190,"coord":{"lat":36.543751,"lon":31.999821},"name":"Alanya"},{"country":"TR","id":325103,"coord":{"lat":38.751781,"lon":42.48135},"name":"Ahlat"},{"country":"TR","id":438400,"coord":{"lat":36.649509,"lon":36.229561},"name":"Denizciler"},{"country":"TR","id":442301,"coord":{"lat":39.96833,"lon":32.730831},"name":"Batikent"},{"country":"TR","id":447273,"coord":{"lat":36.765911,"lon":28.802799},"name":"Dalaman"},{"country":"TR","id":737071,"coord":{"lat":40.994411,"lon":28.904169},"name":"Zeytinburnu"},{"country":"TR","id":737421,"coord":{"lat":40.954109,"lon":39.864052},"name":"Yomra"},{"country":"TR","id":737961,"coord":{"lat":40.776669,"lon":29.729719},"name":"Korfez"},{"country":"TR","id":738064,"coord":{"lat":40.988941,"lon":28.675819},"name":"Yakuplu"},{"country":"TR","id":738167,"coord":{"lat":41.143608,"lon":35.45472},"name":"Vezirkopru"},{"country":"TR","id":738228,"coord":{"lat":41.04583,"lon":39.27639},"name":"Vakfikebir"},{"country":"TR","id":738377,"coord":{"lat":41.01643,"lon":29.12476},"name":"Umraniye"},{"country":"TR","id":738618,"coord":{"lat":40.387501,"lon":36.081108},"name":"Turhal"},{"country":"TR","id":738662,"coord":{"lat":41.01545,"lon":34.040131},"name":"Tosya"},{"country":"TR","id":738753,"coord":{"lat":41.006939,"lon":38.813889},"name":"Tirebolu"},{"country":"TR","id":738858,"coord":{"lat":41.029308,"lon":28.54978},"name":"Tepecik"},{"country":"TR","id":738907,"coord":{"lat":41.21167,"lon":36.459999},"name":"Tekkekoy"},{"country":"TR","id":739015,"coord":{"lat":40.75972,"lon":36.322498},"name":"Tasova"},{"country":"TR","id":739061,"coord":{"lat":41.5098,"lon":34.214142},"name":"Taskopru"},{"country":"TR","id":739209,"coord":{"lat":40.16444,"lon":38.08667},"name":"Susehri"},{"country":"TR","id":739215,"coord":{"lat":40.912579,"lon":40.11676},"name":"Surmene"},{"country":"TR","id":739251,"coord":{"lat":40.83128,"lon":35.647881},"name":"Suluova"},{"country":"TR","id":739549,"coord":{"lat":41.060459,"lon":28.987169},"name":"Sisli"},{"country":"TR","id":739914,"coord":{"lat":40.28833,"lon":38.423611},"name":"Sebinkarahisar"},{"country":"TR","id":740881,"coord":{"lat":40.35722,"lon":30.01417},"name":"Osmaneli"},{"country":"TR","id":740883,"coord":{"lat":40.97818,"lon":34.804699},"name":"Osmancik"},{"country":"TR","id":741240,"coord":{"lat":40.94458,"lon":40.26746},"name":"Of"},{"country":"TR","id":741347,"coord":{"lat":40.185928,"lon":31.351789},"name":"Nallihan"},{"country":"TR","id":741529,"coord":{"lat":41.003151,"lon":28.53768},"name":"Mimarsinan"},{"country":"TR","id":742238,"coord":{"lat":40.874439,"lon":37.263889},"name":"Kumru"},{"country":"TR","id":742658,"coord":{"lat":40.824718,"lon":37.346668},"name":"Korgan"},{"country":"TR","id":743051,"coord":{"lat":40.469719,"lon":32.650558},"name":"Kizilcahamam"},{"country":"TR","id":743537,"coord":{"lat":40.12978,"lon":39.436069},"name":"Kelkit"},{"country":"TR","id":743615,"coord":{"lat":40.23167,"lon":32.683891},"name":"Kazan"},{"country":"TR","id":743818,"coord":{"lat":41.092579,"lon":28.33172},"name":"Kavakli"},{"country":"TR","id":744537,"coord":{"lat":40.215248,"lon":28.40378},"name":"Karacabey"},{"country":"TR","id":745028,"coord":{"lat":40.766941,"lon":29.916941},"name":"Izmit"},{"country":"TR","id":745076,"coord":{"lat":40.735279,"lon":34.473888},"name":"Iskilip"},{"country":"TR","id":745530,"coord":{"lat":41.405972,"lon":41.43787},"name":"Hopa"},{"country":"TR","id":746232,"coord":{"lat":40.218761,"lon":29.19487},"name":"Gursu"},{"country":"TR","id":746234,"coord":{"lat":40.99028,"lon":28.61528},"name":"Gurpinar"},{"country":"TR","id":746881,"coord":{"lat":40.916981,"lon":38.387409},"name":"Giresun"},{"country":"TR","id":746898,"coord":{"lat":40.5075,"lon":30.2925},"name":"Geyve"},{"country":"TR","id":746940,"coord":{"lat":40.800831,"lon":32.196941},"name":"Gerede"},{"country":"TR","id":746983,"coord":{"lat":40.410278,"lon":26.67083},"name":"Gelibolu"},{"country":"TR","id":747135,"coord":{"lat":40.940819,"lon":30.48583},"name":"Ferizli"},{"country":"TR","id":747340,"coord":{"lat":41.043499,"lon":28.87619},"name":"Esenler"},{"country":"TR","id":747471,"coord":{"lat":41.282619,"lon":31.41806},"name":"Eregli"},{"country":"TR","id":747482,"coord":{"lat":40.399601,"lon":27.79348},"name":"Erdek"},{"country":"TR","id":747489,"coord":{"lat":40.668892,"lon":36.567501},"name":"Erbaa"},{"country":"TR","id":748870,"coord":{"lat":40.238609,"lon":33.032219},"name":"Cubuk"},{"country":"TR","id":749502,"coord":{"lat":41.092281,"lon":40.72924},"name":"Cayeli"},{"country":"TR","id":749508,"coord":{"lat":41.426392,"lon":32.075562},"name":"Caycuma"},{"country":"TR","id":749704,"coord":{"lat":41.198891,"lon":36.721939},"name":"Carsamba"},{"country":"TR","id":750317,"coord":{"lat":40.937168,"lon":38.229069},"name":"Bulancak"},{"country":"TR","id":750468,"coord":{"lat":41.468891,"lon":34.76667},"name":"Boyabat"},{"country":"TR","id":750637,"coord":{"lat":40.1675,"lon":31.92111},"name":"Beypazari"},{"country":"TR","id":750735,"coord":{"lat":41.051991,"lon":39.228439},"name":"Besikduzu"},{"country":"TR","id":751057,"coord":{"lat":41.63583,"lon":32.337502},"name":"Bartin"},{"country":"TR","id":751838,"coord":{"lat":40.949581,"lon":39.927559},"name":"Arsin"},{"country":"TR","id":751931,"coord":{"lat":41.349171,"lon":41.306938},"name":"Arhavi"},{"country":"TR","id":751949,"coord":{"lat":41.191109,"lon":40.987499},"name":"Ardesen"},{"country":"TR","id":751971,"coord":{"lat":40.938541,"lon":40.058418},"name":"Arakli"},{"country":"TR","id":752184,"coord":{"lat":41.169399,"lon":31.379169},"name":"Alapli"},{"country":"TR","id":752278,"coord":{"lat":40.168331,"lon":34.842499},"name":"Alaca"},{"country":"TR","id":752584,"coord":{"lat":41.086632,"lon":31.11623},"name":"Akcakoca"},{"country":"TR","id":752627,"coord":{"lat":41.021198,"lon":39.571461},"name":"Akcaabat"},{"country":"TR","id":831432,"coord":{"lat":40.947941,"lon":38.711479},"name":"Espiye"},{"country":"TR","id":746302,"coord":{"lat":41.018509,"lon":28.88357},"name":"G\u00fcng\u00f6ren"},{"country":"TR","id":6354984,"coord":{"lat":41.012951,"lon":28.885929},"name":"merter keresteciler"},{"country":"TR","id":6354985,"coord":{"lat":41.007111,"lon":28.887951},"name":"guengoeren merter"},{"country":"TR","id":6692524,"coord":{"lat":36.715488,"lon":28.704359},"name":"Sarigerme"},{"country":"TR","id":6947637,"coord":{"lat":40.983299,"lon":29.116699},"name":"Atasehir"},{"country":"TR","id":6947639,"coord":{"lat":41.093071,"lon":28.802031},"name":"Basaksehir"},{"country":"TR","id":6947640,"coord":{"lat":40.981998,"lon":28.6399},"name":"Beylikduezue"},{"country":"TR","id":6947641,"coord":{"lat":41.020721,"lon":28.58502},"name":"Bueyuekcekmece"},{"country":"TR","id":6955677,"coord":{"lat":39.9179,"lon":32.862679},"name":"Cankaya"},{"country":"TR","id":7627067,"coord":{"lat":41.002312,"lon":28.8598},"name":"Bahcelievler"},{"country":"TR","id":7628416,"coord":{"lat":41.106522,"lon":28.868469},"name":"Sultangazi"},{"country":"TR","id":7628419,"coord":{"lat":40.96072,"lon":29.27067},"name":"Sultanbeyli"},{"country":"TR","id":7628420,"coord":{"lat":41.002441,"lon":29.231871},"name":"Sancaktepe"},{"country":"TR","id":7701384,"coord":{"lat":38.373959,"lon":27.135201},"name":"Karabaglar"},{"country":"TT","id":7521947,"coord":{"lat":10.63387,"lon":-61.381821},"name":"Tunapuna/Piarco"},{"country":"TT","id":3573576,"coord":{"lat":10.63333,"lon":-61.383331},"name":"Tunapuna"},{"country":"TT","id":7521944,"coord":{"lat":10.5835,"lon":-61.117722},"name":"Sangre Grande"},{"country":"TT","id":3573732,"coord":{"lat":10.58333,"lon":-61.116669},"name":"Sangre Grande"},{"country":"TT","id":3573739,"coord":{"lat":10.28333,"lon":-61.466671},"name":"San Fernando"},{"country":"TT","id":3573738,"coord":{"lat":10.28333,"lon":-61.466671},"name":"San Fernando"},{"country":"TT","id":3573890,"coord":{"lat":10.66617,"lon":-61.516571},"name":"Port-of-Spain"},{"country":"TT","id":3574194,"coord":{"lat":10.30618,"lon":-61.446709},"name":"Marabella"},{"country":"TT","id":3574810,"coord":{"lat":10.51667,"lon":-61.416672},"name":"Chaguanas"},{"country":"TT","id":3575051,"coord":{"lat":10.63333,"lon":-61.283329},"name":"Arima"},{"country":"TV","id":2110297,"coord":{"lat":-8.51719,"lon":179.144775},"name":"Tuvalu"},{"country":"TW","id":1670310,"coord":{"lat":23.966391,"lon":120.969521},"name":"Buli"},{"country":"TW","id":1671564,"coord":{"lat":23.83419,"lon":120.92704},"name":"Nantou"},{"country":"TW","id":1671566,"coord":{"lat":23.915661,"lon":120.663872},"name":"Nantou"},{"country":"TW","id":1670651,"coord":{"lat":23.57111,"lon":119.611382},"name":"Penghu"},{"country":"TW","id":1672228,"coord":{"lat":23.565399,"lon":119.586273},"name":"Ma-kung"},{"country":"TW","id":1672551,"coord":{"lat":23.746389,"lon":120.752502},"name":"Lugu"},{"country":"TW","id":1673820,"coord":{"lat":22.616261,"lon":120.313332},"name":"Kaohsiung"},{"country":"TW","id":1674197,"coord":{"lat":24.5425,"lon":121.633614},"name":"Yilan"},{"country":"TW","id":1674199,"coord":{"lat":24.757,"lon":121.752998},"name":"Yilan"},{"country":"TW","id":1674502,"coord":{"lat":23.78166,"lon":121.393333},"name":"Hualien"},{"country":"TW","id":1674504,"coord":{"lat":23.97694,"lon":121.604439},"name":"Hualian"},{"country":"TW","id":1675107,"coord":{"lat":24.67416,"lon":121.16111},"name":"Hsinchu"},{"country":"TW","id":1675151,"coord":{"lat":24.80361,"lon":120.968613},"name":"Hsinchu"},{"country":"TW","id":1676242,"coord":{"lat":22.004169,"lon":120.743889},"name":"Hengchun"},{"country":"TW","id":6724654,"coord":{"lat":25.114861,"lon":121.689873},"name":"Keelung"},{"country":"TW","id":1678228,"coord":{"lat":25.12825,"lon":121.741898},"name":"Keelung"},{"country":"TW","id":6696918,"coord":{"lat":24.993679,"lon":121.296959},"name":"Taoyuan City"},{"country":"TW","id":7601921,"coord":{"lat":23.95908,"lon":120.685158},"name":"Zhongxing New Village"},{"country":"TZ","id":150733,"coord":{"lat":-5.08333,"lon":39.799999},"name":"Pemba North Region"},{"country":"TZ","id":148842,"coord":{"lat":-5.05589,"lon":39.729382},"name":"Wete"},{"country":"TZ","id":150602,"coord":{"lat":-7,"lon":39},"name":"Pwani Region"},{"country":"TZ","id":149050,"coord":{"lat":-5.10361,"lon":30.391109},"name":"Uvinza"},{"country":"TZ","id":149155,"coord":{"lat":-3.36667,"lon":36.849998},"name":"Usa"},{"country":"TZ","id":149402,"coord":{"lat":-9.3,"lon":32.76667},"name":"Tunduma"},{"country":"TZ","id":149437,"coord":{"lat":-9.25,"lon":33.650002},"name":"Tukuyu"},{"country":"TZ","id":148728,"coord":{"lat":-6.25,"lon":39.466671},"name":"Zanzibar Central/South Region"},{"country":"TZ","id":150037,"coord":{"lat":-4.36667,"lon":34.200001},"name":"Shelui"},{"country":"TZ","id":150099,"coord":{"lat":-4.75,"lon":34.533329},"name":"Sepuka"},{"country":"TZ","id":150436,"coord":{"lat":-2.7175,"lon":30.6325},"name":"Rulenge"},{"country":"TZ","id":150453,"coord":{"lat":-8.7,"lon":34.383331},"name":"Rujewa"},{"country":"TZ","id":150634,"coord":{"lat":-5,"lon":34.73333},"name":"Puma"},{"country":"TZ","id":151678,"coord":{"lat":-6.75,"lon":38.116669},"name":"Ngerengere"},{"country":"TZ","id":151711,"coord":{"lat":-2.51222,"lon":30.65583},"name":"Ngara"},{"country":"TZ","id":152497,"coord":{"lat":-1.98333,"lon":32.916672},"name":"Muriti"},{"country":"TZ","id":152546,"coord":{"lat":-4.96667,"lon":34.883331},"name":"Mungaa"},{"country":"TZ","id":152632,"coord":{"lat":-5.16667,"lon":38.783329},"name":"Muheza"},{"country":"TZ","id":152663,"coord":{"lat":-1.85,"lon":34.700001},"name":"Mugumu"},{"country":"TZ","id":152718,"coord":{"lat":-9.01667,"lon":34.799999},"name":"Mtwango"},{"country":"TZ","id":152743,"coord":{"lat":-3.35,"lon":35.849998},"name":"Mto wa Mbu"},{"country":"TZ","id":152781,"coord":{"lat":-4.55,"lon":34.849998},"name":"Mtinko"},{"country":"TZ","id":152933,"coord":{"lat":-6.53333,"lon":37.200001},"name":"Msowero"},{"country":"TZ","id":153094,"coord":{"lat":-6.35,"lon":36.48333},"name":"Mpwapwa"},{"country":"TZ","id":153176,"coord":{"lat":-6.36546,"lon":31.040911},"name":"Mpanda"},{"country":"TZ","id":153209,"coord":{"lat":-3.35,"lon":37.333328},"name":"Moshi"},{"country":"TZ","id":153352,"coord":{"lat":-9,"lon":32.98333},"name":"Mlowo"},{"country":"TZ","id":153384,"coord":{"lat":-8.8,"lon":35.816669},"name":"Mlimba"},{"country":"TZ","id":153412,"coord":{"lat":-6.7,"lon":38.73333},"name":"Mlandizi"},{"country":"TZ","id":153423,"coord":{"lat":-4.93333,"lon":38.933331},"name":"Mlalo"},{"country":"TZ","id":153482,"coord":{"lat":-7.11799,"lon":39.207821},"name":"Mkuranga"},{"country":"TZ","id":153709,"coord":{"lat":-4.83,"lon":29.65806},"name":"Mwandiga"},{"country":"TZ","id":153759,"coord":{"lat":-2.85,"lon":33.083328},"name":"Missungwi"},{"country":"TZ","id":153871,"coord":{"lat":-7.40409,"lon":36.983089},"name":"Mikumi"},{"country":"TZ","id":154002,"coord":{"lat":-3.28333,"lon":32.849998},"name":"Mhango"},{"country":"TZ","id":154097,"coord":{"lat":-5.95,"lon":34.133331},"name":"Mgandu"},{"country":"TZ","id":154321,"coord":{"lat":-3.56667,"lon":36.950001},"name":"Mbuguni"},{"country":"TZ","id":154470,"coord":{"lat":-4.8,"lon":38.216671},"name":"Mazinde"},{"country":"TZ","id":154566,"coord":{"lat":-4.8,"lon":38.25},"name":"Matui"},{"country":"TZ","id":154638,"coord":{"lat":-8.3,"lon":31.51667},"name":"Matai"},{"country":"TZ","id":154648,"coord":{"lat":-2.68333,"lon":33.98333},"name":"Maswa"},{"country":"TZ","id":154654,"coord":{"lat":-3.63333,"lon":32.183331},"name":"Masumbwe"},{"country":"TZ","id":154780,"coord":{"lat":-5.05,"lon":38.616669},"name":"Maramba"},{"country":"TZ","id":155016,"coord":{"lat":-8.93333,"lon":36.133331},"name":"Malinyi"},{"country":"TZ","id":155056,"coord":{"lat":-3.13333,"lon":33.533329},"name":"Malampaka"},{"country":"TZ","id":155076,"coord":{"lat":-4.73333,"lon":38.099998},"name":"Makuyuni"},{"country":"TZ","id":155101,"coord":{"lat":-8.85,"lon":34.833328},"name":"Makumbako"},{"country":"TZ","id":155285,"coord":{"lat":-9.93333,"lon":35.333328},"name":"Mahanje"},{"country":"TZ","id":155307,"coord":{"lat":-2.58333,"lon":33.349998},"name":"Magu Kahangara"},{"country":"TZ","id":155310,"coord":{"lat":-4.01667,"lon":35.76667},"name":"Magugu"},{"country":"TZ","id":155503,"coord":{"lat":-6.8,"lon":39.216671},"name":"Mabibe"},{"country":"TZ","id":155321,"coord":{"lat":-6.8,"lon":39.25},"name":"Magomeni"},{"country":"TZ","id":155405,"coord":{"lat":-7.25,"lon":35.066669},"name":"Mafinga"},{"country":"TZ","id":155515,"coord":{"lat":-5.13333,"lon":32.533329},"name":"Mabama"},{"country":"TZ","id":155569,"coord":{"lat":-4.78333,"lon":38.283329},"name":"Lushoto"},{"country":"TZ","id":155743,"coord":{"lat":-6.45,"lon":38.333328},"name":"Lugoba"},{"country":"TZ","id":155921,"coord":{"lat":-9.76667,"lon":37.933331},"name":"Liwale"},{"country":"TZ","id":156025,"coord":{"lat":-3.78333,"lon":37.616669},"name":"Lembeni"},{"country":"TZ","id":156080,"coord":{"lat":-3.45,"lon":33.950001},"name":"Lalago"},{"country":"TZ","id":156098,"coord":{"lat":-8.56667,"lon":32.049999},"name":"Laela"},{"country":"TZ","id":156111,"coord":{"lat":-9.58333,"lon":33.849998},"name":"Kyela"},{"country":"TZ","id":156510,"coord":{"lat":-4.9,"lon":35.783329},"name":"Kondoa"},{"country":"TZ","id":156627,"coord":{"lat":-9.16667,"lon":33.533329},"name":"Kiwira"},{"country":"TZ","id":156963,"coord":{"lat":-3.61667,"lon":33.866669},"name":"Kishapu"},{"country":"TZ","id":156974,"coord":{"lat":-3.08333,"lon":34.150002},"name":"Kisesa"},{"country":"TZ","id":157107,"coord":{"lat":-7.41667,"lon":30.6},"name":"Kirando"},{"country":"TZ","id":157198,"coord":{"lat":-4.26667,"lon":34.366669},"name":"Kiomboi"},{"country":"TZ","id":157268,"coord":{"lat":-3.28333,"lon":36.98333},"name":"Kingori"},{"country":"TZ","id":157403,"coord":{"lat":-6.83333,"lon":36.98333},"name":"Kilosa"},{"country":"TZ","id":157826,"coord":{"lat":-7.60361,"lon":37.004379},"name":"Kidodi"},{"country":"TZ","id":157863,"coord":{"lat":-7.69916,"lon":36.957218},"name":"Kidatu"},{"country":"TZ","id":157960,"coord":{"lat":-3.58639,"lon":30.72028},"name":"Kibondo"},{"country":"TZ","id":157977,"coord":{"lat":-7.72178,"lon":38.937489},"name":"Kibiti"},{"country":"TZ","id":158016,"coord":{"lat":-2.15,"lon":33.450001},"name":"Kibara"},{"country":"TZ","id":158024,"coord":{"lat":-6.71667,"lon":36.366669},"name":"Kibakwe"},{"country":"TZ","id":158027,"coord":{"lat":-6.76667,"lon":38.916672},"name":"Kibaha"},{"country":"TZ","id":158151,"coord":{"lat":-9.23333,"lon":33.616669},"name":"Katumba"},{"country":"TZ","id":158160,"coord":{"lat":-3.02028,"lon":31.89583},"name":"Katoro"},{"country":"TZ","id":158179,"coord":{"lat":-1.4,"lon":31.73333},"name":"Katerero"},{"country":"TZ","id":158214,"coord":{"lat":-4.57667,"lon":30.102501},"name":"Kasulu"},{"country":"TZ","id":158289,"coord":{"lat":-2.85,"lon":32.433331},"name":"Kasamwa"},{"country":"TZ","id":158324,"coord":{"lat":-3.33333,"lon":35.666672},"name":"Karatu"},{"country":"TZ","id":158492,"coord":{"lat":-1.61861,"lon":31.620001},"name":"Kamachumu"},{"country":"TZ","id":158563,"coord":{"lat":-3.28278,"lon":30.96417},"name":"Kakonko"},{"country":"TZ","id":158597,"coord":{"lat":-3.83333,"lon":32.599998},"name":"Kahama"},{"country":"TZ","id":158684,"coord":{"lat":-2.63861,"lon":30.467779},"name":"Kabanga"},{"country":"TZ","id":158825,"coord":{"lat":-7.2,"lon":35.73333},"name":"Izazi"},{"country":"TZ","id":158904,"coord":{"lat":-5.7,"lon":34.48333},"name":"Itigi"},{"country":"TZ","id":159045,"coord":{"lat":-3.9,"lon":32.933331},"name":"Isaka"},{"country":"TZ","id":159107,"coord":{"lat":-9.48333,"lon":33.900002},"name":"Ipinda"},{"country":"TZ","id":159179,"coord":{"lat":-7.6766,"lon":36.036579},"name":"Ilula"},{"country":"TZ","id":159186,"coord":{"lat":-4.66667,"lon":34.866669},"name":"Ilongero"},{"country":"TZ","id":159218,"coord":{"lat":-8.9,"lon":34.583328},"name":"Ilembula"},{"country":"TZ","id":159267,"coord":{"lat":-5.13333,"lon":34.76667},"name":"Ikungi"},{"country":"TZ","id":159380,"coord":{"lat":-8.85,"lon":33.849998},"name":"Igurusi"},{"country":"TZ","id":159386,"coord":{"lat":-4.28333,"lon":33.883331},"name":"Igunga"},{"country":"TZ","id":159398,"coord":{"lat":-4.56667,"lon":34.633331},"name":"Igugunu"},{"country":"TZ","id":159492,"coord":{"lat":-8.13333,"lon":36.683331},"name":"Ifakara"},{"country":"TZ","id":159647,"coord":{"lat":-4.5,"lon":37.900002},"name":"Hedaru"},{"country":"TZ","id":159909,"coord":{"lat":-6.15,"lon":36.866669},"name":"Geiro"},{"country":"TZ","id":159951,"coord":{"lat":-4.26667,"lon":35.849998},"name":"Galappo"},{"country":"TZ","id":160172,"coord":{"lat":-4.06667,"lon":35.383331},"name":"Dongobesh"},{"country":"TZ","id":160266,"coord":{"lat":-4.21667,"lon":35.549999},"name":"Dareda"},{"country":"TZ","id":160464,"coord":{"lat":-8.85,"lon":34.01667},"name":"Chimala"},{"country":"TZ","id":160552,"coord":{"lat":-2.63778,"lon":31.766939},"name":"Chato"},{"country":"TZ","id":160592,"coord":{"lat":-5.41667,"lon":38.01667},"name":"Chanika"},{"country":"TZ","id":160660,"coord":{"lat":-6.63784,"lon":38.353958},"name":"Chalinze"},{"country":"TZ","id":160670,"coord":{"lat":-7.58333,"lon":31.26667},"name":"Chala"},{"country":"TZ","id":160677,"coord":{"lat":-5.24586,"lon":39.76659},"name":"Chake Chake"},{"country":"TZ","id":160798,"coord":{"lat":-1.76667,"lon":33.966671},"name":"Butiama"},{"country":"TZ","id":160833,"coord":{"lat":-3.02361,"lon":31.87472},"name":"Buseresere"},{"country":"TZ","id":160877,"coord":{"lat":-7.63369,"lon":39.058182},"name":"Bungu"},{"country":"TZ","id":160892,"coord":{"lat":-2.05,"lon":33.866669},"name":"Bunda"},{"country":"TZ","id":161023,"coord":{"lat":-2.87056,"lon":30.528061},"name":"Bugarama"},{"country":"TZ","id":161154,"coord":{"lat":-2.63194,"lon":31.308889},"name":"Biharamulo"},{"country":"TZ","id":161197,"coord":{"lat":-4.36667,"lon":35.083328},"name":"Basotu"},{"country":"TZ","id":161204,"coord":{"lat":-4.23333,"lon":35.416672},"name":"Bashanet"},{"country":"TZ","id":161218,"coord":{"lat":-2.8,"lon":33.98333},"name":"Bariadi"},{"country":"TZ","id":161290,"coord":{"lat":-6.43333,"lon":38.900002},"name":"Bagamoyo"},{"country":"TZ","id":161312,"coord":{"lat":-4.21667,"lon":35.75},"name":"Babati"},{"country":"TZ","id":877391,"coord":{"lat":-10.75,"lon":39.633331},"name":"Tandahimba"},{"country":"TZ","id":877401,"coord":{"lat":-10.68333,"lon":35.650002},"name":"Songea"},{"country":"TZ","id":877471,"coord":{"lat":-10.33333,"lon":39.283329},"name":"Nyangao"},{"country":"TZ","id":877532,"coord":{"lat":-10.95,"lon":39.283329},"name":"Newala Kisimani"},{"country":"TZ","id":877581,"coord":{"lat":-10.68333,"lon":39.833328},"name":"Nanyamba"},{"country":"TZ","id":877597,"coord":{"lat":-10.9,"lon":38.5},"name":"Nangomba"},{"country":"TZ","id":877605,"coord":{"lat":-10.38333,"lon":39.150002},"name":"Nanganga"},{"country":"TZ","id":877998,"coord":{"lat":-10.93333,"lon":35.01667},"name":"Mbinga"},{"country":"TZ","id":878041,"coord":{"lat":-10.75,"lon":34.900002},"name":"Matiri"},{"country":"TZ","id":878058,"coord":{"lat":-10.71667,"lon":38.799999},"name":"Masasi"},{"country":"TZ","id":878073,"coord":{"lat":-10.58333,"lon":35.400002},"name":"Maposeni"},{"country":"TZ","id":878195,"coord":{"lat":-10.56667,"lon":38.799999},"name":"Lukuledi"},{"country":"TZ","id":878223,"coord":{"lat":-10.9,"lon":39.333328},"name":"Luchingu"},{"country":"TZ","id":878281,"coord":{"lat":-10,"lon":39.716671},"name":"Lindi"},{"country":"TZ","id":878367,"coord":{"lat":-10.71667,"lon":39.73333},"name":"Kitama"},{"country":"TZ","id":878400,"coord":{"lat":-10.8,"lon":35.049999},"name":"Kigonsera"},{"country":"TZ","id":6640202,"coord":{"lat":-3.56182,"lon":36.978951},"name":"Merelani"},{"country":"UA","id":686803,"coord":{"lat":49.078659,"lon":30.967541},"name":"Zvenyhorodka"},