[{"country":"RU","id":510771,"coord":{"lat":52.333328,"lon":36.333328},"name":"Pervoye Maya"},{"country":"RU","id":506598,"coord":{"lat":52.318611,"lon":36.30389},"name":"Ponyri"},{"country":"RU","id":559648,"coord":{"lat":52.26667,"lon":36.23333},"name":"Gorodishche"},{"country":"RU","id":571497,"coord":{"lat":52.224442,"lon":36.32},"name":"Brusovoye"},{"country":"RU","id":475405,"coord":{"lat":52.23333,"lon":36.316669},"name":"Verkhneye Brusovoye"},{"country":"RU","id":471141,"coord":{"lat":52.184719,"lon":36.279999},"name":"Vozy"},{"country":"RU","id":528523,"coord":{"lat":52.163891,"lon":36.255001},"name":"Matveyevka"},{"country":"RU","id":526972,"coord":{"lat":52.14278,"lon":36.272781},"name":"Mikhaylovka"},{"country":"RU","id":462169,"coord":{"lat":52.084171,"lon":36.37722},"name":"Zolotukhino"},{"country":"RU","id":502016,"coord":{"lat":52.057781,"lon":36.362782},"name":"Reutovo"},{"country":"RU","id":565286,"coord":{"lat":52.03611,"lon":36.368889},"name":"Donskoye"},{"country":"RU","id":810002,"coord":{"lat":51.979172,"lon":36.391109},"name":"Koz\u2019minka"},{"country":"RU","id":571335,"coord":{"lat":51.950001,"lon":36.377499},"name":"Budanovka"},{"country":"RU","id":538734,"coord":{"lat":51.867222,"lon":36.267502},"name":"Kurkino"},{"country":"RU","id":571084,"coord":{"lat":51.856392,"lon":36.272781},"name":"Bukreyevka"},{"country":"RU","id":553292,"coord":{"lat":51.817501,"lon":36.26944},"name":"Kamyshi"},{"country":"RU","id":495230,"coord":{"lat":51.80806,"lon":36.231941},"name":"Shchetinka"},{"country":"RU","id":506478,"coord":{"lat":51.76667,"lon":36.200001},"name":"Popovka"},{"country":"RU","id":538560,"coord":{"lat":51.730282,"lon":36.19389},"name":"Kursk"},{"country":"RU","id":809160,"coord":{"lat":50.760559,"lon":36.61718},"name":"Druzhnyy"},{"country":"RU","id":808190,"coord":{"lat":50.74049,"lon":36.611328},"name":"Kalinin"},{"country":"RU","id":577929,"coord":{"lat":50.678341,"lon":36.639389},"name":"Belomestnoye"},{"country":"RU","id":808177,"coord":{"lat":50.656391,"lon":36.558891},"name":"Oskochnoye"},{"country":"RU","id":463913,"coord":{"lat":50.635799,"lon":36.63554},"name":"Zel\u00ebnaya Polyana"},{"country":"RU","id":578072,"coord":{"lat":50.610001,"lon":36.580002},"name":"Belgorod"},{"country":"RU","id":507492,"coord":{"lat":50.616669,"lon":36.616669},"name":"Pokrovka"},{"country":"RU","id":527009,"coord":{"lat":50.585289,"lon":36.619579},"name":"Mikhaylovka"},{"country":"RU","id":565714,"coord":{"lat":50.51643,"lon":36.40509},"name":"Dolbino"},{"country":"RU","id":474144,"coord":{"lat":50.494019,"lon":36.389568},"name":"Ves\u00eblaya Lopan\u2019"},{"country":"RU","id":807283,"coord":{"lat":50.470131,"lon":36.367161},"name":"Vodyanoy"},{"country":"RU","id":515907,"coord":{"lat":50.43766,"lon":36.356731},"name":"Oktyabr\u2019skiy"},{"country":"RU","id":513888,"coord":{"lat":50.405472,"lon":36.316269},"name":"Otradnyy"},{"country":"RU","id":6730271,"coord":{"lat":50.393349,"lon":36.324402},"name":"-"},{"country":"UA","id":6725648,"coord":{"lat":50.36552,"lon":36.212448},"name":"Shevchenka"},{"country":"UA","id":706587,"coord":{"lat":50.339199,"lon":36.187229},"name":"Kozacha Lopan\u2019"},{"country":"UA","id":6725459,"coord":{"lat":50.302448,"lon":36.171322},"name":"Il\u2019icha"},{"country":"UA","id":693598,"coord":{"lat":50.224171,"lon":36.160831},"name":"Slatino"},{"country":"UA","id":688696,"coord":{"lat":49.89056,"lon":36.119999},"name":"Vysokyy"},{"country":"UA","id":697135,"coord":{"lat":49.88139,"lon":36.07},"name":"Pivdenne"},{"country":"UA","id":705240,"coord":{"lat":49.866669,"lon":36.066669},"name":"Komarovka"},{"country":"UA","id":713178,"coord":{"lat":49.840561,"lon":36.041672},"name":"Artemovka"},{"country":"UA","id":701347,"coord":{"lat":49.819721,"lon":36.051941},"name":"Merefa"},{"country":"UA","id":812877,"coord":{"lat":49.778889,"lon":36.025558},"name":"Krasnyy Oktyabr\u2019"},{"country":"UA","id":706748,"coord":{"lat":49.76667,"lon":35.933331},"name":"Karlovka"},{"country":"UA","id":812881,"coord":{"lat":49.760281,"lon":36.02528},"name":"Kislovskiy"},{"country":"UA","id":808864,"coord":{"lat":49.243061,"lon":36.509441},"name":"Vasil\u2019yevo-Grigor\u2019yevskiy"},{"country":"UA","id":699406,"coord":{"lat":49.33028,"lon":36.275002},"name":"Novo-Nikolayevka"},{"country":"UA","id":695570,"coord":{"lat":49.293331,"lon":36.284721},"name":"Rodomyslovka"},{"country":"UA","id":809657,"coord":{"lat":49.264439,"lon":36.316391},"name":"Kooperatorka"},{"country":"UA","id":687835,"coord":{"lat":49.207218,"lon":36.310001},"name":"Zakutnevka"},{"country":"UA","id":688170,"coord":{"lat":49.186111,"lon":36.345829},"name":"Yelizavetovka"},{"country":"UA","id":704363,"coord":{"lat":49.137218,"lon":36.327221},"name":"Krasnopavlivka"},{"country":"UA","id":808926,"coord":{"lat":49.107498,"lon":36.346939},"name":"Privol\u2019ye"},{"country":"UA","id":808841,"coord":{"lat":49.084438,"lon":36.340832},"name":"Novo Ivanovka"},{"country":"UA","id":808832,"coord":{"lat":49.061668,"lon":36.323059},"name":"Otdokhnina"},{"country":"UA","id":710600,"coord":{"lat":49.033329,"lon":36.299999},"name":"Chervona-Shakhtarka"},{"country":"UA","id":808829,"coord":{"lat":49.00639,"lon":36.285278},"name":"Kostyanka"},{"country":"UA","id":696628,"coord":{"lat":48.98333,"lon":36.26667},"name":"Poltavskoye"},{"country":"UA","id":698003,"coord":{"lat":48.933331,"lon":36.283329},"name":"Panyutyne"},{"country":"UA","id":700272,"coord":{"lat":48.849998,"lon":36.25},"name":"Nestileyevka"},{"country":"UA","id":699718,"coord":{"lat":48.799999,"lon":36.200001},"name":"Novo-Aleksandrovka"},{"country":"UA","id":701196,"coord":{"lat":48.799999,"lon":36.150002},"name":"Mikhaylovka"},{"country":"UA","id":699562,"coord":{"lat":48.73333,"lon":36.116669},"name":"Novo-Grigor\u2019yevka"},{"country":"UA","id":688022,"coord":{"lat":48.73333,"lon":36.033329},"name":"Yur\u201dyivka"},{"country":"UA","id":690454,"coord":{"lat":48.716671,"lon":36},"name":"Varvarovka"},{"country":"UA","id":689985,"coord":{"lat":48.683331,"lon":35.933331},"name":"Verbovatovka"},{"country":"UA","id":699967,"coord":{"lat":48.666672,"lon":35.916672},"name":"Nizhnyanka"},{"country":"UA","id":700754,"coord":{"lat":48.650002,"lon":35.916672},"name":"Morozovskiy"},{"country":"UA","id":689997,"coord":{"lat":48.583328,"lon":35.900002},"name":"Verbki"},{"country":"UA","id":690367,"coord":{"lat":48.033329,"lon":35.5},"name":"Vasil\u2019yevka"},{"country":"UA","id":687363,"coord":{"lat":47.966671,"lon":35.5},"name":"Zel\u00ebnyy"},{"country":"UA","id":700201,"coord":{"lat":47.916672,"lon":35.366669},"name":"Nikiforovskiy"},{"country":"UA","id":690777,"coord":{"lat":47.916672,"lon":35.349998},"name":"Ukrainka"},{"country":"UA","id":707356,"coord":{"lat":47.883331,"lon":35.366669},"name":"Ivanovskiy"},{"country":"UA","id":687700,"coord":{"lat":47.816669,"lon":35.183331},"name":"Zaporizhzhya"},{"country":"UA","id":702072,"coord":{"lat":47.6525,"lon":35.253891},"name":"Malokaterynivka"},{"country":"UA","id":696278,"coord":{"lat":47.617779,"lon":35.285},"name":"Prymors\u2019ke"},{"country":"UA","id":712615,"coord":{"lat":47.583328,"lon":35.299999},"name":"Belitskiy"},{"country":"UA","id":689845,"coord":{"lat":47.491669,"lon":35.279999},"name":"Verkhnya Krynytsya"},{"country":"UA","id":690380,"coord":{"lat":47.433331,"lon":35.299999},"name":"Vasil\u2019yevka"},{"country":"UA","id":711165,"coord":{"lat":47.383331,"lon":35.299999},"name":"Burchak"},{"country":"UA","id":698410,"coord":{"lat":47.333328,"lon":35.316669},"name":"Orekhovskiy"},{"country":"UA","id":689482,"coord":{"lat":47.299999,"lon":35.333328},"name":"Vishn\u00ebvyy"},{"country":"UA","id":696262,"coord":{"lat":47.260281,"lon":35.322781},"name":"Pryshyb"},{"country":"UA","id":699606,"coord":{"lat":47.083328,"lon":35.316669},"name":"Novof\u00ebdorovka"},{"country":"UA","id":710324,"coord":{"lat":46.950001,"lon":35.283329},"name":"Dal\u00ebkiy"},{"country":"UA","id":705214,"coord":{"lat":46.916672,"lon":35.316669},"name":"Kommercheskiy"},{"country":"UA","id":707592,"coord":{"lat":46.77861,"lon":35.207218},"name":"Dolyns\u2019ke"},{"country":"UA","id":707800,"coord":{"lat":46.75,"lon":35.200001},"name":"Gutertal\u2019"},{"country":"UA","id":689416,"coord":{"lat":46.655281,"lon":35.151669},"name":"Volodymyrivka"},{"country":"UA","id":692035,"coord":{"lat":46.599998,"lon":35.049999},"name":"Svobodnaya Zhizn\u2019"},{"country":"UA","id":694568,"coord":{"lat":46.583328,"lon":35.066669},"name":"Semikhatka"},{"country":"UA","id":7048363,"coord":{"lat":46.54496,"lon":34.994579},"name":"Druzhba"},{"country":"UA","id":697244,"coord":{"lat":46.533329,"lon":35},"name":"Pikalovka"},{"country":"UA","id":690029,"coord":{"lat":46.507191,"lon":34.960609},"name":"Rozivka"},{"country":"UA","id":693269,"coord":{"lat":46.498131,"lon":34.942539},"name":"Sokolohirne"},{"country":"UA","id":7048362,"coord":{"lat":46.478409,"lon":34.93766},"name":"Novoyefremivka"},{"country":"UA","id":7046810,"coord":{"lat":46.372169,"lon":34.785191},"name":"Kommunarskoye"},{"country":"UA","id":7046809,"coord":{"lat":46.360168,"lon":34.757729},"name":"Rivne"},{"country":"UA","id":7046808,"coord":{"lat":46.286369,"lon":34.741928},"name":"Moskalenka"},{"country":"UA","id":709865,"coord":{"lat":46.283329,"lon":34.683331},"name":"Dobroye Utro"},{"country":"UA","id":7032306,"coord":{"lat":46.256531,"lon":34.68531},"name":"Shchorsivka"},{"country":"UA","id":7046678,"coord":{"lat":46.175251,"lon":34.606331},"name":"Sal\u2019kove"},{"country":"UA","id":700177,"coord":{"lat":46.107071,"lon":34.606361},"name":"Mykolayivka"},{"country":"UA","id":7046679,"coord":{"lat":46.083031,"lon":34.575668},"name":"Krasne Znam\u201dya"},{"country":"UA","id":7046674,"coord":{"lat":46.07766,"lon":34.551159},"name":"Novyy Trud"},{"country":"UA","id":7031339,"coord":{"lat":46.032261,"lon":34.539871},"name":"Chonhar"},{"country":"UA","id":693226,"coord":{"lat":45.888481,"lon":34.447819},"name":"Solone Ozero"},{"country":"UA","id":705053,"coord":{"lat":45.85004,"lon":34.462528},"name":"Kopani"},{"country":"UA","id":692505,"coord":{"lat":45.826759,"lon":34.467331},"name":"Stovpove"},{"country":"UA","id":701922,"coord":{"lat":45.79575,"lon":34.428249},"name":"Mamut"},{"country":"UA","id":7021061,"coord":{"lat":45.791241,"lon":34.419579},"name":"Vitvyste"},{"country":"UA","id":691842,"coord":{"lat":45.769058,"lon":34.421612},"name":"Ostrovs\u2019ke"},{"country":"UA","id":7021003,"coord":{"lat":45.737942,"lon":34.410198},"name":"Izumrudne"},{"country":"UA","id":7020274,"coord":{"lat":45.674541,"lon":34.368149},"name":"Kostyantynivka"},{"country":"UA","id":7020273,"coord":{"lat":45.659939,"lon":34.360882},"name":"Tymofiyivka"},{"country":"UA","id":712053,"coord":{"lat":45.640099,"lon":34.377159},"name":"Blyzhn\u2019ohorods\u2019ke"},{"country":"UA","id":706811,"coord":{"lat":45.627071,"lon":34.332851},"name":"Arbuzivka"},{"country":"UA","id":7019908,"coord":{"lat":45.606522,"lon":34.33712},"name":"Vidradne"},{"country":"UA","id":689738,"coord":{"lat":45.593929,"lon":34.318588},"name":"Vesele"},{"country":"UA","id":7019906,"coord":{"lat":45.568619,"lon":34.32132},"name":"Dibrivka"},{"country":"UA","id":704253,"coord":{"lat":45.549999,"lon":34.299999},"name":"Krasnoye Znamya"},{"country":"UA","id":691160,"coord":{"lat":45.538559,"lon":34.30534},"name":"Pushkine"},{"country":"UA","id":7019513,"coord":{"lat":45.521919,"lon":34.298809},"name":"Blyzhnye"},{"country":"UA","id":704381,"coord":{"lat":45.501621,"lon":34.30024},"name":"Krasnohvardiys\u2019ke"},{"country":"UA","id":710297,"coord":{"lat":45.48333,"lon":34.299999},"name":"Danilovka"},{"country":"UA","id":701862,"coord":{"lat":45.453239,"lon":34.292511},"name":"Mare"},{"country":"UA","id":7018912,"coord":{"lat":45.433819,"lon":34.222069},"name":"Yantarne"},{"country":"UA","id":7018274,"coord":{"lat":45.406109,"lon":34.20821},"name":"Krasnyy Partyzan"},{"country":"UA","id":711681,"coord":{"lat":45.400002,"lon":34.200001},"name":"Borangar"},{"country":"UA","id":712987,"coord":{"lat":45.366669,"lon":34.183331},"name":"Baglikovo"},{"country":"UA","id":7018275,"coord":{"lat":45.351109,"lon":34.18388},"name":"Poltavka"},{"country":"UA","id":691064,"coord":{"lat":45.31181,"lon":34.165859},"name":"Tsvitkove"},{"country":"UA","id":713505,"coord":{"lat":45.290138,"lon":34.14159},"name":"Amurs\u2019ke"},{"country":"UA","id":698652,"coord":{"lat":45.292839,"lon":34.126678},"name":"Oktyabrs\u2019ke"},{"country":"UA","id":713724,"coord":{"lat":45.26667,"lon":34.133331},"name":"Alabash Konrat"},{"country":"UA","id":6981130,"coord":{"lat":45.21973,"lon":34.075611},"name":"Novoandriyivka"},{"country":"UA","id":6981123,"coord":{"lat":45.20155,"lon":34.047321},"name":"Shyroke"},{"country":"UA","id":709344,"coord":{"lat":45.183331,"lon":34.083328},"name":"Dzhaga-Mamysh"},{"country":"UA","id":704431,"coord":{"lat":45.135479,"lon":34.037819},"name":"Krasna Zor\u2019ka"},{"country":"UA","id":707777,"coord":{"lat":45.120861,"lon":34.018452},"name":"Hvardiys\u2019ke"},{"country":"UA","id":693342,"coord":{"lat":45.097092,"lon":34.001209},"name":"Sofiyivka"},{"country":"UA","id":6980613,"coord":{"lat":45.076889,"lon":34.002399},"name":"Malen\u2019ke"},{"country":"UA","id":698873,"coord":{"lat":45.049999,"lon":34.033329},"name":"Novyy Sarabuz"},{"country":"UA","id":6976172,"coord":{"lat":45.019669,"lon":34.016312},"name":"Komsomols\u2019ke"},{"country":"UA","id":700835,"coord":{"lat":45.00428,"lon":34.05006},"name":"Molodizhne"},{"country":"UA","id":707240,"coord":{"lat":44.98333,"lon":34.066669},"name":"Kakhovskoye"},{"country":"UA","id":690788,"coord":{"lat":44.96072,"lon":34.063461},"name":"Ukrayinka"},{"country":"UA","id":6974770,"coord":{"lat":44.91288,"lon":34.033039},"name":"Molochne"},{"country":"UA","id":710454,"coord":{"lat":44.882568,"lon":34.038979},"name":"Chysten\u2019ke"},{"country":"UA","id":6974516,"coord":{"lat":44.850368,"lon":34.00095},"name":"Pryyatne Svidannya"},{"country":"UA","id":7040002,"coord":{"lat":44.841999,"lon":33.995129},"name":"Topoli"},{"country":"UA","id":696999,"coord":{"lat":44.831108,"lon":33.95446},"name":"Poshtove"},{"country":"UA","id":7040016,"coord":{"lat":44.824558,"lon":33.922482},"name":"Samokhvalove"},{"country":"UA","id":7040021,"coord":{"lat":44.801441,"lon":33.868141},"name":"Aromatne"},{"country":"UA","id":688826,"coord":{"lat":44.849998,"lon":33.650002},"name":"Vulino"},{"country":"UA","id":704416,"coord":{"lat":44.849998,"lon":33.683331},"name":"Krasnoarmeyskoye"},{"country":"UA","id":698157,"coord":{"lat":44.859341,"lon":33.730942},"name":"Vidradne"},{"country":"UA","id":7040014,"coord":{"lat":44.83709,"lon":33.750011},"name":"Kocherhine"},{"country":"UA","id":698166,"coord":{"lat":44.833328,"lon":33.76667},"name":"Otesh-Eli"},{"country":"UA","id":700490,"coord":{"lat":44.799999,"lon":33.799999},"name":"Nagornoye"},{"country":"UA","id":7040022,"coord":{"lat":44.795849,"lon":33.81052},"name":"Malovydne"},{"country":"UA","id":7040139,"coord":{"lat":44.71629,"lon":33.802689},"name":"Zaliznychne"},{"country":"UA","id":7021078,"coord":{"lat":44.63913,"lon":33.840729},"name":"Male Sadove"},{"country":"UA","id":7021112,"coord":{"lat":44.598068,"lon":33.911209},"name":"Nyzhnya Holubynka"},{"country":"UA","id":7040140,"coord":{"lat":44.68391,"lon":33.725811},"name":"Pyrohivka"},{"country":"UA","id":689905,"coord":{"lat":44.689701,"lon":33.699791},"name":"Verkhn\u2019osadove"},{"country":"UA","id":7040142,"coord":{"lat":44.700291,"lon":33.689098},"name":"Semarenka"},{"country":"UA","id":709083,"coord":{"lat":44.68045,"lon":33.599689},"name":"Fruktove"},{"country":"RU","id":6417490,"coord":{"lat":55.54306,"lon":37.601391},"name":"Lesparkkhoz"},{"country":"RU","id":570578,"coord":{"lat":55.548328,"lon":37.57972},"name":"Butovo"},{"country":"RU","id":6416478,"coord":{"lat":55.326939,"lon":37.496391},"name":"Bol\u2019shoye Tolbino"},{"country":"RU","id":533008,"coord":{"lat":55.314171,"lon":37.515831},"name":"Lvovskiy"},{"country":"RU","id":533787,"coord":{"lat":55.092499,"lon":37.488892},"name":"Luch"},{"country":"UA","id":697889,"coord":{"lat":48.51667,"lon":35.866669},"name":"Pavlohrad"},{"country":"UA","id":7046438,"coord":{"lat":46.01931,"lon":34.512772},"name":"Zaliznychne"},{"country":"UA","id":7021138,"coord":{"lat":44.577511,"lon":33.940498},"name":"Aromat"},{"country":"RU","id":521488,"coord":{"lat":55.798328,"lon":37.203609},"name":"Nikolo-Uryupino"},{"country":"BY","id":628175,"coord":{"lat":53.316669,"lon":26},"name":"Haradzishcha"},{"country":"BY","id":627260,"coord":{"lat":53.333328,"lon":25.98333},"name":"Kiseli"},{"country":"BY","id":7003109,"coord":{"lat":53.35857,"lon":25.9762},"name":"Zyalyonaya"},{"country":"BY","id":628706,"coord":{"lat":53.366669,"lon":25.950001},"name":"Dushkovtsy"},{"country":"BY","id":623208,"coord":{"lat":53.416672,"lon":25.9},"name":"Porech\u2019ye"},{"country":"BY","id":620451,"coord":{"lat":53.466671,"lon":25.9},"name":"Valyewka"},{"country":"BY","id":625125,"coord":{"lat":53.450001,"lon":25.950001},"name":"Miratsichy"},{"country":"BY","id":621858,"coord":{"lat":53.466671,"lon":25.98333},"name":"Skrysh\u00ebvo"},{"country":"BY","id":622811,"coord":{"lat":53.466671,"lon":26.033331},"name":"Raytsa"},{"country":"BY","id":625495,"coord":{"lat":53.48333,"lon":26.066669},"name":"Malyushychy"},{"country":"BY","id":622228,"coord":{"lat":53.5,"lon":26.133329},"name":"Servech"},{"country":"BY","id":623268,"coord":{"lat":53.533329,"lon":26.116671},"name":"Paluzhzha"},{"country":"RU","id":486697,"coord":{"lat":52.966671,"lon":36.01667},"name":"Sukhaya Orlitsa"},{"country":"RU","id":487266,"coord":{"lat":52.966671,"lon":36.033329},"name":"Streletskiy"},{"country":"RU","id":477969,"coord":{"lat":52.900002,"lon":36.033329},"name":"Ust\u2019-Rybnitsa"},{"country":"RU","id":531680,"coord":{"lat":52.900002,"lon":36.01667},"name":"Malaya Gat'"},{"country":"RU","id":582388,"coord":{"lat":52.869999,"lon":35.970001},"name":"Al\u2019shanskiy"},{"country":"RU","id":582387,"coord":{"lat":52.849998,"lon":35.900002},"name":"Al\u2019shanskiye Vyselki"},{"country":"RU","id":489798,"coord":{"lat":52.821671,"lon":35.85611},"name":"Spasskoye"},{"country":"RU","id":469602,"coord":{"lat":52.8325,"lon":35.846939},"name":"Yakovka"},{"country":"RU","id":817870,"coord":{"lat":52.839439,"lon":35.7925},"name":"Pikalovka"},{"country":"RU","id":497990,"coord":{"lat":52.82806,"lon":35.755001},"name":"Sebyakino"},{"country":"RU","id":499002,"coord":{"lat":52.782501,"lon":35.744171},"name":"Samokhvalovo"},{"country":"RU","id":813707,"coord":{"lat":55.987782,"lon":34.903332},"name":"Staroye Ustinovo"},{"country":"RU","id":795310,"coord":{"lat":43.250561,"lon":42.570278},"name":"Itkol"},{"country":"RU","id":504338,"coord":{"lat":57.5,"lon":29},"name":"Pskovskaya Oblast\u2019"},{"country":"RU","id":561679,"coord":{"lat":58.740559,"lon":27.81222},"name":"Gdov"},{"country":"RU","id":529885,"coord":{"lat":54.900002,"lon":59.133331},"name":"Malyy Kyl"},{"country":"RU","id":479844,"coord":{"lat":54.610001,"lon":58.770561},"name":"Tyulyuk"},{"country":"CN","id":6929204,"coord":{"lat":32.723091,"lon":103.018677},"name":"Tanglong\u2019anma"},{"country":"RU","id":510347,"coord":{"lat":52.404999,"lon":49.958328},"name":"Pestravka"},{"country":"CY","id":146669,"coord":{"lat":35,"lon":33},"name":"Republic of Cyprus"},{"country":"KN","id":3575174,"coord":{"lat":17.33333,"lon":-62.75},"name":"Federation of Saint Kitts and Nevis"},{"country":"JP","id":2113124,"coord":{"lat":39.75251,"lon":140.40538},"name":"Akita-ken"},{"country":"JP","id":2130656,"coord":{"lat":40.7831,"lon":140.828278},"name":"Aomori-ken"},{"country":"JP","id":2129752,"coord":{"lat":40.736111,"lon":140.956116},"name":"Kamikitak\u014dzan"},{"country":"JP","id":1863640,"coord":{"lat":35.78091,"lon":137.053986},"name":"Gifu-ken"},{"country":"JP","id":1852775,"coord":{"lat":35.48333,"lon":136.916672},"name":"Sekimachi"},{"country":"JP","id":1863501,"coord":{"lat":36.507469,"lon":138.982346},"name":"Gunma-ken"},{"country":"JP","id":1858937,"coord":{"lat":36.349998,"lon":139.133331},"name":"Komagata"},{"country":"JP","id":1862413,"coord":{"lat":34.606731,"lon":132.785431},"name":"Hiroshima-ken"},{"country":"JP","id":6822110,"coord":{"lat":34.434841,"lon":132.740616},"name":"Higashi-Hiroshima"},{"country":"JP","id":1863983,"coord":{"lat":35.850101,"lon":136.225174},"name":"Fukui-ken"},{"country":"JP","id":1848200,"coord":{"lat":35.987041,"lon":136.172287},"name":"Yoshie"},{"country":"JP","id":1863958,"coord":{"lat":33.52813,"lon":130.664719},"name":"Fukuoka-ken"},{"country":"JP","id":1852915,"coord":{"lat":33.616669,"lon":130.533325},"name":"Sasaguri"},{"country":"JP","id":2112571,"coord":{"lat":36.183331,"lon":140.266663},"name":"Ishioka"},{"country":"JP","id":2112518,"coord":{"lat":39.596008,"lon":141.359711},"name":"Iwate-ken"},{"country":"JP","id":2111488,"coord":{"lat":39.466671,"lon":141.283325},"name":"\u014chasama"},{"country":"JP","id":1860834,"coord":{"lat":34.247169,"lon":133.994705},"name":"Kagawa-ken"},{"country":"JP","id":1860825,"coord":{"lat":31.032249,"lon":130.432922},"name":"Kagoshima-ken"},{"country":"JP","id":1852685,"coord":{"lat":31.41667,"lon":130.516663},"name":"Sesekushi"},{"country":"JP","id":1860291,"coord":{"lat":35.417461,"lon":139.338852},"name":"Kanagawa-ken"},{"country":"JP","id":1852427,"coord":{"lat":35.433331,"lon":139.516663},"name":"Shimbashich\u014d"},{"country":"JP","id":1857907,"coord":{"lat":35.254318,"lon":135.441177},"name":"Ky\u014dto-fu"},{"country":"JP","id":1852272,"coord":{"lat":35.099998,"lon":135.600006},"name":"Shimoku"},{"country":"JP","id":1859133,"coord":{"lat":33.428009,"lon":133.364014},"name":"K\u014dchi-ken"},{"country":"JP","id":1849168,"coord":{"lat":33.450001,"lon":133.449997},"name":"Usa"},{"country":"JP","id":1857352,"coord":{"lat":34.521229,"lon":136.382965},"name":"Mie-ken"},{"country":"JP","id":1849796,"coord":{"lat":34.730282,"lon":136.508606},"name":"Tsu-shi"},{"country":"JP","id":2111888,"coord":{"lat":38.449379,"lon":140.926239},"name":"Miyagi-ken"},{"country":"JP","id":2111277,"coord":{"lat":38.323608,"lon":140.974442},"name":"Rifu"},{"country":"JP","id":1856710,"coord":{"lat":32.198071,"lon":131.297623},"name":"Miyazaki-ken"},{"country":"JP","id":1853024,"coord":{"lat":32,"lon":131.350006},"name":"Sammy\u014d"},{"country":"JP","id":1856210,"coord":{"lat":36.13464,"lon":138.040771},"name":"Nagano-ken"},{"country":"JP","id":1851497,"coord":{"lat":36.26667,"lon":138.149994},"name":"Suguri"},{"country":"JP","id":1856156,"coord":{"lat":33.23344,"lon":129.611084},"name":"Nagasaki-ken"},{"country":"JP","id":1856531,"coord":{"lat":32.966671,"lon":129.800003},"name":"Motogoe"},{"country":"JP","id":1855608,"coord":{"lat":34.685249,"lon":135.832886},"name":"Nara-ken"},{"country":"JP","id":1863077,"coord":{"lat":34.566669,"lon":135.75},"name":"Hashio"},{"country":"JP","id":1855429,"coord":{"lat":37.52343,"lon":138.91748},"name":"Niigata-ken"},{"country":"JP","id":1861006,"coord":{"lat":37.616669,"lon":138.850006},"name":"Jiz\u014dd\u014d"},{"country":"JP","id":1854381,"coord":{"lat":34.902039,"lon":133.810181},"name":"Okayama-ken"},{"country":"JP","id":1861314,"coord":{"lat":34.666672,"lon":133.833328},"name":"Itakura"},{"country":"JP","id":1853299,"coord":{"lat":33.28904,"lon":130.114914},"name":"Saga-ken"},{"country":"JP","id":1854656,"coord":{"lat":33.287781,"lon":130.201111},"name":"Ogi"},{"country":"JP","id":1853226,"coord":{"lat":35.857208,"lon":139.649033},"name":"Saitama-ken"},{"country":"JP","id":1862539,"coord":{"lat":35.933331,"lon":139.550003},"name":"Hirakata"},{"country":"JP","id":1852553,"coord":{"lat":35.219391,"lon":136.13652},"name":"Shiga-ken"},{"country":"JP","id":1864237,"coord":{"lat":35.116669,"lon":136.050003},"name":"Egashira"},{"country":"JP","id":1852442,"coord":{"lat":35.076931,"lon":132.561111},"name":"Shimane-ken"},{"country":"JP","id":1852201,"coord":{"lat":35.216671,"lon":132.649994},"name":"Shimo-satsume"},{"country":"JP","id":1851715,"coord":{"lat":35.025219,"lon":138.325424},"name":"Shizuoka-ken"},{"country":"JP","id":1863218,"coord":{"lat":34.900002,"lon":138.333328},"name":"Hanazawa"},{"country":"JP","id":6419747,"coord":{"lat":35.633331,"lon":140.059998},"name":"Mihama"},{"country":"JP","id":6419751,"coord":{"lat":35.633331,"lon":140.083328},"name":"Inage"},{"country":"JP","id":1850157,"coord":{"lat":33.921761,"lon":134.236816},"name":"Tokushima-ken"},{"country":"JP","id":1861950,"coord":{"lat":34.033329,"lon":134.466675},"name":"Ichinomiya"},{"country":"JP","id":1849890,"coord":{"lat":35.367859,"lon":133.850815},"name":"Tottori-ken"},{"country":"JP","id":1848049,"coord":{"lat":35.48333,"lon":133.75},"name":"Yura"},{"country":"JP","id":1849872,"coord":{"lat":36.639259,"lon":137.265137},"name":"Toyama-ken"},{"country":"JP","id":1859363,"coord":{"lat":36.716671,"lon":137.166672},"name":"Kitadai"},{"country":"JP","id":1848938,"coord":{"lat":33.914581,"lon":135.511124},"name":"Wakayama-ken"},{"country":"JP","id":1861189,"coord":{"lat":34.049999,"lon":135.333328},"name":"Iwanogawa"},{"country":"JP","id":1854484,"coord":{"lat":33.19899,"lon":131.433533},"name":"\u014cita-ken"},{"country":"JP","id":1864750,"coord":{"lat":33.273609,"lon":131.491943},"name":"Beppu"},{"country":"JP","id":7303469,"coord":{"lat":34.665051,"lon":135.53009},"name":"tsuruhashi"},{"country":"MM","id":1327865,"coord":{"lat":22,"lon":98},"name":"Union of Burma"},{"country":"BA","id":3277605,"coord":{"lat":44.25,"lon":17.83333},"name":"Bosnia and Herzegovina"},{"country":"RU","id":2024809,"coord":{"lat":54.283329,"lon":101.599998},"name":"Dulepovo"},{"country":"RU","id":2023896,"coord":{"lat":54.299999,"lon":101.699997},"name":"Govorikha"},{"country":"RU","id":2020743,"coord":{"lat":54.23222,"lon":101.735001},"name":"Listvyanka"},{"country":"RU","id":2022650,"coord":{"lat":54.228889,"lon":101.866112},"name":"Kharch\u00ebv"},{"country":"RU","id":2022105,"coord":{"lat":54.13694,"lon":101.99472},"name":"Kimil\u2019tey"},{"country":"RU","id":2050832,"coord":{"lat":54.105,"lon":102.043098},"name":"Perevoz"},{"country":"RU","id":2016043,"coord":{"lat":54.083328,"lon":102.050003},"name":"Staryy Perevoz"},{"country":"RU","id":2018162,"coord":{"lat":54.046391,"lon":102.056938},"name":"Pakhar\u2019"},{"country":"RU","id":2013323,"coord":{"lat":54.033329,"lon":102.099998},"name":"Volokitina"},{"country":"RU","id":2017890,"coord":{"lat":54.002899,"lon":102.090698},"name":"Podgornaya"},{"country":"RU","id":2019799,"coord":{"lat":53.980499,"lon":102.086098},"name":"Mordino"},{"country":"RU","id":2014533,"coord":{"lat":53.951801,"lon":102.079903},"name":"Ukhtuy"},{"country":"RU","id":6903642,"coord":{"lat":53.9146,"lon":102.091499},"name":"Ostrov Bratskaya Protoka"},{"country":"RU","id":2019180,"coord":{"lat":53.901299,"lon":102.143799},"name":"Nizhnechirkina"},{"country":"RU","id":6903663,"coord":{"lat":53.876999,"lon":102.115501},"name":"Chirkino"},{"country":"RU","id":2024062,"coord":{"lat":53.862301,"lon":102.252403},"name":"Glinki"},{"country":"RU","id":6903666,"coord":{"lat":53.749901,"lon":102.242302},"name":"Delyur"},{"country":"RU","id":2014704,"coord":{"lat":53.721401,"lon":102.320702},"name":"Tyret\u2019 Vtoraya"},{"country":"RU","id":6903671,"coord":{"lat":53.680801,"lon":102.363602},"name":"Matagan"},{"country":"RU","id":2050891,"coord":{"lat":53.612782,"lon":102.409172},"name":"Khalyarty"},{"country":"RU","id":2050902,"coord":{"lat":53.559601,"lon":102.471199},"name":"Moskovskaya"},{"country":"RU","id":2012702,"coord":{"lat":53.558399,"lon":102.5065},"name":"Zalari"},{"country":"RU","id":2026955,"coord":{"lat":53.58889,"lon":102.546669},"name":"Bazhir"},{"country":"RU","id":6903687,"coord":{"lat":53.569099,"lon":102.589897},"name":"Tunguy"},{"country":"RU","id":2019437,"coord":{"lat":53.533329,"lon":102.599998},"name":"Naumova"},{"country":"RU","id":6903704,"coord":{"lat":53.487099,"lon":102.643898},"name":"Goryachiy Klyuch"},{"country":"RU","id":2013364,"coord":{"lat":53.471401,"lon":102.654701},"name":"Vladimir"},{"country":"RU","id":2024010,"coord":{"lat":53.431801,"lon":102.668404},"name":"Golovinskoye"},{"country":"RU","id":2018994,"coord":{"lat":53.395199,"lon":102.7257},"name":"Shul\u2019gina"},{"country":"RU","id":6903717,"coord":{"lat":53.396198,"lon":102.776001},"name":"Malyy Kutulik"},{"country":"RU","id":2021116,"coord":{"lat":53.35083,"lon":102.78389},"name":"Kutulik"},{"country":"RU","id":2023293,"coord":{"lat":53.316669,"lon":102.816391},"name":"Kalashnikova"},{"country":"RU","id":2017508,"coord":{"lat":53.283329,"lon":102.833328},"name":"Ranovskaya"},{"country":"RU","id":2012773,"coord":{"lat":53.275398,"lon":102.8312},"name":"Zabituy"},{"country":"RU","id":2012350,"coord":{"lat":53.243889,"lon":102.896942},"name":"Noty"},{"country":"RU","id":6903743,"coord":{"lat":53.219601,"lon":102.875603},"name":"Malinovka"},{"country":"RU","id":6903742,"coord":{"lat":53.219601,"lon":102.926102},"name":"Traktovaya"},{"country":"RU","id":6903747,"coord":{"lat":53.1744,"lon":102.925301},"name":"Shamanayeva"},{"country":"RU","id":2017357,"coord":{"lat":53.158699,"lon":102.943298},"name":"Zabituy"},{"country":"RU","id":2012503,"coord":{"lat":53.1329,"lon":102.928802},"name":"Zhmurova"},{"country":"RU","id":2017016,"coord":{"lat":53.116669,"lon":102.966667},"name":"Semeykina"},{"country":"RU","id":2050863,"coord":{"lat":53.083328,"lon":103.013893},"name":"Trudovoy"},{"country":"RU","id":2013611,"coord":{"lat":53.032501,"lon":103.037781},"name":"Verkhniy Bulay"},{"country":"RU","id":2017960,"coord":{"lat":53.050282,"lon":103.099998},"name":"Petrovka"},{"country":"RU","id":2024881,"coord":{"lat":53.010559,"lon":103.1325},"name":"Donskaya"},{"country":"RU","id":6418149,"coord":{"lat":52.965,"lon":103.232498},"name":"Khudorozhkina"},{"country":"RU","id":6418177,"coord":{"lat":52.939999,"lon":103.290001},"name":"Subbotina"},{"country":"RU","id":6418175,"coord":{"lat":52.94194,"lon":103.408333},"name":"Kocherikova"},{"country":"RU","id":6418187,"coord":{"lat":52.889999,"lon":103.5},"name":"Sredniy"},{"country":"RU","id":2050600,"coord":{"lat":52.867779,"lon":103.550003},"name":"Novomal\u2019tinsk"},{"country":"RU","id":2020418,"coord":{"lat":52.828331,"lon":103.518608},"name":"Mal\u2019ta"},{"country":"RU","id":6418198,"coord":{"lat":52.812222,"lon":103.529167},"name":"Belorechenskiy"},{"country":"RU","id":2014022,"coord":{"lat":52.751942,"lon":103.645279},"name":"Usolye-Sibirskoye"},{"country":"RU","id":2015400,"coord":{"lat":52.69833,"lon":103.709717},"name":"Tel\u2019ma"},{"country":"RU","id":2050594,"coord":{"lat":52.675282,"lon":103.747498},"name":"Zheleznodorozhnyy"},{"country":"RU","id":2026678,"coord":{"lat":52.598888,"lon":103.826111},"name":"Biliktuy"},{"country":"RU","id":2050587,"coord":{"lat":52.486389,"lon":103.738327},"name":"Staraya Yasachnaya"},{"country":"RU","id":2027667,"coord":{"lat":52.536671,"lon":103.886391},"name":"Angarsk"},{"country":"RU","id":6418110,"coord":{"lat":52.48444,"lon":103.842781},"name":"Chetv\u00ebrtyy Pos\u00eblok"},{"country":"RU","id":6418080,"coord":{"lat":52.41,"lon":103.82},"name":"Malyshovka"},{"country":"RU","id":2026032,"coord":{"lat":52.391392,"lon":103.941109},"name":"Zverevo"},{"country":"RU","id":2012577,"coord":{"lat":52.450001,"lon":103.933327},"name":"Zhardovnik"},{"country":"RU","id":2050586,"coord":{"lat":52.40028,"lon":103.967499},"name":"Steklyanka"},{"country":"RU","id":2020451,"coord":{"lat":52.361938,"lon":104.056107},"name":"Malaya Yelanka"},{"country":"RU","id":2020304,"coord":{"lat":52.309719,"lon":104.178062},"name":"Mamony"},{"country":"RU","id":2020850,"coord":{"lat":52.346111,"lon":104.17778},"name":"Novolenino"},{"country":"RU","id":2056819,"coord":{"lat":52.361671,"lon":104.272499},"name":"Baza"},{"country":"RU","id":2056812,"coord":{"lat":52.33889,"lon":104.224167},"name":"Imeni Lenina"},{"country":"RU","id":2056823,"coord":{"lat":52.337219,"lon":104.307777},"name":"Parf\u00ebnovka"},{"country":"RU","id":2056837,"coord":{"lat":52.32444,"lon":104.260277},"name":"Zhilkino"},{"country":"RU","id":7536078,"coord":{"lat":52.280762,"lon":104.302139},"name":"Irkutsk"},{"country":"RU","id":2056885,"coord":{"lat":52.299171,"lon":104.23278},"name":"Imeni Gor\u2019kogo"},{"country":"RU","id":2056884,"coord":{"lat":52.278332,"lon":104.225281},"name":"Mel\u2019nikovo"},{"country":"RU","id":2016404,"coord":{"lat":52.25528,"lon":104.128059},"name":"Smolenshchina"},{"country":"RU","id":2056880,"coord":{"lat":52.264172,"lon":104.207497},"name":"Sinyushina Gora"},{"country":"RU","id":2016764,"coord":{"lat":52.21389,"lon":104.099998},"name":"Shelekhov"},{"country":"RU","id":2027221,"coord":{"lat":52.225559,"lon":104.048607},"name":"Baklashi"},{"country":"RU","id":2050573,"coord":{"lat":52.18,"lon":103.948059},"name":"Chistyye Klyuchi"},{"country":"RU","id":2019750,"coord":{"lat":52.075279,"lon":103.900284},"name":"Moty"},{"country":"RU","id":6418218,"coord":{"lat":52.060001,"lon":103.910004},"name":"Moty"},{"country":"RU","id":2052079,"coord":{"lat":51.96611,"lon":103.909172},"name":"Podkamennaya"},{"country":"RU","id":2052080,"coord":{"lat":51.949169,"lon":103.812782},"name":"Gramatukha"},{"country":"RU","id":2026386,"coord":{"lat":51.89167,"lon":103.84417},"name":"Bol\u2019shaya Glubokaya"},{"country":"RU","id":2052081,"coord":{"lat":51.805,"lon":103.809723},"name":"Adrianovskaya"},{"country":"RU","id":2052082,"coord":{"lat":51.752781,"lon":103.741943},"name":"Angasolka"},{"country":"RU","id":2021343,"coord":{"lat":51.720829,"lon":103.695557},"name":"Kultuk"},{"country":"RU","id":6941952,"coord":{"lat":51.717999,"lon":103.68},"name":"Koultouk"},{"country":"RU","id":2016422,"coord":{"lat":51.659439,"lon":103.706108},"name":"Slyudyanka"},{"country":"RU","id":2050460,"coord":{"lat":51.619171,"lon":103.81028},"name":"Sukhoy Ruchey"},{"country":"RU","id":2020286,"coord":{"lat":51.604721,"lon":103.908333},"name":"Mangutay"},{"country":"RU","id":2026724,"coord":{"lat":51.583328,"lon":103.916672},"name":"Bezymyannaya"},{"country":"RU","id":2013781,"coord":{"lat":51.544441,"lon":104.055832},"name":"Utulik"},{"country":"RU","id":2026979,"coord":{"lat":51.505829,"lon":104.146942},"name":"Baykalsk"},{"country":"RU","id":2016271,"coord":{"lat":51.5,"lon":104.231941},"name":"Solzan"},{"country":"RU","id":2019636,"coord":{"lat":51.48,"lon":104.403061},"name":"Murino"},{"country":"RU","id":2016395,"coord":{"lat":51.46833,"lon":104.628609},"name":"Novosnezhnaya"},{"country":"RU","id":2050915,"coord":{"lat":53,"lon":109},"name":"Respublika Buryatiya"},{"country":"RU","id":2013226,"coord":{"lat":51.465279,"lon":104.643333},"name":"Vydreno"},{"country":"RU","id":2013225,"coord":{"lat":51.485001,"lon":104.846107},"name":"Rechka-Vydrino"},{"country":"RU","id":2022996,"coord":{"lat":51.511391,"lon":104.936943},"name":"Kedrovaya"},{"country":"RU","id":2018288,"coord":{"lat":51.551941,"lon":105.099998},"name":"Osinovka"},{"country":"RU","id":2015576,"coord":{"lat":51.55278,"lon":105.130562},"name":"Tankhoy"},{"country":"RU","id":2018038,"coord":{"lat":51.577782,"lon":105.259438},"name":"Perey\u00ebmnaya"},{"country":"RU","id":2052157,"coord":{"lat":51.64167,"lon":105.523064},"name":"Mishikha"},{"country":"RU","id":2019944,"coord":{"lat":51.652779,"lon":105.592781},"name":"Mishikha"},{"country":"RU","id":2021959,"coord":{"lat":51.687778,"lon":105.757782},"name":"Klyuyevka"},{"country":"RU","id":2027276,"coord":{"lat":51.712219,"lon":105.864723},"name":"Babushkin"},{"country":"RU","id":2052158,"coord":{"lat":51.776112,"lon":105.977783},"name":"Manturikha"},{"country":"RU","id":2026104,"coord":{"lat":51.833328,"lon":106.066673},"name":"Boyarskiy"},{"country":"RU","id":2026426,"coord":{"lat":51.97139,"lon":106.321388},"name":"Bol\u2019shaya Rechka"},{"country":"RU","id":2012732,"coord":{"lat":52.013062,"lon":106.584167},"name":"Zakaltus"},{"country":"RU","id":2015391,"coord":{"lat":52.00111,"lon":106.612778},"name":"Timlyuy"},{"country":"RU","id":2018747,"coord":{"lat":52.0275,"lon":106.701393},"name":"Nyuki"},{"country":"RU","id":2026846,"coord":{"lat":52.01889,"lon":106.732498},"name":"Beregovaya"},{"country":"RU","id":2026070,"coord":{"lat":52.02306,"lon":106.84333},"name":"Bryansk"},{"country":"RU","id":2050692,"coord":{"lat":52.051392,"lon":106.898331},"name":"Treskovo"},{"country":"RU","id":2016737,"coord":{"lat":52.107498,"lon":106.740562},"name":"Shergino"},{"country":"RU","id":2015563,"coord":{"lat":52.071671,"lon":106.961937},"name":"Tarakanovka"},{"country":"RU","id":2019764,"coord":{"lat":52.09417,"lon":107.029442},"name":"Mostovka"},{"country":"RU","id":2012861,"coord":{"lat":52.12278,"lon":107.116386},"name":"Yugovo"},{"country":"RU","id":2017820,"coord":{"lat":52.154171,"lon":107.293327},"name":"Pokrovka"},{"country":"RU","id":2015470,"coord":{"lat":52.137501,"lon":107.440002},"name":"Tataurovo"},{"country":"RU","id":2021879,"coord":{"lat":52.166672,"lon":107.5},"name":"Koma"},{"country":"RU","id":2021987,"coord":{"lat":52.183331,"lon":107.533333},"name":"Klochn\u00ebvo"},{"country":"RU","id":2014779,"coord":{"lat":52.200001,"lon":107.616669},"name":"Turuntayevo"},{"country":"RU","id":2023471,"coord":{"lat":52.200001,"lon":107.666672},"name":"Irkilik"},{"country":"RU","id":2022365,"coord":{"lat":52.23333,"lon":107.666672},"name":"Kholzanovo"},{"country":"RU","id":2023100,"coord":{"lat":52.26667,"lon":107.699997},"name":"Karymskaya"},{"country":"RU","id":2012367,"coord":{"lat":52.283329,"lon":107.800003},"name":"Zyryansk"},{"country":"RU","id":2012979,"coord":{"lat":52.299999,"lon":107.849998},"name":"Yel\u2019tsovo"},{"country":"RU","id":2027020,"coord":{"lat":52.333328,"lon":107.866669},"name":"Baturino"},{"country":"RU","id":2019303,"coord":{"lat":52.366669,"lon":107.883331},"name":"Nesterovo"},{"country":"RU","id":2023792,"coord":{"lat":52.400002,"lon":107.933327},"name":"Gurulevo"},{"country":"RU","id":2022122,"coord":{"lat":52.48333,"lon":108.01667},"name":"Kika"},{"country":"RU","id":2022859,"coord":{"lat":52.599998,"lon":108.083328},"name":"Khaim"},{"country":"RU","id":2025516,"coord":{"lat":52.75,"lon":108.116669},"name":"Cher\u00ebmushka"},{"country":"RU","id":2027149,"coord":{"lat":52.76667,"lon":108.083328},"name":"Banya"},{"country":"RU","id":2023876,"coord":{"lat":52.799999,"lon":107.949997},"name":"Gremyachinsk"},{"country":"RU","id":2023426,"coord":{"lat":52.849998,"lon":108.23333},"name":"Istok"},{"country":"RU","id":2014808,"coord":{"lat":52.950001,"lon":108.216667},"name":"Turka"},{"country":"RU","id":2023907,"coord":{"lat":52.98333,"lon":108.300003},"name":"Goryachinsk"},{"country":"RU","id":2023067,"coord":{"lat":53.183331,"lon":108.433327},"name":"Katkovo"},{"country":"RU","id":2021532,"coord":{"lat":53.316669,"lon":108.633331},"name":"Krestovo"},{"country":"RU","id":2020556,"coord":{"lat":53.25,"lon":108.716667},"name":"Maksimikha"},{"country":"RU","id":2013986,"coord":{"lat":53.450001,"lon":108.98333},"name":"Ust-Barguzin"},{"country":"RU","id":2020575,"coord":{"lat":53.450001,"lon":109.116669},"name":"Makarinino"},{"country":"RU","id":2028120,"coord":{"lat":53.48333,"lon":109.316673},"name":"Adamovo"},{"country":"RU","id":2013681,"coord":{"lat":53.566669,"lon":109.48333},"name":"Vaulino"},{"country":"RU","id":2019838,"coord":{"lat":53.566669,"lon":109.650002},"name":"Molokovo"},{"country":"RU","id":2015193,"coord":{"lat":53.583328,"lon":109.616669},"name":"Tolstikhino"},{"country":"RU","id":2012997,"coord":{"lat":53.599998,"lon":109.616669},"name":"Y\u00eblkino"},{"country":"RU","id":2027109,"coord":{"lat":53.616669,"lon":109.616669},"name":"Barguzin"},{"country":"RU","id":2019308,"coord":{"lat":53.650002,"lon":109.699997},"name":"Nesterikha"},{"country":"RU","id":2015953,"coord":{"lat":53.73333,"lon":109.800003},"name":"\u0421\u0443\u0445\u0430\u044f \u041f\u0435\u0440\u0432\u0430\u044f"},{"country":"RU","id":2012337,"coord":{"lat":53.73333,"lon":109.800003},"name":"Sukhaya"},{"country":"RU","id":2015950,"coord":{"lat":53.75,"lon":109.800003},"name":"Sukhaya Vtoraya"},{"country":"RU","id":2014285,"coord":{"lat":53.76667,"lon":109.933327},"name":"Ulusy"},{"country":"RU","id":2014259,"coord":{"lat":53.833328,"lon":109.900002},"name":"Ulyun"},{"country":"RU","id":2026496,"coord":{"lat":53.833328,"lon":109.933327},"name":"Bol\u2019shaya Barguzinskaya Stepnaya Duma"},{"country":"RU","id":2014261,"coord":{"lat":53.866669,"lon":109.966667},"name":"Ulyukchikan"},{"country":"RU","id":2014288,"coord":{"lat":53.900002,"lon":109.98333},"name":"Ulus Ulzakhi"},{"country":"RU","id":2013101,"coord":{"lat":53.933331,"lon":110.01667},"name":"Yarikta"},{"country":"RU","id":2014230,"coord":{"lat":53.933331,"lon":110.01667},"name":"Unagan"},{"country":"RU","id":2026013,"coord":{"lat":53.950001,"lon":110.083328},"name":"Bukhutur"},{"country":"RU","id":2024400,"coord":{"lat":54.066669,"lon":110.133331},"name":"Elysun"},{"country":"RU","id":2017187,"coord":{"lat":54.150002,"lon":110.183327},"name":"Sarankhur"},{"country":"RU","id":2024200,"coord":{"lat":54.183331,"lon":110.199997},"name":"Galgatay"},{"country":"RU","id":2022334,"coord":{"lat":54.216671,"lon":110.23333},"name":"Khonkhino"},{"country":"RU","id":2021188,"coord":{"lat":54.299999,"lon":110.300003},"name":"Kurumkan"},{"country":"RU","id":2017282,"coord":{"lat":54.366669,"lon":110.400002},"name":"Sakhuli"},{"country":"RU","id":2014547,"coord":{"lat":54.383331,"lon":110.383331},"name":"Ugsakhay"},{"country":"RU","id":2019895,"coord":{"lat":54.416672,"lon":110.449997},"name":"Mogoyto"},{"country":"RU","id":2014290,"coord":{"lat":54.400002,"lon":110.433327},"name":"Ulus Ukhoringol"},{"country":"RU","id":2024167,"coord":{"lat":54.433331,"lon":110.550003},"name":"Garga"},{"country":"RU","id":2017469,"coord":{"lat":54.383331,"lon":110.699997},"name":"Razgon"},{"country":"RU","id":2014569,"coord":{"lat":54.5,"lon":110.699997},"name":"Ugnasay"},{"country":"RU","id":2016711,"coord":{"lat":54.533329,"lon":110.783333},"name":"Shil\u2019bunga"},{"country":"RU","id":2017160,"coord":{"lat":54.599998,"lon":110.800003},"name":"Saryur"},{"country":"RU","id":2024212,"coord":{"lat":54.700001,"lon":110.849998},"name":"Gakhan"},{"country":"RU","id":2027317,"coord":{"lat":54.716671,"lon":110.916672},"name":"Ayan"},{"country":"RU","id":2014365,"coord":{"lat":54.783329,"lon":110.949997},"name":"Ul\u2019gichen"},{"country":"RU","id":2027663,"coord":{"lat":54.799999,"lon":111},"name":"Angata"},{"country":"RU","id":2013198,"coord":{"lat":54.849998,"lon":111.066673},"name":"Yagdag"},{"country":"RU","id":2024176,"coord":{"lat":54.883331,"lon":111.133331},"name":"Garasun"},{"country":"RU","id":2014243,"coord":{"lat":54.98333,"lon":111.116669},"name":"Umkhey"},{"country":"RU","id":2012425,"coord":{"lat":55.049999,"lon":111.166672},"name":"Zugdeli"},{"country":"RU","id":2025848,"coord":{"lat":55.133331,"lon":111.300003},"name":"Buryatskiye Postroyki"},{"country":"RU","id":2024018,"coord":{"lat":55.283329,"lon":111.316673},"name":"Golgachok"},{"country":"RU","id":2017336,"coord":{"lat":55.450001,"lon":111.26667},"name":"Rykhlovskogo"},{"country":"RU","id":2018697,"coord":{"lat":55.583328,"lon":111.099998},"name":"Ochemi"},{"country":"RU","id":2023472,"coord":{"lat":55.866669,"lon":111.23333},"name":"Irkana"},{"country":"RU","id":7601295,"coord":{"lat":56.419899,"lon":36.4118},"name":"Kryukovo"},{"country":"RU","id":7601294,"coord":{"lat":56.397202,"lon":36.305801},"name":"Igumnovo"},{"country":"RU","id":7601308,"coord":{"lat":56.385799,"lon":36.251099},"name":"Bortnitsy"},{"country":"RU","id":7601306,"coord":{"lat":56.3843,"lon":36.1535},"name":"Glukhino"},{"country":"RU","id":7601266,"coord":{"lat":56.480099,"lon":36.026901},"name":"Selino"},{"country":"RU","id":7601267,"coord":{"lat":56.4939,"lon":36.006599},"name":"L\u2019nozavod"},{"country":"RU","id":7601272,"coord":{"lat":56.374599,"lon":36.0868},"name":"Grishkino"},{"country":"RU","id":7601305,"coord":{"lat":56.369499,"lon":36.172001},"name":"Ovsyannikovo"},{"country":"RU","id":7601341,"coord":{"lat":56.315701,"lon":36.184898},"name":"Sheverikha"},{"country":"RU","id":7601362,"coord":{"lat":56.273499,"lon":36.119999},"name":"Portsino"},{"country":"RU","id":7601361,"coord":{"lat":56.265499,"lon":36.130901},"name":"Makarikha"},{"country":"RU","id":7601394,"coord":{"lat":56.188499,"lon":36.134499},"name":"Fadeyevo"},{"country":"RU","id":7601434,"coord":{"lat":56.172401,"lon":36.096001},"name":"Detgorodok"},{"country":"RU","id":7601395,"coord":{"lat":56.176399,"lon":36.1507},"name":"Smol\u2019nikovo"},{"country":"RU","id":7601427,"coord":{"lat":56.159599,"lon":36.146599},"name":"Novoye"},{"country":"RU","id":7601425,"coord":{"lat":56.161499,"lon":36.168201},"name":"Ozhogino"},{"country":"RU","id":7601487,"coord":{"lat":56.084,"lon":36.246498},"name":"Kut\u2019ino"},{"country":"RU","id":7601515,"coord":{"lat":56.068001,"lon":36.2388},"name":"Pristanino"},{"country":"RU","id":7601516,"coord":{"lat":56.0606,"lon":36.229099},"name":"Zolevo"},{"country":"RU","id":7601517,"coord":{"lat":56.041901,"lon":36.226002},"name":"Aks\u00ebnovo"},{"country":"RU","id":7601519,"coord":{"lat":56.0368,"lon":36.201599},"name":"Gusenevo"},{"country":"RU","id":562898,"coord":{"lat":55.58165,"lon":38.401112},"name":"Fenino"},{"country":"RU","id":577901,"coord":{"lat":55.459782,"lon":38.443581},"name":"Beloozerskiy"},{"country":"RU","id":462192,"coord":{"lat":55.428059,"lon":38.496941},"name":"Zolotovo"},{"country":"RU","id":557486,"coord":{"lat":55.611259,"lon":38.531158},"name":"Ignat\u2019yevo"},{"country":"RU","id":539598,"coord":{"lat":55.09222,"lon":37.460281},"name":"Kulakovo"},{"country":"RU","id":817258,"coord":{"lat":55.205559,"lon":37.510281},"name":"Maloye Petrovskoye"},{"country":"UA","id":709325,"coord":{"lat":44.900002,"lon":34.283329},"name":"Dzhefar-Berdy"},{"country":"UA","id":6986274,"coord":{"lat":44.927059,"lon":34.27541},"name":"Lazarivka"},{"country":"UA","id":691679,"coord":{"lat":44.933331,"lon":34.26667},"name":"Terenair"},{"country":"UA","id":699844,"coord":{"lat":44.937309,"lon":34.24807},"name":"Ivanivka"},{"country":"UA","id":710141,"coord":{"lat":44.92186,"lon":34.22234},"name":"Denysivka"},{"country":"UA","id":6986279,"coord":{"lat":44.89592,"lon":34.290379},"name":"Druzhne"},{"country":"UA","id":687656,"coord":{"lat":44.855999,"lon":34.262199},"name":"Zarichne"},{"country":"UA","id":713099,"coord":{"lat":44.827229,"lon":34.28706},"name":"Ayans\u2019ke Dzherelo"},{"country":"UA","id":6987036,"coord":{"lat":44.695549,"lon":34.318111},"name":"Rozovyy"},{"country":"UA","id":6988139,"coord":{"lat":44.742569,"lon":34.366871},"name":"Lavanda"},{"country":"UA","id":695053,"coord":{"lat":44.772388,"lon":34.592991},"name":"Rybache"},{"country":"UA","id":696240,"coord":{"lat":44.817371,"lon":34.679031},"name":"Pryvitne"},{"country":"RU","id":568884,"coord":{"lat":55.833328,"lon":37.299999},"name":"Chernevo Odin"},{"country":"RU","id":529276,"coord":{"lat":55.865009,"lon":37.310089},"name":"Mar\u2019ino"},{"country":"RU","id":575266,"coord":{"lat":55.90519,"lon":37.214909},"name":"Bol\u2019shakovo"},{"country":"RU","id":7601506,"coord":{"lat":56.051498,"lon":36.676701},"name":"Leonovo"},{"country":"RU","id":7601529,"coord":{"lat":56.039001,"lon":36.6609},"name":"Mazilovo"},{"country":"RU","id":7601530,"coord":{"lat":56.0284,"lon":36.610199},"name":"Kurovo"},{"country":"RU","id":7601531,"coord":{"lat":56.029499,"lon":36.589298},"name":"Parf\u00ebnki"},{"country":"RU","id":521022,"coord":{"lat":56.0298,"lon":36.555401},"name":"Vasil\u2019yevskoye"},{"country":"RU","id":7601532,"coord":{"lat":56.036098,"lon":36.531898},"name":"Bodrovo"},{"country":"RU","id":7601533,"coord":{"lat":56.007,"lon":36.500599},"name":"Rybushki"},{"country":"RU","id":488831,"coord":{"lat":55.98333,"lon":37.666672},"name":"Starogor\u2019ye"},{"country":"RU","id":555553,"coord":{"lat":56.75,"lon":37.133331},"name":"Ivan\u2019kovo"},{"country":"RU","id":502623,"coord":{"lat":56.783329,"lon":37.23333},"name":"Ratmino"},{"country":"RU","id":558151,"coord":{"lat":56.816669,"lon":37.200001},"name":"Gubin Ugol"},{"country":"RU","id":536874,"coord":{"lat":56.833328,"lon":37.099998},"name":"Lartsevo"},{"country":"RU","id":572269,"coord":{"lat":56.886101,"lon":36.9958},"name":"Borodino"},{"country":"RU","id":539970,"coord":{"lat":56.916672,"lon":37.066669},"name":"Kuchino"},{"country":"RU","id":478479,"coord":{"lat":56.933331,"lon":37.133331},"name":"Usady"},{"country":"RU","id":548652,"coord":{"lat":56.866669,"lon":37.349998},"name":"Kimry"},{"country":"RU","id":481467,"coord":{"lat":55.73333,"lon":37.966671},"name":"Troitskoye-Kaynardzhi"},{"country":"RU","id":577197,"coord":{"lat":55.01474,"lon":37.992298},"name":"Bereznya"},{"country":"","id":6255151,"coord":{"lat":-18.312811,"lon":138.515625},"name":"Oceania"},{"country":"MH","id":2080185,"coord":{"lat":7.113,"lon":171.235992},"name":"Republic of the Marshall Islands"},{"country":"CU","id":3562981,"coord":{"lat":22,"lon":-79.5},"name":"Republic of Cuba"},{"country":"RU","id":2023724,"coord":{"lat":50.450001,"lon":127.416672},"name":"Ignat\u2019yevo"},{"country":"RU","id":808182,"coord":{"lat":50.637508,"lon":36.579399},"name":"Yachnevo"},{"country":"KZ","id":608699,"coord":{"lat":51.016392,"lon":58.599171},"name":"Novovvedenka"},{"country":"RU","id":481244,"coord":{"lat":51.783329,"lon":55.5},"name":"Trudovoye Pole"},{"country":"RU","id":2016334,"coord":{"lat":51.800362,"lon":107.444366},"name":"Sokol"},{"country":"RU","id":500149,"coord":{"lat":51.801338,"lon":39.199638},"name":"Ryadnoye"},{"country":"RU","id":7779061,"coord":{"lat":52,"lon":117},"name":"Zabaykal\u2019skiy Kray"},{"country":"RU","id":6736493,"coord":{"lat":52.035519,"lon":113.278938},"name":"Kadala"},{"country":"RU","id":2017203,"coord":{"lat":52.123402,"lon":109.402},"name":"Sannomysk"},{"country":"RU","id":2056861,"coord":{"lat":52.280281,"lon":104.38694},"name":"Dzerzhinsk"},{"country":"RU","id":2017698,"coord":{"lat":52.48333,"lon":104.433327},"name":"Pozdnyakova"},{"country":"RU","id":2017519,"coord":{"lat":53.083328,"lon":132.5},"name":"Radostnyy"},{"country":"RU","id":2125112,"coord":{"lat":53.099998,"lon":140.399994},"name":"Kaki"},{"country":"RU","id":469678,"coord":{"lat":53.099998,"lon":50.183331},"name":"Yaitskiy"},{"country":"RU","id":6855949,"coord":{"lat":53.127209,"lon":50.177399},"name":"Rubezhnaya Glinka"},{"country":"RU","id":2125072,"coord":{"lat":55,"lon":159},"name":"Kamtchatski Kray"},{"country":"RU","id":2124185,"coord":{"lat":53.150002,"lon":158.449997},"name":"Krasnorechensk"},{"country":"RU","id":483710,"coord":{"lat":53.219681,"lon":34.155819},"name":"Temenichi"},{"country":"RU","id":1511732,"coord":{"lat":52.5,"lon":83},"name":"Altayskiy Kray"},{"country":"RU","id":7891280,"coord":{"lat":53.399601,"lon":83.534798},"name":"Zemlyanukha"},{"country":"RU","id":2123174,"coord":{"lat":53.56694,"lon":142.504166},"name":"Moskal\u2019vo"},{"country":"RU","id":497672,"coord":{"lat":53.389599,"lon":58.694901},"name":"Selivanovskiy"},{"country":"RU","id":7459207,"coord":{"lat":53.426102,"lon":87.112},"name":"Shilovka"},{"country":"RU","id":1503834,"coord":{"lat":53.333328,"lon":90},"name":"Respublika Khakasiya"},{"country":"RU","id":1492972,"coord":{"lat":53.467499,"lon":91.17556},"name":"Sartykov"},{"country":"RU","id":577384,"coord":{"lat":53.51833,"lon":50.139671},"name":"Bereza"},{"country":"RU","id":1490053,"coord":{"lat":53.738331,"lon":91.387497},"name":"Kalinino"},{"country":"RU","id":1500305,"coord":{"lat":53.837101,"lon":86.907303},"name":"Luchshevo"},{"country":"RU","id":533601,"coord":{"lat":54.214119,"lon":48.24324},"name":"Lugovoye"},{"country":"RU","id":6641099,"coord":{"lat":54.38776,"lon":48.764099},"name":"Loshchina"},{"country":"RU","id":7902696,"coord":{"lat":54.493301,"lon":99.002098},"name":"Novyye Plity"},{"country":"RU","id":549302,"coord":{"lat":54.897091,"lon":20.580351},"name":"Khrabrovo"},{"country":"RU","id":1496152,"coord":{"lat":56,"lon":73},"name":"Omskaya Oblast\u2019"},{"country":"RU","id":1496153,"coord":{"lat":55,"lon":73.400002},"name":"Omsk"},{"country":"RU","id":7076382,"coord":{"lat":54.97411,"lon":73.295021},"name":"Sadovyy"},{"country":"RU","id":1495483,"coord":{"lat":55.0131,"lon":82.615997},"name":"Pavino"},{"country":"RU","id":1501278,"coord":{"lat":55.299999,"lon":86.033333},"name":"Kuro-Iskitim"},{"country":"RU","id":1491481,"coord":{"lat":55.324501,"lon":61.5327},"name":"Solnechnyy"},{"country":"RU","id":818029,"coord":{"lat":55.304539,"lon":37.324108},"name":"Meshkovo"},{"country":"RU","id":7594610,"coord":{"lat":55.552799,"lon":52.085999},"name":"Bakcha-Saray"},{"country":"RU","id":819552,"coord":{"lat":55.58316,"lon":37.260189},"name":"Annino"},{"country":"RU","id":7077223,"coord":{"lat":55.61602,"lon":49.274281},"name":"Malyye Kabany"},{"country":"RU","id":536206,"coord":{"lat":55.933331,"lon":37.833328},"name":"Yubileyny"},{"country":"RU","id":1502020,"coord":{"lat":58,"lon":93},"name":"Krasnoyarskiy Kray"},{"country":"RU","id":492723,"coord":{"lat":56.079609,"lon":47.353729},"name":"Sin\u2019yaly"},{"country":"RU","id":1486093,"coord":{"lat":56.138611,"lon":92.541107},"name":"Yelovaya"},{"country":"RU","id":875570,"coord":{"lat":56.176762,"lon":43.772461},"name":"Okskiy"},{"country":"RU","id":560916,"coord":{"lat":56.206821,"lon":43.76408},"name":"Gnilitsy"},{"country":"RU","id":8050048,"coord":{"lat":56.357498,"lon":101.587097},"name":"Burninskiye Vikhorya"},{"country":"RU","id":822693,"coord":{"lat":56.375561,"lon":30.597219},"name":"Maksimovo"},{"country":"RU","id":2013162,"coord":{"lat":65,"lon":130},"name":"Respublika Sakha (Yakutiya)"},{"country":"RU","id":2019309,"coord":{"lat":56.670898,"lon":124.649101},"name":"Neryungri"},{"country":"RU","id":1490542,"coord":{"lat":58,"lon":62},"name":"Sverdlovskaya Oblast\u2019"},{"country":"RU","id":561212,"coord":{"lat":56.83736,"lon":35.798531},"name":"Glinkovo"},{"country":"RU","id":527169,"coord":{"lat":56.841648,"lon":35.77343},"name":"Migalovo"},{"country":"RU","id":1539186,"coord":{"lat":57.179729,"lon":65.359543},"name":"Novoroshchino"},{"country":"RU","id":2013931,"coord":{"lat":57.41444,"lon":107.958893},"name":"Ust\u2019-Kirenga"},{"country":"RU","id":2015399,"coord":{"lat":57.633331,"lon":113.98333},"name":"Tel\u2019mama"},{"country":"RU","id":7093133,"coord":{"lat":57.7887,"lon":28.4585},"name":"Gornevo"},{"country":"RU","id":541087,"coord":{"lat":57.797001,"lon":28.4188},"name":"Kresty"},{"country":"RU","id":511180,"coord":{"lat":59,"lon":57},"name":"Perm Krai"},{"country":"RU","id":574364,"coord":{"lat":57.9263,"lon":56.016899},"name":"Bol\u2019shoye Savino"},{"country":"RU","id":1489421,"coord":{"lat":58.5,"lon":82.5},"name":"Tomskaya Oblast\u2019"},{"country":"RU","id":1503117,"coord":{"lat":58.169899,"lon":82.555099},"name":"Klyukvinka"},{"country":"RU","id":1508961,"coord":{"lat":58.485802,"lon":92.082298},"name":"Borki"},{"country":"EE","id":453733,"coord":{"lat":59,"lon":26},"name":"Republic of Estonia"},{"country":"EE","id":590054,"coord":{"lat":59.216671,"lon":24.47056},"name":"Muusika"},{"country":"RU","id":2025230,"coord":{"lat":59.264439,"lon":112.428612},"name":"Chuya"},{"country":"RU","id":464527,"coord":{"lat":59.283329,"lon":39.950001},"name":"Zarech\u2019ye"},{"country":"RU","id":530547,"coord":{"lat":59.533329,"lon":42.450001},"name":"Maloye Shul\u2019gino"},{"country":"RU","id":475349,"coord":{"lat":59.783329,"lon":30.26667},"name":"Verkhneye Koyrovo"},{"country":"RU","id":2123627,"coord":{"lat":63,"lon":154},"name":"Magadanskaya Oblast\u2019"},{"country":"RU","id":2123235,"coord":{"lat":59.900002,"lon":150.633331},"name":"Molochnaya"},{"country":"RU","id":512566,"coord":{"lat":60.08691,"lon":30.27179},"name":"Pargolovo"},{"country":"RU","id":535806,"coord":{"lat":60.263409,"lon":30.45462},"name":"Leskolovo"},{"country":"RU","id":1504708,"coord":{"lat":60.416672,"lon":60.200001},"name":"Kanda"},{"country":"RU","id":1503773,"coord":{"lat":62,"lon":72},"name":"Khanty-Mansiyskiy Avtonomnyy Okrug"},{"country":"RU","id":1497543,"coord":{"lat":60.934399,"lon":76.553101},"name":"Nizhnevartovsk"},{"country":"RU","id":1503772,"coord":{"lat":61.004169,"lon":69.001938},"name":"Khanty-Mansiysk"},{"country":"RU","id":528010,"coord":{"lat":61.162941,"lon":46.387001},"name":"Medvedka"},{"country":"RU","id":575881,"coord":{"lat":61.23333,"lon":46.73333},"name":"Bobrovskaya"},{"country":"RU","id":1508074,"coord":{"lat":61.333328,"lon":73.433327},"name":"Ch\u00ebrnaya Rechka"},{"country":"RU","id":1495939,"coord":{"lat":61.383331,"lon":89.75},"name":"Osinovo"},{"country":"RU","id":545854,"coord":{"lat":64,"lon":54},"name":"Respublika Komi"},{"country":"RU","id":509211,"coord":{"lat":61.491699,"lon":53.30851},"name":"Parizh"},{"country":"RU","id":2121658,"coord":{"lat":61.683331,"lon":160.366669},"name":"Rechnaya Matuga"},{"country":"RU","id":567957,"coord":{"lat":61.628948,"lon":50.859581},"name":"Chit"},{"country":"RU","id":546780,"coord":{"lat":61.63731,"lon":50.868229},"name":"Kochpon"},{"country":"RU","id":520794,"coord":{"lat":61.883331,"lon":34.166672},"name":"Nizhniy Bessovets"},{"country":"RU","id":1540356,"coord":{"lat":62.096111,"lon":77.474998},"name":"Raduzhnyy"},{"country":"RU","id":1493308,"coord":{"lat":62.200001,"lon":74.466667},"name":"Rynkova Ye. V."},{"country":"RU","id":2019951,"coord":{"lat":62.535278,"lon":113.961113},"name":"Mirnyy"},{"country":"RU","id":2126099,"coord":{"lat":67.5,"lon":172},"name":"Chukotskiy Avtonomnyy Okrug"},{"country":"RU","id":2131859,"coord":{"lat":63.066669,"lon":179.266663},"name":"Nagornyy"},{"country":"RU","id":479411,"coord":{"lat":63.567051,"lon":53.683479},"name":"Ukhta"},{"country":"RU","id":6924198,"coord":{"lat":63.56514,"lon":53.774151},"name":"Podgornyy"},{"country":"RU","id":2126965,"coord":{"lat":64.283333,"lon":173.300003},"name":"Avan\u2019"},{"country":"RU","id":2119625,"coord":{"lat":64.650002,"lon":170.399994},"name":"Yagodnoye"},{"country":"RU","id":8071846,"coord":{"lat":64.590401,"lon":40.701801},"name":"Talazhskiy Aviagorodok"},{"country":"RU","id":2120245,"coord":{"lat":64.73333,"lon":177.699997},"name":"Ugol\u2019nyye Kopi"},{"country":"RU","id":1486462,"coord":{"lat":66,"lon":76},"name":"Yamalo-Nenetskiy Avtonomnyy Okrug"},{"country":"RU","id":1498087,"coord":{"lat":65.533333,"lon":72.51667},"name":"Nadym"},{"country":"RU","id":863080,"coord":{"lat":66.033058,"lon":57.43306},"name":"Usador"},{"country":"RU","id":1496511,"coord":{"lat":66.083328,"lon":76.633331},"name":"Novyy Urengoy"},{"country":"RU","id":2014624,"coord":{"lat":66.416672,"lon":112.400002},"name":"Udachnyy"},{"country":"RU","id":1493197,"coord":{"lat":66.529999,"lon":66.601936},"name":"Salekhard"},{"country":"RU","id":1494463,"coord":{"lat":67.449997,"lon":86.616669},"name":"Polyarnyy"},{"country":"RU","id":1486910,"coord":{"lat":67.5,"lon":64},"name":"Vorkuta"},{"country":"RU","id":4031681,"coord":{"lat":68.833328,"lon":-179.183334},"name":"Kelyun\u2019ya"},{"country":"RU","id":524299,"coord":{"lat":68.815422,"lon":32.81147},"name":"Murmashi"},{"country":"RU","id":1539232,"coord":{"lat":69.327217,"lon":87.33667},"name":"Pos\u00eblok Aeroporta"},{"country":"RU","id":522652,"coord":{"lat":67.5,"lon":54},"name":"Nenetskiy Avtonomnyy Okrug"},{"country":"RU","id":1544819,"coord":{"lat":69.7481,"lon":61.654701},"name":"Rudnik"},{"country":"RU","id":2126123,"coord":{"lat":70.633331,"lon":147.916672},"name":"Chokurdakh"},{"country":"RU","id":2015306,"coord":{"lat":71.687218,"lon":128.869446},"name":"Tiksi"},{"country":"RU","id":2022572,"coord":{"lat":71.966667,"lon":102.5},"name":"Khatanga"},{"country":"AR","id":3865483,"coord":{"lat":-34,"lon":-64},"name":"Argentine Republic"},{"country":"AR","id":3834450,"coord":{"lat":-54.5,"lon":-67},"name":"Provincia de Tierra del Fuego, Ant\u00e1rtida e Islas del Atl\u00e1ntico Sur"},{"country":"AR","id":3838854,"coord":{"lat":-53.787689,"lon":-67.709457},"name":"R\u00edo Grande"},{"country":"CL","id":3895114,"coord":{"lat":-30,"lon":-71},"name":"Republic of Chile"},{"country":"CL","id":4036650,"coord":{"lat":-52.500259,"lon":-73.000671},"name":"Regi\u00f3n de Magallanes y de la Ant\u00e1rtica Chilena"},{"country":"CL","id":3873132,"coord":{"lat":-53.183331,"lon":-70.933327},"name":"R\u00edo de los Ciervos"},{"country":"NZ","id":2186224,"coord":{"lat":-42,"lon":174},"name":"New Zealand"},{"country":"NZ","id":2192628,"coord":{"lat":-43.5,"lon":171.5},"name":"Canterbury"},{"country":"NZ","id":2181134,"coord":{"lat":-44.400002,"lon":171.216675},"name":"Timaru District"},{"country":"NZ","id":2181133,"coord":{"lat":-44.400002,"lon":171.25},"name":"Timaru"},{"country":"NZ","id":6214566,"coord":{"lat":-44.39835,"lon":171.230103},"name":"Watlington"},{"country":"NZ","id":2193772,"coord":{"lat":-43.900002,"lon":171.75},"name":"Ashburton District"},{"country":"NZ","id":7910036,"coord":{"lat":-43.645779,"lon":172.745865},"name":"Christchurch City"},{"country":"NZ","id":2192779,"coord":{"lat":-43.5,"lon":172.699997},"name":"Burwood"},{"country":"NZ","id":6220368,"coord":{"lat":-43.488331,"lon":172.68013},"name":"Burwood"},{"country":"AR","id":3861244,"coord":{"lat":-44,"lon":-69},"name":"Provincia del Chubut"},{"country":"AR","id":3841892,"coord":{"lat":-44,"lon":-68.833328},"name":"Departamento de Paso de Indios"},{"country":"AR","id":3841894,"coord":{"lat":-43.862251,"lon":-69.046021},"name":"Paso de Indios"},{"country":"NZ","id":7910060,"coord":{"lat":-43.322262,"lon":171.870636},"name":"Selwyn District"},{"country":"NZ","id":2188540,"coord":{"lat":-43.366669,"lon":171.533325},"name":"Lake Coleridge"},{"country":"NZ","id":7910069,"coord":{"lat":-43.2075,"lon":172.332855},"name":"Waimakariri District"},{"country":"NZ","id":2193395,"coord":{"lat":-43.299999,"lon":172.300003},"name":"Bennetts"},{"country":"AU","id":2077456,"coord":{"lat":-25,"lon":135},"name":"Commonwealth of Australia"},{"country":"AU","id":2147291,"coord":{"lat":-42,"lon":147},"name":"State of Tasmania"},{"country":"AU","id":7839862,"coord":{"lat":-42.41785,"lon":147.434143},"name":"Southern Midlands"},{"country":"AU","id":2142527,"coord":{"lat":-42.549999,"lon":147.333328},"name":"Yarlington"},{"country":"AR","id":3854956,"coord":{"lat":-42.029202,"lon":-71.52095},"name":"Golondrinas"},{"country":"AU","id":7839372,"coord":{"lat":-42.452461,"lon":145.522644},"name":"West Coast"},{"country":"AU","id":2151127,"coord":{"lat":-41.783329,"lon":145.516663},"name":"Rosebery"},{"country":"AU","id":7839371,"coord":{"lat":-41.307091,"lon":145.458313},"name":"Waratah/Wynyard"},{"country":"AU","id":2149138,"coord":{"lat":-41.040649,"lon":145.830551},"name":"Somerset"},{"country":"AR","id":3838830,"coord":{"lat":-40,"lon":-67},"name":"Provincia de R\u00edo Negro"},{"country":"AR","id":3859279,"coord":{"lat":-40.73333,"lon":-65.033333},"name":"Doctor Rogelio Cortizo"},{"country":"NZ","id":2179671,"coord":{"lat":-39.950001,"lon":175.016663},"name":"Manawatu-Wanganui"},{"country":"NZ","id":7910056,"coord":{"lat":-40.401901,"lon":175.643967},"name":"Palmerston North City"},{"country":"NZ","id":2193767,"coord":{"lat":-40.299999,"lon":175.75},"name":"Ashhurst"},{"country":"CL","id":6693563,"coord":{"lat":-40.014992,"lon":-72.515259},"name":"Regi\u00f3n de Los R\u00edos"},{"country":"CL","id":3882922,"coord":{"lat":-39.450001,"lon":-73.083328},"name":"Lleco"},{"country":"NZ","id":2181872,"coord":{"lat":-39.166672,"lon":174.666672},"name":"Taranaki"},{"country":"NZ","id":6223705,"coord":{"lat":-38.988239,"lon":174.210205},"name":"Waitara"},{"country":"AR","id":3840224,"coord":{"lat":-39.01667,"lon":-64.033333},"name":"Pueblo Buena Parada"},{"country":"AR","id":3435907,"coord":{"lat":-36,"lon":-60},"name":"Provincia de Buenos Aires"},{"country":"AR","id":3839982,"coord":{"lat":-38.875881,"lon":-62.073589},"name":"Punta Alta"},{"country":"AR","id":3435189,"coord":{"lat":-38.647781,"lon":-59.604549},"name":"Cristiano Muerto"},{"country":"AR","id":3430443,"coord":{"lat":-38.54726,"lon":-58.736752},"name":"Necochea"},{"country":"AR","id":3430668,"coord":{"lat":-38.268761,"lon":-57.836689},"name":"Miramar"},{"country":"AR","id":3427840,"coord":{"lat":-38.204819,"lon":-58.740608},"name":"Tamanguey\u00fa"},{"country":"NZ","id":2193734,"coord":{"lat":-36.849998,"lon":174.783325},"name":"Auckland"},{"country":"NZ","id":6241325,"coord":{"lat":-38.138741,"lon":176.245163},"name":"Rotorua"},{"country":"AU","id":7839831,"coord":{"lat":-38.037651,"lon":147.016968},"name":"Wellington"},{"country":"AU","id":2157171,"coord":{"lat":-38.033329,"lon":147.066666},"name":"Montgomery"},{"country":"AU","id":2061327,"coord":{"lat":-30,"lon":135},"name":"State of South Australia"},{"country":"AU","id":2156523,"coord":{"lat":-37.950001,"lon":140.733337},"name":"Mount Schank"},{"country":"AU","id":7839797,"coord":{"lat":-37.898949,"lon":145.269226},"name":"Knox"},{"country":"AU","id":2146967,"coord":{"lat":-37.849998,"lon":145.316666},"name":"The Basin"},{"country":"AU","id":7839816,"coord":{"lat":-37.28104,"lon":145.674377},"name":"Murrindindi"},{"country":"AU","id":2161352,"coord":{"lat":-37.51667,"lon":145.350006},"name":"Kinglake East"},{"country":"AU","id":7839800,"coord":{"lat":-37.333431,"lon":144.615814},"name":"Macedon Ranges"},{"country":"AU","id":2173457,"coord":{"lat":-37.51667,"lon":144.483337},"name":"Bullengarook"},{"country":"AU","id":7839469,"coord":{"lat":-37.508041,"lon":140.421143},"name":"Wattle Range"},{"country":"AU","id":2166008,"coord":{"lat":-37.416672,"lon":140.333328},"name":"Furner"},{"country":"AR","id":3862372,"coord":{"lat":-37.293571,"lon":-62.299671},"name":"Cascada"},{"country":"AU","id":2160885,"coord":{"lat":-37.25,"lon":144.433334},"name":"Kyneton"},{"country":"NZ","id":2193732,"coord":{"lat":-36.85582,"lon":174.743042},"name":"Auckland"},{"country":"NZ","id":2193843,"coord":{"lat":-37.150002,"lon":175.033325},"name":"Ararimu"},{"country":"AU","id":2155400,"coord":{"lat":-33,"lon":146},"name":"State of New South Wales"},{"country":"AU","id":7839691,"coord":{"lat":-36.81646,"lon":149.720596},"name":"Bega Valley"},{"country":"AU","id":2158020,"coord":{"lat":-36.900002,"lon":149.899994},"name":"Merimbula"},{"country":"NZ","id":2207714,"coord":{"lat":-36.854721,"lon":174.831665},"name":"Mission Bay"},{"country":"NZ","id":6232296,"coord":{"lat":-36.8582,"lon":174.840195},"name":"Kohimarama"},{"country":"AU","id":7839547,"coord":{"lat":-36.722778,"lon":144.439743},"name":"Greater Bendigo"},{"country":"AU","id":2161903,"coord":{"lat":-36.799999,"lon":144.25},"name":"Kangaroo Flat"},{"country":"AU","id":2167275,"coord":{"lat":-36.716671,"lon":144.316666},"name":"Epsom"},{"country":"AU","id":7839554,"coord":{"lat":-36.828571,"lon":142.114487},"name":"Horsham"},{"country":"AU","id":2163055,"coord":{"lat":-36.716671,"lon":142.199997},"name":"Horsham"},{"country":"AU","id":2176401,"coord":{"lat":-36.666672,"lon":149.833328},"name":"Bega"},{"country":"CL","id":3898380,"coord":{"lat":-37,"lon":-72.5},"name":"Regi\u00f3n del Biob\u00edo"},{"country":"CL","id":3895088,"coord":{"lat":-36.60664,"lon":-72.103439},"name":"Chillan"},{"country":"AU","id":7839772,"coord":{"lat":-36.302738,"lon":148.68576},"name":"Snowy River"},{"country":"AU","id":2146760,"coord":{"lat":-36.5,"lon":148.316666},"name":"Thredbo Village"},{"country":"AR","id":3435857,"coord":{"lat":-36.380299,"lon":-59.501961},"name":"Cachar\u00ed"},{"country":"AU","id":7839550,"coord":{"lat":-36.427422,"lon":145.415192},"name":"Greater Shepparton"},{"country":"AU","id":2149645,"coord":{"lat":-36.383331,"lon":145.399994},"name":"Shepparton"},{"country":"AR","id":3435032,"coord":{"lat":-36.416672,"lon":-57.666672},"name":"Partido de Dolores"},{"country":"AR","id":3435038,"coord":{"lat":-36.313221,"lon":-57.67918},"name":"Dolores"},{"country":"AU","id":7839716,"coord":{"lat":-36.13467,"lon":149.070648},"name":"Cooma-Monaro"},{"country":"AU","id":2156063,"coord":{"lat":-36.116669,"lon":149.066666},"name":"Murrumbucca"},{"country":"AR","id":3844828,"coord":{"lat":-36.133331,"lon":-61.01667},"name":"Mariano Unzu\u00e9"},{"country":"AU","id":7839719,"coord":{"lat":-35.817039,"lon":146.327484},"name":"Corowa Shire"},{"country":"AU","id":2162994,"coord":{"lat":-35.966671,"lon":146.633331},"name":"Howlong"},{"country":"AU","id":7839359,"coord":{"lat":-35.933071,"lon":149.927795},"name":"Eurobodalla"},{"country":"AU","id":2157336,"coord":{"lat":-35.883331,"lon":150.050003},"name":"Mogendoura"},{"country":"AU","id":7839827,"coord":{"lat":-35.100609,"lon":143.168106},"name":"Swan Hill"},{"country":"AU","id":2147756,"coord":{"lat":-35.337811,"lon":143.554398},"name":"Swan Hill"},{"country":"AU","id":7839778,"coord":{"lat":-35.185871,"lon":147.355087},"name":"Wagga Wagga"},{"country":"AU","id":2160774,"coord":{"lat":-35.166672,"lon":147.383331},"name":"Lake Albert"},{"country":"AU","id":2158985,"coord":{"lat":-35.066669,"lon":147.266663},"name":"Malebo"},{"country":"AU","id":7839465,"coord":{"lat":-34.953918,"lon":138.607986},"name":"Unley"},{"country":"AU","id":2078025,"coord":{"lat":-34.933331,"lon":138.600006},"name":"Adelaide"},{"country":"AU","id":7289886,"coord":{"lat":-34.951,"lon":138.628998},"name":"Fullarton"},{"country":"AU","id":7839653,"coord":{"lat":-34.900669,"lon":138.531815},"name":"Charles Sturt"},{"country":"AU","id":2057897,"coord":{"lat":-34.883331,"lon":138.550003},"name":"Woodville"},{"country":"AU","id":7839651,"coord":{"lat":-34.885448,"lon":138.685455},"name":"Campbelltown"},{"country":"AU","id":6943474,"coord":{"lat":-34.869789,"lon":138.702881},"name":"Athelstone"},{"country":"UY","id":3439705,"coord":{"lat":-33,"lon":-56},"name":"Oriental Republic of Uruguay"},{"country":"UY","id":3441890,"coord":{"lat":-34.666672,"lon":-54.916672},"name":"Departamento de Maldonado"},{"country":"AR","id":3427473,"coord":{"lat":-34.52647,"lon":-58.746559},"name":"Villa Altube"},{"country":"UY","id":3443411,"coord":{"lat":-34.64444,"lon":-56.288609},"name":"Departamento de Canelones"},{"country":"AU","id":2072525,"coord":{"lat":-34.450001,"lon":138.350006},"name":"Dublin"},{"country":"AU","id":2058185,"coord":{"lat":-34.416672,"lon":138.333328},"name":"Windsor"},{"country":"ZA","id":953987,"coord":{"lat":-30,"lon":26},"name":"Republic of South Africa"},{"country":"ZA","id":1085599,"coord":{"lat":-34,"lon":20},"name":"Province of the Western Cape"},{"country":"ZA","id":963941,"coord":{"lat":-34.268242,"lon":20.07873},"name":"Protem"},{"country":"ZA","id":3365617,"coord":{"lat":-34.306171,"lon":19.96633},"name":"Klipdale"},{"country":"AU","id":7839787,"coord":{"lat":-33.671059,"lon":142.336746},"name":"Wentworth"},{"country":"AU","id":2169405,"coord":{"lat":-34.099998,"lon":142.050003},"name":"Dareton"},{"country":"CL","id":3897287,"coord":{"lat":-34.099998,"lon":-70.449997},"name":"Caletones"},{"country":"AR","id":3860255,"coord":{"lat":-32,"lon":-64},"name":"Provincia de C\u00f3rdoba"},{"country":"AR","id":3838596,"coord":{"lat":-34.173458,"lon":-63.153099},"name":"Rosales"},{"country":"ZA","id":3367634,"coord":{"lat":-33.994331,"lon":18.44351},"name":"Glen Dirk"},{"country":"ZA","id":3362764,"coord":{"lat":-34.019089,"lon":18.47834},"name":"Plumstead"},{"country":"ZA","id":3361077,"coord":{"lat":-34.074421,"lon":18.47023},"name":"Steenberg"},{"country":"ZA","id":3363222,"coord":{"lat":-34.016781,"lon":18.505039},"name":"Ottery"},{"country":"AU","id":2172583,"coord":{"lat":-34.083328,"lon":150.833328},"name":"Campbelltown Municipality"},{"country":"AU","id":2162733,"coord":{"lat":-34,"lon":150.866669},"name":"Ingleburn"},{"country":"ZA","id":1085593,"coord":{"lat":-32,"lon":26},"name":"Province of Eastern Cape"},{"country":"ZA","id":957517,"coord":{"lat":-34.01667,"lon":24.5},"name":"Sardinia Bay"},{"country":"ZA","id":3361025,"coord":{"lat":-33.93462,"lon":18.86676},"name":"Stellenbosch"},{"country":"AU","id":2171586,"coord":{"lat":-33.900002,"lon":150.949997},"name":"Chipping Norton"},{"country":"ZA","id":3370221,"coord":{"lat":-33.916672,"lon":18.91667},"name":"Banghoek"},{"country":"ZA","id":3367573,"coord":{"lat":-33.904919,"lon":18.548809},"name":"Goodwood"},{"country":"ZA","id":3363978,"coord":{"lat":-33.87925,"lon":18.55385},"name":"Monte Vista"},{"country":"AU","id":7839782,"coord":{"lat":-33.703419,"lon":151.239227},"name":"Warringah"},{"country":"AU","id":2208305,"coord":{"lat":-33.75,"lon":151.300003},"name":"Dee Why"},{"country":"AU","id":2176062,"coord":{"lat":-33.616669,"lon":151.100006},"name":"Berrilee"},{"country":"AR","id":3844419,"coord":{"lat":-34.5,"lon":-68.5},"name":"Provincia de Mendoza"},{"country":"AR","id":3832120,"coord":{"lat":-33.479801,"lon":-68.97905},"name":"Zapata"},{"country":"CL","id":3873544,"coord":{"lat":-33.472691,"lon":-70.64724},"name":"Regi\u00f3n Metropolitana de Santiago"},{"country":"CL","id":3881849,"coord":{"lat":-33.416672,"lon":-71.400002},"name":"Los Maitenes"},{"country":"AU","id":2175228,"coord":{"lat":-33.63203,"lon":150.412933},"name":"Blue Mountains Municipality"},{"country":"AU","id":2156614,"coord":{"lat":-33.5,"lon":150.466675},"name":"Mount Irvine"},{"country":"CL","id":3886043,"coord":{"lat":-33.366669,"lon":-70.400002},"name":"La Ermita"},{"country":"AU","id":2154212,"coord":{"lat":-33.328339,"lon":149.12294},"name":"Orange Municipality"},{"country":"AU","id":2154219,"coord":{"lat":-33.28397,"lon":149.100174},"name":"Orange"},{"country":"CL","id":3868168,"coord":{"lat":-33.26667,"lon":-70.300003},"name":"Villa Paulina"},{"country":"ZA","id":1001783,"coord":{"lat":-33.216671,"lon":26.383329},"name":"Glen Ambrose"},{"country":"UY","id":3440054,"coord":{"lat":-33.5,"lon":-57.75},"name":"Departamento de Soriano"},{"country":"UY","id":3441684,"coord":{"lat":-33.252399,"lon":-58.030472},"name":"Mercedes"},{"country":"CL","id":3868621,"coord":{"lat":-32.75,"lon":-71.333328},"name":"Regi\u00f3n de Valpara\u00edso"},{"country":"CL","id":3875684,"coord":{"lat":-33.116669,"lon":-71.583328},"name":"Placilla de Pe\u00f1uelas"},{"country":"AR","id":3866062,"coord":{"lat":-33.033329,"lon":-68.366669},"name":"Alto del Salvador"},{"country":"CL","id":3883214,"coord":{"lat":-33.01667,"lon":-71.26667},"name":"Limache"},{"country":"AU","id":7839710,"coord":{"lat":-32.893909,"lon":151.212341},"name":"Cessnock"},{"country":"AU","id":6696791,"coord":{"lat":-32.770531,"lon":151.364822},"name":"Lovedale"},{"country":"CL","id":3874005,"coord":{"lat":-32.450001,"lon":-71.316673},"name":"Quinquimo"},{"country":"ZA","id":973786,"coord":{"lat":-32.366669,"lon":25.683331},"name":"Mortimer"},{"country":"AU","id":7839358,"coord":{"lat":-32.346191,"lon":151.611221},"name":"Dungog"},{"country":"AU","id":2173211,"coord":{"lat":-32.5,"lon":151.533325},"name":"Bunnabunoo"},{"country":"AR","id":3838445,"coord":{"lat":-32.408218,"lon":-62.10244},"name":"Saira"},{"country":"AR","id":3834499,"coord":{"lat":-32.527382,"lon":-69.015892},"name":"Termas Villavicencio"},{"country":"AU","id":2168303,"coord":{"lat":-32.269798,"lon":148.695724},"name":"Dubbo Municipality"},{"country":"AU","id":2168305,"coord":{"lat":-32.25,"lon":148.616669},"name":"Dubbo"},{"country":"ZA","id":1020641,"coord":{"lat":-32.356709,"lon":22.582951},"name":"Beaufort West"},{"country":"ZA","id":1000543,"coord":{"lat":-32.252151,"lon":24.53075},"name":"Graaff-Reinet"},{"country":"ZA","id":3367527,"coord":{"lat":-32.154659,"lon":18.603189},"name":"Graafwater"},{"country":"AU","id":7839652,"coord":{"lat":-32.147362,"lon":133.862885},"name":"Ceduna"},{"country":"AU","id":2077489,"coord":{"lat":-32.01667,"lon":133.433334},"name":"Athenna"},{"country":"AU","id":7839370,"coord":{"lat":-31.98126,"lon":150.692825},"name":"Upper Hunter Shire"},{"country":"AU","id":2150096,"coord":{"lat":-32.083328,"lon":150.850006},"name":"Scone"},{"country":"AU","id":2165153,"coord":{"lat":-31.88789,"lon":151.775986},"name":"Gloucester Shire"},{"country":"AU","id":2165159,"coord":{"lat":-32,"lon":151.966675},"name":"Gloucester"},{"country":"AU","id":7839518,"coord":{"lat":-32.003979,"lon":116.132919},"name":"Kalamunda"},{"country":"AU","id":2059245,"coord":{"lat":-32,"lon":116.066673},"name":"Walliston"},{"country":"AU","id":2173910,"coord":{"lat":-31.950001,"lon":141.433334},"name":"Broken Hill Municipality"},{"country":"AU","id":2173911,"coord":{"lat":-31.950001,"lon":141.433334},"name":"Broken Hill"},{"country":"AU","id":7839365,"coord":{"lat":-31.804911,"lon":152.279556},"name":"Greater Taree"},{"country":"AU","id":2169736,"coord":{"lat":-31.9,"lon":152.533325},"name":"Cundletown"},{"country":"AU","id":7839639,"coord":{"lat":-31.89036,"lon":115.82209},"name":"Stirling"},{"country":"AU","id":2070165,"coord":{"lat":-31.84898,"lon":115.807571},"name":"Hamersley"},{"country":"AU","id":2146205,"coord":{"lat":-31.466669,"lon":141.483337},"name":"Torrowangee"},{"country":"ZA","id":1085596,"coord":{"lat":-29.5,"lon":22},"name":"Province of Northern Cape"},{"country":"AU","id":7839712,"coord":{"lat":-31.966129,"lon":145.360626},"name":"Cobar"},{"country":"AU","id":2171216,"coord":{"lat":-31.5,"lon":145.816666},"name":"Cobar"},{"country":"AU","id":7839709,"coord":{"lat":-31.771549,"lon":143.625687},"name":"Central Darling"},{"country":"AU","id":2143679,"coord":{"lat":-31.566669,"lon":143.383331},"name":"Wilcannia"},{"country":"AR","id":3434137,"coord":{"lat":-32,"lon":-59},"name":"Provincia de Entre R\u00edos"},{"country":"AR","id":3430634,"coord":{"lat":-31.509741,"lon":-59.201801},"name":"Mojones Norte"},{"country":"AU","id":7839765,"coord":{"lat":-31.421061,"lon":152.519165},"name":"Port Macquarie-Hastings"},{"country":"AU","id":2163498,"coord":{"lat":-31.433331,"lon":152.866669},"name":"Hibbard"},{"country":"AR","id":3841689,"coord":{"lat":-31.3706,"lon":-63.530842},"name":"Pedro E. Vivas"},{"country":"AU","id":7839509,"coord":{"lat":-31.184349,"lon":115.659439},"name":"Gingin"},{"country":"AU","id":2065908,"coord":{"lat":-31.33333,"lon":116.01667},"name":"Mooliabeenee"},{"country":"UY","id":3440711,"coord":{"lat":-31.41667,"lon":-57},"name":"Departamento de Salto"},{"country":"UY","id":3440714,"coord":{"lat":-31.383329,"lon":-57.966671},"name":"Salto"},{"country":"AR","id":3848949,"coord":{"lat":-30,"lon":-67.5},"name":"Provincia de La Rioja"},{"country":"AR","id":3859437,"coord":{"lat":-31.21154,"lon":-66.315483},"name":"Desiderio Tello"},{"country":"ZA","id":1013311,"coord":{"lat":-31.08148,"lon":27.44853},"name":"Clifford"},{"country":"AU","id":2057826,"coord":{"lat":-31.15,"lon":136.800003},"name":"Woomera"},{"country":"AU","id":7839737,"coord":{"lat":-30.905531,"lon":152.686081},"name":"Kempsey"},{"country":"AU","id":2144631,"coord":{"lat":-31.066669,"lon":152.783325},"name":"Warneton"},{"country":"AU","id":2147495,"coord":{"lat":-30.922041,"lon":150.815262},"name":"Tamworth Municipality"},{"country":"AU","id":2147475,"coord":{"lat":-31.066669,"lon":150.833328},"name":"Tangaratta"},{"country":"AU","id":7839725,"coord":{"lat":-31.02404,"lon":150.115479},"name":"Gunnedah"},{"country":"AU","id":2164206,"coord":{"lat":-30.98333,"lon":150.25},"name":"Gunnedah"},{"country":"AU","id":2143839,"coord":{"lat":-30.85,"lon":143.083328},"name":"White Cliffs"},{"country":"ZA","id":993643,"coord":{"lat":-30.58157,"lon":26.21751},"name":"Josefsdeel"},{"country":"AU","id":2177670,"coord":{"lat":-30.58124,"lon":151.874863},"name":"Armidale Dumaresq"},{"country":"AU","id":2177671,"coord":{"lat":-30.51667,"lon":151.649994},"name":"Armidale"},{"country":"AU","id":7839519,"coord":{"lat":-30.77632,"lon":124.92347},"name":"Kalgoorlie/Boulder"},{"country":"AU","id":2071379,"coord":{"lat":-30.85,"lon":128.100006},"name":"Forrest"},{"country":"AU","id":2063994,"coord":{"lat":-30.48333,"lon":121.333328},"name":"Paddington"},{"country":"ZA","id":967573,"coord":{"lat":-29,"lon":26},"name":"Free State"},{"country":"ZA","id":944403,"coord":{"lat":-30.44841,"lon":26.44364},"name":"Verdun"},{"country":"ZA","id":964334,"coord":{"lat":-30.204109,"lon":24.108879},"name":"Potfontein"},{"country":"ZA","id":1015612,"coord":{"lat":-30.58746,"lon":23.50391},"name":"Britstown"},{"country":"AU","id":7839755,"coord":{"lat":-30.327789,"lon":149.602417},"name":"Narrabri"},{"country":"AU","id":2155742,"coord":{"lat":-30.316669,"lon":149.783325},"name":"Narrabri"},{"country":"AU","id":7839713,"coord":{"lat":-30.172939,"lon":153.032623},"name":"Coffs Harbour"},{"country":"AR","id":3861824,"coord":{"lat":-30.36002,"lon":-66.313988},"name":"Chamical"},{"country":"AU","id":2171867,"coord":{"lat":-30.200001,"lon":153.100006},"name":"Central Bucca"},{"country":"ZA","id":998606,"coord":{"lat":-30.189079,"lon":26.99441},"name":"Guinesses"},{"country":"AR","id":3837152,"coord":{"lat":-31,"lon":-69},"name":"Provincia de San Juan"},{"country":"AR","id":3854137,"coord":{"lat":-30.15,"lon":-68.51667},"name":"Huaco"},{"country":"ZA","id":972062,"coord":{"lat":-29,"lon":30},"name":"Province of KwaZulu-Natal"},{"country":"ZA","id":1022953,"coord":{"lat":-30.052191,"lon":30.885269},"name":"Amanzimtoti"},{"country":"AU","id":7839701,"coord":{"lat":-29.99584,"lon":145.361603},"name":"Bourke"},{"country":"AU","id":2155047,"coord":{"lat":-30.049999,"lon":145.949997},"name":"North Bourke"},{"country":"AU","id":7839781,"coord":{"lat":-29.79031,"lon":148.133926},"name":"Walgett"},{"country":"AU","id":2145049,"coord":{"lat":-30.01667,"lon":148.116669},"name":"Walgett"},{"country":"BR","id":3451133,"coord":{"lat":-30,"lon":-54},"name":"Estado do Rio Grande do Sul"},{"country":"BR","id":3456282,"coord":{"lat":-29.950001,"lon":-51.166672},"name":"Niter\u00f3i"},{"country":"BR","id":3473920,"coord":{"lat":-30.004169,"lon":-51.174999},"name":"S\u00e3o Jo\u00e3o"},{"country":"AU","id":7839734,"coord":{"lat":-29.31526,"lon":151.04187},"name":"Inverell"},{"country":"AU","id":2162662,"coord":{"lat":-29.783331,"lon":151.116669},"name":"Inverell"},{"country":"AU","id":7839711,"coord":{"lat":-29.694441,"lon":152.781555},"name":"Clarence Valley"},{"country":"AU","id":2165186,"coord":{"lat":-29.783331,"lon":153.016663},"name":"Glen Ugie"},{"country":"AU","id":7839363,"coord":{"lat":-29.631161,"lon":151.939575},"name":"Glen Innes Severn"},{"country":"AU","id":2171496,"coord":{"lat":-29.716669,"lon":151.699997},"name":"Clairville"},{"country":"ZA","id":943951,"coord":{"lat":-29.57617,"lon":30.573669},"name":"Villa Maria"},{"country":"AR","id":3835868,"coord":{"lat":-28,"lon":-63.5},"name":"Provincia de Santiago del Estero"},{"country":"AR","id":3839792,"coord":{"lat":-29.33333,"lon":-63.333328},"name":"Departamento de Quebrachos"},{"country":"AR","id":3836139,"coord":{"lat":-29.48333,"lon":-63.400002},"name":"Santa Mar\u00eda"},{"country":"AU","id":7839752,"coord":{"lat":-29.32131,"lon":149.581207},"name":"Moree Plains"},{"country":"AU","id":2156927,"coord":{"lat":-29.466669,"lon":149.850006},"name":"Moree"},{"country":"ZA","id":995202,"coord":{"lat":-29.477949,"lon":30.23057},"name":"Howick"},{"country":"ZA","id":1001719,"coord":{"lat":-29.23333,"lon":30.216669},"name":"Glendean"},{"country":"ZA","id":978660,"coord":{"lat":-29.1838,"lon":27.287901},"name":"Marseilles"},{"country":"AU","id":7839767,"coord":{"lat":-29.02684,"lon":153.086243},"name":"Richmond Valley"},{"country":"AU","id":2167050,"coord":{"lat":-29.116671,"lon":153.433334},"name":"Evans Head"},{"country":"AR","id":3857886,"coord":{"lat":-29.16667,"lon":-67.099998},"name":"El Huaco"},{"country":"ZA","id":996571,"coord":{"lat":-29.066669,"lon":26.183331},"name":"Highlands"},{"country":"ZA","id":972755,"coord":{"lat":-28.984961,"lon":30.37146},"name":"Muden"},{"country":"NF","id":2155115,"coord":{"lat":-29.033331,"lon":167.949997},"name":"Territory of Norfolk Island"},{"country":"ZA","id":997324,"coord":{"lat":-28.07905,"lon":30.1252},"name":"Hattingspruit"},{"country":"ZA","id":987015,"coord":{"lat":-27.933331,"lon":29.5},"name":"Kromhof"},{"country":"AR","id":3862286,"coord":{"lat":-27,"lon":-67},"name":"Provincia de Catamarca"},{"country":"AR","id":3849182,"coord":{"lat":-28.12044,"lon":-67.508774},"name":"La Puntilla"},{"country":"ZA","id":940909,"coord":{"lat":-27.986441,"lon":26.70661},"name":"Welkom"},{"country":"ZA","id":1020604,"coord":{"lat":-27.966669,"lon":26.683331},"name":"Bedelia West"},{"country":"AU","id":7839390,"coord":{"lat":-28.040211,"lon":152.806885},"name":"Scenic Rim"},{"country":"AU","id":2147509,"coord":{"lat":-27.883329,"lon":153.133331},"name":"Tambourine"},{"country":"AU","id":7839591,"coord":{"lat":-27.762939,"lon":153.044922},"name":"Logan"},{"country":"AU","id":2173682,"coord":{"lat":-27.75,"lon":153.133331},"name":"Buccan"},{"country":"BR","id":3450387,"coord":{"lat":-27,"lon":-50},"name":"Estado de Santa Catarina"},{"country":"BR","id":3452120,"coord":{"lat":-27.683331,"lon":-49.216671},"name":"Quebra Dentes"},{"country":"AU","id":7839586,"coord":{"lat":-27.6779,"lon":152.66188},"name":"Ipswich"},{"country":"AU","id":2178352,"coord":{"lat":-27.566669,"lon":152.783325},"name":"Abermain"},{"country":"AU","id":7839562,"coord":{"lat":-27.44573,"lon":153.029938},"name":"Brisbane"},{"country":"AU","id":2150650,"coord":{"lat":-27.5,"lon":153},"name":"Saint Lucia"},{"country":"ZA","id":996683,"coord":{"lat":-27.44894,"lon":27.41857},"name":"Heuningspruit"},{"country":"AU","id":7839391,"coord":{"lat":-27.01133,"lon":152.415207},"name":"Somerset"},{"country":"AU","id":2173694,"coord":{"lat":-27.41667,"lon":152.416672},"name":"Buaraba Creek"},{"country":"AU","id":2177546,"coord":{"lat":-27.366671,"lon":153.016663},"name":"Aspley"},{"country":"AU","id":2178208,"coord":{"lat":-27.35,"lon":152.983337},"name":"Albany Creek"},{"country":"AU","id":6945028,"coord":{"lat":-27.355379,"lon":152.994324},"name":"Bridegman Downs"},{"country":"AU","id":6943556,"coord":{"lat":-27.342649,"lon":153.044434},"name":"Taigum"},{"country":"AU","id":7839376,"coord":{"lat":-27.107309,"lon":152.929367},"name":"Moreton Bay"},{"country":"AU","id":6943561,"coord":{"lat":-27.24349,"lon":153.023834},"name":"Mango Hill"},{"country":"CL","id":3899191,"coord":{"lat":-27.5,"lon":-70},"name":"Regi\u00f3n de Atacama"},{"country":"CL","id":3879750,"coord":{"lat":-27.35,"lon":-70.366669},"name":"Mirador"},{"country":"ZA","id":986958,"coord":{"lat":-27.075411,"lon":28.31756},"name":"Krompan"},{"country":"SZ","id":934841,"coord":{"lat":-26.5,"lon":31.5},"name":"Kingdom of Swaziland"},{"country":"ZA","id":994334,"coord":{"lat":-26.33201,"lon":27.98901},"name":"Jackson\u2019s Drift"},{"country":"ZA","id":991676,"coord":{"lat":-26.299999,"lon":28.23333},"name":"Kate Hamel"},{"country":"ZA","id":1085595,"coord":{"lat":-26,"lon":30},"name":"Mpumalanga"},{"country":"ZA","id":1010245,"coord":{"lat":-26.32745,"lon":29.51156},"name":"Diepfontein"},{"country":"SZ","id":934959,"coord":{"lat":-26.25,"lon":31.58333},"name":"Mliba"},{"country":"AU","id":7839379,"coord":{"lat":-26.136089,"lon":146.604095},"name":"Murweh"},{"country":"AU","id":2171764,"coord":{"lat":-26.4,"lon":146.25},"name":"Charleville"},{"country":"ZA","id":1017780,"coord":{"lat":-26.211969,"lon":28.259581},"name":"Boksburg"},{"country":"BR","id":3458147,"coord":{"lat":-26.111389,"lon":-49.805279},"name":"Mafra"},{"country":"ZA","id":982899,"coord":{"lat":-26.152,"lon":26.159679},"name":"Lichtenburg"},{"country":"ZA","id":7870444,"coord":{"lat":-26.087469,"lon":28.122601},"name":"Linbro Park"},{"country":"ZA","id":1008613,"coord":{"lat":-26.02817,"lon":29.368179},"name":"Douglas"},{"country":"ZA","id":995746,"coord":{"lat":-25.533331,"lon":28.15},"name":"Honeyvale"},{"country":"ZA","id":1105735,"coord":{"lat":-25.47109,"lon":28.63913},"name":"Sybrandskraal"},{"country":"BW","id":933860,"coord":{"lat":-22,"lon":24},"name":"Republic of Botswana"},{"country":"AU","id":2064513,"coord":{"lat":-20,"lon":134},"name":"Northern Territory"},{"country":"AU","id":7839564,"coord":{"lat":-24.973049,"lon":151.984421},"name":"Bundaberg"},{"country":"AU","id":2175751,"coord":{"lat":-24.933331,"lon":152.199997},"name":"Bingera Plantation"},{"country":"NA","id":3355338,"coord":{"lat":-22,"lon":17},"name":"Republic of Namibia"},{"country":"BR","id":3471393,"coord":{"lat":-23.396111,"lon":-46.320831},"name":"Aruja"},{"country":"BR","id":3469860,"coord":{"lat":-23.35,"lon":-47.066669},"name":"Boa Vargem Grande"},{"country":"PY","id":3438833,"coord":{"lat":-23.1775,"lon":-57.1675},"name":"Departamento de Concepci\u00f3n"},{"country":"PY","id":3439018,"coord":{"lat":-23.299999,"lon":-57.183331},"name":"Colonia Hernandarias"},{"country":"AU","id":7839592,"coord":{"lat":-23.875999,"lon":143.867081},"name":"Longreach"},{"country":"AU","id":2170081,"coord":{"lat":-23.4,"lon":144.233337},"name":"Cramsie"},{"country":"AU","id":7839659,"coord":{"lat":-22.276739,"lon":116.900574},"name":"Ashburton"},{"country":"AU","id":6354929,"coord":{"lat":-22.693899,"lon":117.793098},"name":"Tom Price"},{"country":"BW","id":933851,"coord":{"lat":-22,"lon":26},"name":"Central District"},{"country":"BW","id":933064,"coord":{"lat":-23.0389,"lon":26.51},"name":"Shoshong"},{"country":"BR","id":3445506,"coord":{"lat":-22.98333,"lon":-45.283329},"name":"Vargem Grande"},{"country":"BR","id":3451189,"coord":{"lat":-22,"lon":-42.5},"name":"Estado do Rio de Janeiro"},{"country":"BR","id":7538753,"coord":{"lat":-22.81415,"lon":-43.230709},"name":"Vila Joaniza"},{"country":"BR","id":3461200,"coord":{"lat":-22.569719,"lon":-43.185001},"name":"Inhomirim"},{"country":"BR","id":7498584,"coord":{"lat":-22.509069,"lon":-43.182339},"name":"Centro Hist\u00f3rico de Petropolis"},{"country":"BR","id":3451149,"coord":{"lat":-22.466669,"lon":-42.066669},"name":"Rio Dourado"},{"country":"NA","id":3352137,"coord":{"lat":-22.75,"lon":17.08333},"name":"Khomas"},{"country":"NA","id":3357953,"coord":{"lat":-22.33333,"lon":17.1},"name":"D\u00f6bra"},{"country":"MG","id":1062947,"coord":{"lat":-20,"lon":47},"name":"Republic of Madagascar"},{"country":"NC","id":2139685,"coord":{"lat":-21.5,"lon":165.5},"name":"Nouvelle-Cal\u00e9donie"},{"country":"US","id":4330185,"coord":{"lat":29.566879,"lon":-90.383408},"name":"Lafourche Parish"},{"country":"US","id":4337845,"coord":{"lat":29.105789,"lon":-90.194519},"name":"Port Fourchon"},{"country":"US","id":4337142,"coord":{"lat":29.18161,"lon":-89.257553},"name":"Pilottown"},{"country":"US","id":4330751,"coord":{"lat":29.247999,"lon":-90.207581},"name":"Leeville"},{"country":"US","id":4692856,"coord":{"lat":29.366899,"lon":-94.966873},"name":"Galveston County"},{"country":"US","id":4671160,"coord":{"lat":29.383289,"lon":-95.120209},"name":"Arcadia"},{"country":"US","id":4343313,"coord":{"lat":29.37661,"lon":-90.85009},"name":"Terrebonne Parish"},{"country":"US","id":7708264,"coord":{"lat":29.639339,"lon":-90.960449},"name":"Donna Lynns Mobile Home Park"},{"country":"US","id":4695361,"coord":{"lat":29.5669,"lon":-97.966949},"name":"Guadalupe County"},{"country":"US","id":4716663,"coord":{"lat":29.44079,"lon":-98.03389},"name":"Olmos"},{"country":"US","id":4145709,"coord":{"lat":29.70858,"lon":-82.33316},"name":"Alachua County"},{"country":"US","id":4162526,"coord":{"lat":29.511641,"lon":-82.100372},"name":"Lochloosa"},{"country":"US","id":4328978,"coord":{"lat":29.73354,"lon":-90.100067},"name":"Jefferson Parish"},{"country":"US","id":4330172,"coord":{"lat":29.66688,"lon":-90.108414},"name":"Lafitte"},{"country":"US","id":5524590,"coord":{"lat":29.33357,"lon":-100.417023},"name":"Kinney County"},{"country":"US","id":5525474,"coord":{"lat":29.609119,"lon":-100.17952},"name":"Lost Creek Place"},{"country":"US","id":4161127,"coord":{"lat":29.958561,"lon":-83.208191},"name":"Lafayette County"},{"country":"US","id":4175568,"coord":{"lat":30.12911,"lon":-83.33931},"name":"Townsend"},{"country":"US","id":4318690,"coord":{"lat":29.86688,"lon":-93.21682},"name":"Cameron Parish"},{"country":"US","id":4326758,"coord":{"lat":29.99605,"lon":-93.342102},"name":"Hackberry"},{"country":"US","id":4153840,"coord":{"lat":30.356911,"lon":-81.631477},"name":"Duval County"},{"country":"US","id":4146885,"coord":{"lat":30.143579,"lon":-81.512863},"name":"Bayard"},{"country":"US","id":4318583,"coord":{"lat":30.23354,"lon":-93.350159},"name":"Calcasieu Parish"},{"country":"US","id":4327698,"coord":{"lat":30.12604,"lon":-93.079872},"name":"Holmwood"},{"country":"US","id":4436296,"coord":{"lat":32.750408,"lon":-89.750359},"name":"Mississippi"},{"country":"US","id":4428961,"coord":{"lat":30.35158,"lon":-89.398376},"name":"Hancock County"},{"country":"US","id":4416315,"coord":{"lat":30.225201,"lon":-89.483658},"name":"Ansley"},{"country":"US","id":5517580,"coord":{"lat":29.833521,"lon":-103.251007},"name":"Brewster County"},{"country":"US","id":5525016,"coord":{"lat":30.236549,"lon":-103.378792},"name":"Lenox"},{"country":"US","id":4737316,"coord":{"lat":30.33354,"lon":-97.800293},"name":"Travis County"},{"country":"US","id":4708350,"coord":{"lat":30.406601,"lon":-97.396393},"name":"Lund"},{"country":"US","id":4677612,"coord":{"lat":30.78352,"lon":-98.18364},"name":"Burnet County"},{"country":"US","id":4733544,"coord":{"lat":30.47547,"lon":-98.15641},"name":"Spicewood"},{"country":"US","id":4146810,"coord":{"lat":30.20853,"lon":-85.624367},"name":"Bay County"},{"country":"US","id":4147546,"coord":{"lat":30.537689,"lon":-85.393257},"name":"Betts"},{"country":"US","id":4677558,"coord":{"lat":30.51687,"lon":-96.61692},"name":"Burleson County"},{"country":"US","id":4680367,"coord":{"lat":30.521311,"lon":-96.3908},"name":"Chances Store"},{"country":"US","id":4705179,"coord":{"lat":31.216829,"lon":-98.233643},"name":"Lampasas County"},{"country":"US","id":4733487,"coord":{"lat":31.071011,"lon":-98.135307},"name":"Sparks Crossing"},{"country":"US","id":4338356,"coord":{"lat":31.166849,"lon":-92.483467},"name":"Rapides Parish"},{"country":"US","id":4332064,"coord":{"lat":31.04463,"lon":-92.358467},"name":"Loyd"},{"country":"US","id":4829764,"coord":{"lat":32.750408,"lon":-86.750259},"name":"Alabama"},{"country":"US","id":4690103,"coord":{"lat":31.26684,"lon":-96.933601},"name":"Falls County"},{"country":"US","id":4679930,"coord":{"lat":31.24518,"lon":-97.162498},"name":"Cego"},{"country":"US","id":4197000,"coord":{"lat":32.75042,"lon":-83.500183},"name":"Georgia"},{"country":"US","id":4197388,"coord":{"lat":31.233561,"lon":-81.533157},"name":"Glynn County"},{"country":"US","id":5551752,"coord":{"lat":34.500301,"lon":-111.500977},"name":"Arizona"},{"country":"MX","id":4014336,"coord":{"lat":28.5,"lon":-106},"name":"Estado de Chihuahua"},{"country":"US","id":4717434,"coord":{"lat":32.166828,"lon":-94.300201},"name":"Panola County"},{"country":"US","id":4681806,"coord":{"lat":32.098221,"lon":-94.474922},"name":"Clayton"},{"country":"US","id":4191654,"coord":{"lat":32.18351,"lon":-83.166542},"name":"Dodge County"},{"country":"US","id":4187473,"coord":{"lat":32.104622,"lon":-83.06459},"name":"Chauncey"},{"country":"US","id":4332258,"coord":{"lat":32.36681,"lon":-91.251503},"name":"Madison Parish"},{"country":"US","id":5481136,"coord":{"lat":34.50034,"lon":-106.000847},"name":"New Mexico"},{"country":"US","id":5482932,"coord":{"lat":32.533428,"lon":-105.767197},"name":"Otero County"},{"country":"US","id":4701348,"coord":{"lat":32.38348,"lon":-97.366959},"name":"Johnson County"},{"country":"US","id":4707535,"coord":{"lat":32.268761,"lon":-97.474739},"name":"Lone Willow"},{"country":"MX","id":3982846,"coord":{"lat":29.33333,"lon":-110.666672},"name":"Estado de Sonora"},{"country":"MX","id":3971762,"coord":{"lat":32.361111,"lon":-114.421944},"name":"Ejido Reforma Agraria"},{"country":"MX","id":3971760,"coord":{"lat":32.296669,"lon":-114.183609},"name":"Ignacio Zaragoza"},{"country":"US","id":4074246,"coord":{"lat":32.400139,"lon":-85.81662},"name":"Macon County"},{"country":"US","id":4057493,"coord":{"lat":32.29459,"lon":-85.477448},"name":"Creek Stand"},{"country":"US","id":4670957,"coord":{"lat":32.31292,"lon":-97.198067},"name":"Antioch"},{"country":"US","id":4713849,"coord":{"lat":32.050152,"lon":-96.466927},"name":"Navarro County"},{"country":"US","id":4738810,"coord":{"lat":32.307919,"lon":-96.40554},"name":"Valley Farms"},{"country":"US","id":4047434,"coord":{"lat":32.350151,"lon":-85.199944},"name":"Russell County"},{"country":"US","id":4068770,"coord":{"lat":32.352921,"lon":-85.248001},"name":"Hyram"},{"country":"MX","id":3971761,"coord":{"lat":32.33778,"lon":-114.317497},"name":"Aquiles Serd\u00e1n"},{"country":"MX","id":4017700,"coord":{"lat":30,"lon":-115},"name":"Estado de Baja California"},{"country":"MX","id":3994978,"coord":{"lat":32.383331,"lon":-116.26667},"name":"Nej\u00ed"},{"country":"US","id":4193042,"coord":{"lat":32.366859,"lon":-81.333168},"name":"Effingham County"},{"country":"US","id":4182260,"coord":{"lat":32.413799,"lon":-81.354828},"name":"Bethel"},{"country":"US","id":4688864,"coord":{"lat":32.35014,"lon":-96.80027},"name":"Ellis County"},{"country":"US","id":4684202,"coord":{"lat":32.397919,"lon":-96.5811},"name":"Crisp"},{"country":"MX","id":4004930,"coord":{"lat":32.416672,"lon":-117.066673},"name":"Harry Manzo"},{"country":"US","id":4434666,"coord":{"lat":32.56514,"lon":-90.064529},"name":"Madison County"},{"country":"US","id":4433944,"coord":{"lat":32.552921,"lon":-90.216202},"name":"Livingston"},{"country":"US","id":5484708,"coord":{"lat":32.747028,"lon":-106.195831},"name":"Point of Sands"},{"country":"US","id":5495380,"coord":{"lat":33.073971,"lon":-106.0186},"name":"Tularosa"},{"country":"US","id":4679435,"coord":{"lat":33.066799,"lon":-94.350189},"name":"Cass County"},{"country":"US","id":4684396,"coord":{"lat":33.072899,"lon":-94.581871},"name":"Crossroads Community Centery"},{"country":"US","id":5165418,"coord":{"lat":40.25034,"lon":-83.000183},"name":"Ohio"},{"country":"US","id":5161272,"coord":{"lat":41.333382,"lon":-82.149872},"name":"Lorain County"},{"country":"US","id":7235893,"coord":{"lat":41.439171,"lon":-82.241943},"name":"Erie West Mobile Home Park"},{"country":"CA","id":6251999,"coord":{"lat":60.108669,"lon":-113.642578},"name":"Canada"},{"country":"CA","id":6093943,"coord":{"lat":49.250141,"lon":-84.499832},"name":"Ontario"},{"country":"CA","id":6051123,"coord":{"lat":42.054901,"lon":-82.606201},"name":"Leamington"},{"country":"CA","id":6944506,"coord":{"lat":41.99395,"lon":-82.534958},"name":"Point Pelee"},{"country":"CA","id":6115933,"coord":{"lat":42.300091,"lon":-81.916473},"name":"Raglan"},{"country":"CA","id":6179873,"coord":{"lat":42.10009,"lon":-82.449799},"name":"Wheatley"},{"country":"US","id":6254927,"coord":{"lat":40.272449,"lon":-76.90567},"name":"Pennsylvania"},{"country":"US","id":5188847,"coord":{"lat":42.125332,"lon":-79.875053},"name":"Erie County"},{"country":"US","id":5201874,"coord":{"lat":42.192001,"lon":-79.910049},"name":"Moorheadville"},{"country":"CA","id":5920450,"coord":{"lat":42.400089,"lon":-82.183098},"name":"Chatham-Kent"},{"country":"CA","id":6163631,"coord":{"lat":42.595901,"lon":-80.312958},"name":"The Cottages"},{"country":"CA","id":6109229,"coord":{"lat":42.949139,"lon":-81.19532},"name":"Pond Mills"},{"country":"CA","id":6165800,"coord":{"lat":43.04179,"lon":-81.054733},"name":"Three Bridges"},{"country":"US","id":5116642,"coord":{"lat":42.766731,"lon":-78.66642},"name":"Erie County"},{"country":"US","id":5137842,"coord":{"lat":42.995331,"lon":-79.015877},"name":"Sheenwater"},{"country":"CA","id":6165719,"coord":{"lat":43.116821,"lon":-79.199577},"name":"Thorold"},{"country":"CA","id":6112052,"coord":{"lat":43.216808,"lon":-79.23288},"name":"Port Weller"},{"country":"CA","id":5964960,"coord":{"lat":43.216789,"lon":-81.299751},"name":"Granton"},{"country":"CA","id":5991949,"coord":{"lat":43.416801,"lon":-80.232971},"name":"Killean"},{"country":"CA","id":6176823,"coord":{"lat":43.466801,"lon":-80.516388},"name":"Waterloo"},{"country":"US","id":5143455,"coord":{"lat":43.150059,"lon":-77.033028},"name":"Wayne County"},{"country":"US","id":5121009,"coord":{"lat":43.28701,"lon":-77.143593},"name":"Holland Cove"},{"country":"US","id":5129995,"coord":{"lat":43.25061,"lon":-78.233078},"name":"Orleans County"},{"country":"US","id":5125065,"coord":{"lat":43.372559,"lon":-78.080299},"name":"Lomond Shore"},{"country":"CA","id":5948045,"coord":{"lat":43.60009,"lon":-80.549698},"name":"Elmira"},{"country":"CA","id":6178999,"coord":{"lat":43.767559,"lon":-79.208252},"name":"West Hill"},{"country":"CA","id":8125784,"coord":{"lat":43.994301,"lon":-77.185822},"name":"Bloomfield"},