[{"country":"BR","id":3461013,"coord":{"lat":-11.30417,"lon":-41.855831},"name":"Irece"},{"country":"BR","id":3465748,"coord":{"lat":-11.56389,"lon":-39.28278},"name":"Conceicao do Coite"},{"country":"BR","id":3472378,"coord":{"lat":-13.85,"lon":-40.083328},"name":"Amaralina"},{"country":"BR","id":3472766,"coord":{"lat":-12.13556,"lon":-38.41917},"name":"Alagoinhas"},{"country":"BR","id":3386533,"coord":{"lat":-7.22278,"lon":-37.254169},"name":"Teixeira"},{"country":"BR","id":3456366,"coord":{"lat":-13.035,"lon":-39.014439},"name":"Nazare"},{"country":"BR","id":6320490,"coord":{"lat":-8.17924,"lon":-36.027939},"name":"Caruaru"},{"country":"BR","id":3402655,"coord":{"lat":-8.28333,"lon":-35.976109},"name":"Caruaru"},{"country":"BR","id":3468893,"coord":{"lat":-14.20361,"lon":-41.665279},"name":"Brumado"},{"country":"BR","id":3461973,"coord":{"lat":-14.22333,"lon":-42.781391},"name":"Guanambi"},{"country":"BR","id":3460522,"coord":{"lat":-18.41917,"lon":-49.215279},"name":"Itumbiara"},{"country":"BR","id":3456117,"coord":{"lat":-19.87611,"lon":-44.983608},"name":"Nova Serrana"},{"country":"BR","id":3446232,"coord":{"lat":-29.98472,"lon":-50.13361},"name":"Tramandai"},{"country":"BR","id":3462419,"coord":{"lat":-28.02833,"lon":-54.34972},"name":"Girua"},{"country":"BR","id":3445350,"coord":{"lat":-29.60639,"lon":-52.19194},"name":"Venancio Aires"},{"country":"BR","id":3461194,"coord":{"lat":-16.35778,"lon":-49.496109},"name":"Inhumas"},{"country":"BR","id":3389673,"coord":{"lat":-6.22944,"lon":-36.022781},"name":"Santa Cruz"},{"country":"BR","id":3460651,"coord":{"lat":-22.23333,"lon":-48.71917},"name":"Itapui"},{"country":"BR","id":3447631,"coord":{"lat":-27.9025,"lon":-54.580559},"name":"Sete de Setembro"},{"country":"BR","id":3456998,"coord":{"lat":-22.43194,"lon":-46.957779},"name":"Mogi Mirim"},{"country":"BR","id":3464045,"coord":{"lat":-27.39056,"lon":-52.57056},"name":"Erval Grande"},{"country":"BR","id":3446370,"coord":{"lat":-24.71361,"lon":-53.743061},"name":"Toledo"},{"country":"BR","id":3471868,"coord":{"lat":-23.43861,"lon":-47.06139},"name":"Ara\u00e7ariguama"},{"country":"BR","id":3450400,"coord":{"lat":-23.396669,"lon":-45.883888},"name":"Santa Branca"},{"country":"BR","id":3445500,"coord":{"lat":-21.83222,"lon":-46.893608},"name":"Vargem Grande do Sul"},{"country":"BR","id":3446752,"coord":{"lat":-23.53306,"lon":-49.244438},"name":"Taquarituba"},{"country":"BR","id":3407327,"coord":{"lat":-9.7525,"lon":-36.66111},"name":"Arapiraca"},{"country":"BR","id":3456368,"coord":{"lat":-23.065001,"lon":-54.190559},"name":"Navirai"},{"country":"BR","id":3392887,"coord":{"lat":-7.02444,"lon":-37.279999},"name":"Patos"},{"country":"BR","id":3401963,"coord":{"lat":-6.02583,"lon":-44.249168},"name":"Colinas"},{"country":"BR","id":3459342,"coord":{"lat":-10.91722,"lon":-37.650002},"name":"Lagarto"},{"country":"BR","id":3924908,"coord":{"lat":-11.6725,"lon":-61.193611},"name":"Pimenta Bueno"},{"country":"BR","id":3406910,"coord":{"lat":-4.29167,"lon":-44.791672},"name":"Bacabal"},{"country":"BR","id":3924826,"coord":{"lat":-10.86667,"lon":-61.950001},"name":"Rond\u00f4nia"},{"country":"BR","id":3446038,"coord":{"lat":-16.649441,"lon":-49.488892},"name":"Trindade"},{"country":"BR","id":3461935,"coord":{"lat":-20.428329,"lon":-47.824169},"name":"Guara"},{"country":"BR","id":3451102,"coord":{"lat":-29.989719,"lon":-52.378059},"name":"Rio Pardo"},{"country":"BR","id":3405792,"coord":{"lat":-1.36139,"lon":-48.24472},"name":"Benevides"},{"country":"BR","id":3385935,"coord":{"lat":-3.76611,"lon":-49.672501},"name":"Tucurui"},{"country":"BR","id":3404817,"coord":{"lat":-1.68222,"lon":-50.480282},"name":"Breves"},{"country":"BR","id":3393758,"coord":{"lat":3.84306,"lon":-51.834999},"name":"Oiapoque"},{"country":"BR","id":3398352,"coord":{"lat":-7.83417,"lon":-34.906391},"name":"Igarassu"},{"country":"BR","id":3664956,"coord":{"lat":-8.75222,"lon":-67.397781},"name":"Boca do Acre"},{"country":"BR","id":3397893,"coord":{"lat":-3.14306,"lon":-58.444172},"name":"Itacoatiara"},{"country":"BR","id":3754145,"coord":{"lat":-3.16694,"lon":-60.083611},"name":"Ponto Cacau Pireira"},{"country":"BR","id":3466988,"coord":{"lat":-19.789721,"lon":-42.139172},"name":"Caratinga"},{"country":"BR","id":3389321,"coord":{"lat":-7.11389,"lon":-34.978062},"name":"Santa Rita"},{"country":"BR","id":3460954,"coord":{"lat":-20.25333,"lon":-43.801392},"name":"Itabirito"},{"country":"BR","id":3448828,"coord":{"lat":-28.29389,"lon":-49.931671},"name":"Sao Joaquim"},{"country":"BR","id":3457736,"coord":{"lat":-20.377781,"lon":-43.416111},"name":"Mariana"},{"country":"BR","id":3446621,"coord":{"lat":-17.8575,"lon":-41.50528},"name":"Teofilo Otoni"},{"country":"BR","id":3449212,"coord":{"lat":-12.60472,"lon":-38.972221},"name":"S\u00e3o F\u00e9lix"},{"country":"BR","id":3469587,"coord":{"lat":-23.102221,"lon":-48.257778},"name":"Bofete"},{"country":"BR","id":3457952,"coord":{"lat":-20.25806,"lon":-42.033611},"name":"Manhuacu"},{"country":"BR","id":3457479,"coord":{"lat":-21.869169,"lon":-43.319439},"name":"Matias Barbosa"},{"country":"BR","id":3466698,"coord":{"lat":-21.38917,"lon":-42.696671},"name":"Cataguases"},{"country":"BR","id":3470858,"coord":{"lat":-21.22583,"lon":-43.773609},"name":"Barbacena"},{"country":"BR","id":3397898,"coord":{"lat":-7.30444,"lon":-38.15028},"name":"Itaporanga"},{"country":"BR","id":3457202,"coord":{"lat":-11.42889,"lon":-40.595001},"name":"Miguel Calmon"},{"country":"BR","id":3452148,"coord":{"lat":-22.407221,"lon":-44.25806},"name":"Quatis"},{"country":"BR","id":7547406,"coord":{"lat":-22.440001,"lon":-44.3228},"name":"Ac\u00e1cias"},{"country":"BR","id":3446065,"coord":{"lat":-22.116671,"lon":-43.209171},"name":"Tres Rios"},{"country":"BR","id":7538229,"coord":{"lat":-22.80681,"lon":-43.358082},"name":"Vila Pedro II"},{"country":"BR","id":3457095,"coord":{"lat":-20.81917,"lon":-49.521111},"name":"Mirassol"},{"country":"BR","id":3461055,"coord":{"lat":-22.580561,"lon":-47.518608},"name":"Iracemapolis"},{"country":"BR","id":3397068,"coord":{"lat":-8.93472,"lon":-35.573608},"name":"Jundia"},{"country":"BR","id":3472638,"coord":{"lat":-29.78306,"lon":-55.791939},"name":"Alegrete"},{"country":"BR","id":3455769,"coord":{"lat":-29.886669,"lon":-50.269718},"name":"Osorio"},{"country":"BR","id":3461519,"coord":{"lat":-28.713329,"lon":-49.299999},"name":"Icara"},{"country":"BR","id":3455477,"coord":{"lat":-28.049999,"lon":-48.666672},"name":"Palhocinha"},{"country":"BR","id":3454213,"coord":{"lat":-26.76944,"lon":-48.645828},"name":"Penha"},{"country":"BR","id":7874557,"coord":{"lat":-27.62932,"lon":-48.66428},"name":"Jardim Eldorado"},{"country":"BR","id":3461914,"coord":{"lat":-26.473061,"lon":-49.002781},"name":"Guaramirim"},{"country":"BR","id":3395395,"coord":{"lat":-9.71028,"lon":-35.895},"name":"Marechal Deodoro"},{"country":"BR","id":3469522,"coord":{"lat":-27.14222,"lon":-48.509441},"name":"Bombas"},{"country":"BR","id":3467197,"coord":{"lat":-22.995001,"lon":-47.507778},"name":"Capivari"},{"country":"BR","id":3463066,"coord":{"lat":-28.747499,"lon":-49.472221},"name":"Forquilhinha"},{"country":"BR","id":3447822,"coord":{"lat":-26.933331,"lon":-50.450001},"name":"Sepultura"},{"country":"BR","id":3452900,"coord":{"lat":-27.15778,"lon":-48.553059},"name":"Porto Belo"},{"country":"BR","id":3472626,"coord":{"lat":-30.116671,"lon":-51.316669},"name":"Vila da Alegria"},{"country":"BR","id":3445938,"coord":{"lat":-29.476391,"lon":-51.421108},"name":"Tupandi"},{"country":"BR","id":3461659,"coord":{"lat":-27.62583,"lon":-54.307781},"name":"Horizontina"},{"country":"BR","id":3450357,"coord":{"lat":-29.468889,"lon":-52.087502},"name":"Santa Clara do Sul"},{"country":"BR","id":3466395,"coord":{"lat":-28.148609,"lon":-54.73806},"name":"Cerro Largo"},{"country":"BR","id":3449476,"coord":{"lat":-27.85083,"lon":-53.777222},"name":"Santo Augusto"},{"country":"BR","id":3410315,"coord":{"lat":-3.89472,"lon":-42.694172},"name":"Bras\u00edlia"},{"country":"BR","id":3400804,"coord":{"lat":-8.35917,"lon":-35.22361},"name":"Escada"},{"country":"BR","id":3398904,"coord":{"lat":-7.56056,"lon":-35.002499},"name":"Goiana"},{"country":"BR","id":3393264,"coord":{"lat":-8.68333,"lon":-35.591671},"name":"Palmares"},{"country":"BR","id":3386396,"coord":{"lat":-7.50528,"lon":-35.318329},"name":"Timbauba"},{"country":"BR","id":3408404,"coord":{"lat":-7.91167,"lon":-34.902779},"name":"Abreu e Lima"},{"country":"BR","id":3403360,"coord":{"lat":-8.88222,"lon":-36.191109},"name":"Canhotinho"},{"country":"BR","id":3402721,"coord":{"lat":-7.85083,"lon":-35.254719},"name":"Carpina"},{"country":"BR","id":3396049,"coord":{"lat":-5.71667,"lon":-35.549999},"name":"Maca\u00edba"},{"country":"BR","id":3452478,"coord":{"lat":-21.35944,"lon":-48.065559},"name":"Pradopolis"},{"country":"BR","id":3467975,"coord":{"lat":-23.582781,"lon":-51.578331},"name":"Cambira"},{"country":"BR","id":3471697,"coord":{"lat":-25.59306,"lon":-49.410278},"name":"Araucaria"},{"country":"BR","id":3461588,"coord":{"lat":-23.269171,"lon":-51.048061},"name":"Ibipora"},{"country":"BR","id":3467978,"coord":{"lat":-23.275829,"lon":-51.278332},"name":"Cambe"},{"country":"BR","id":3472518,"coord":{"lat":-25.32472,"lon":-49.310001},"name":"Almirante Tamandare"},{"country":"BR","id":3461702,"coord":{"lat":-22.067221,"lon":-45.542221},"name":"Heliodora"},{"country":"BR","id":3472254,"coord":{"lat":-22.06806,"lon":-46.569172},"name":"Andradas"},{"country":"BR","id":7304501,"coord":{"lat":-20.12431,"lon":-44.21875},"name":"Inhotim"},{"country":"BR","id":3450817,"coord":{"lat":-19.886391,"lon":-43.806671},"name":"Sabar\u00e1"},{"country":"BR","id":3472487,"coord":{"lat":-21.24917,"lon":-46.143059},"name":"Alterosa"},{"country":"BR","id":3664078,"coord":{"lat":-7.50611,"lon":-63.020828},"name":"Humaita"},{"country":"BR","id":3452711,"coord":{"lat":-10.70806,"lon":-48.417221},"name":"Porto Nacional"},{"country":"BR","id":3469385,"coord":{"lat":-15.51667,"lon":-47.633331},"name":"Bom Sucesso"},{"country":"BR","id":3464724,"coord":{"lat":-14.40861,"lon":-56.44611},"name":"Diamantino"},{"country":"BR","id":3453060,"coord":{"lat":-15.22611,"lon":-59.335281},"name":"Pontes e Lacerda"},{"country":"BR","id":3468551,"coord":{"lat":-16.07056,"lon":-57.67889},"name":"C\u00e1ceres"},{"country":"BR","id":3390907,"coord":{"lat":-4.97139,"lon":-39.015282},"name":"Quixada"},{"country":"BR","id":3394103,"coord":{"lat":-7.21667,"lon":-39.383331},"name":"Muriti"},{"country":"BR","id":3385226,"coord":{"lat":-3.68333,"lon":-38.650002},"name":"Veraneio Icara\u00ed"},{"country":"BR","id":3393409,"coord":{"lat":-4.1725,"lon":-38.46056},"name":"Pacajus"},{"country":"BR","id":3407378,"coord":{"lat":-4.56167,"lon":-37.769718},"name":"Aracati"},{"country":"BR","id":3468899,"coord":{"lat":-22.28417,"lon":-48.126671},"name":"Brotas"},{"country":"BR","id":3460971,"coord":{"lat":-11.27389,"lon":-37.790001},"name":"Itabaianinha"},{"country":"BR","id":3463900,"coord":{"lat":-11.26833,"lon":-37.438332},"name":"Estancia"},{"country":"BR","id":3472370,"coord":{"lat":-13.03028,"lon":-39.604721},"name":"Amargosa"},{"country":"BR","id":3397154,"coord":{"lat":-9.41167,"lon":-40.498611},"name":"Juazeiro"},{"country":"BR","id":3460344,"coord":{"lat":-11.18056,"lon":-40.51833},"name":"Jacobina"},{"country":"BR","id":3453452,"coord":{"lat":-12.66667,"lon":-38.549999},"name":"Pitinga"},{"country":"BR","id":3460974,"coord":{"lat":-10.685,"lon":-37.425282},"name":"Itabaiana"},{"country":"BR","id":3466897,"coord":{"lat":-20.541389,"lon":-44.634998},"name":"Carm\u00f3polis de Minas"},{"country":"BR","id":6322001,"coord":{"lat":-23.027559,"lon":-44.332161},"name":"Angra dos Reis"},{"country":"BR","id":3472177,"coord":{"lat":-23.00667,"lon":-44.318062},"name":"Angra dos Reis"},{"country":"BR","id":3455073,"coord":{"lat":-22.93,"lon":-52.151112},"name":"Paranacity"},{"country":"BR","id":3386842,"coord":{"lat":-6.19944,"lon":-35.80167},"name":"Tangara"},{"country":"BR","id":3460355,"coord":{"lat":-15.96528,"lon":-54.96833},"name":"Jaciara"},{"country":"BR","id":3453542,"coord":{"lat":-22.27528,"lon":-51.5},"name":"Pirapozinho"},{"country":"BR","id":3455773,"coord":{"lat":-22.318331,"lon":-50.281391},"name":"Oscar Bressane"},{"country":"BR","id":3398331,"coord":{"lat":-6.35944,"lon":-39.298611},"name":"Iguatu"},{"country":"BR","id":3390288,"coord":{"lat":-9.47833,"lon":-35.853329},"name":"Rio Largo"},{"country":"BR","id":3403566,"coord":{"lat":-4.82778,"lon":-42.16861},"name":"Campo Maior"},{"country":"BR","id":3459126,"coord":{"lat":-28.208611,"lon":-51.525829},"name":"Lagoa Vermelha"},{"country":"BR","id":3461782,"coord":{"lat":-21.48333,"lon":-47.98333},"name":"Guatapar\u00e1"},{"country":"BR","id":3467962,"coord":{"lat":-21.575279,"lon":-41.91111},"name":"Cambuci"},{"country":"BR","id":3465459,"coord":{"lat":-25.979719,"lon":-52.56778},"name":"Coronel Vivida"},{"country":"BR","id":3456763,"coord":{"lat":-24.06222,"lon":-53.006939},"name":"Moreira Sales"},{"country":"BR","id":3452623,"coord":{"lat":-26.23806,"lon":-51.078331},"name":"Porto Uniao"},{"country":"BR","id":3398570,"coord":{"lat":-6.85472,"lon":-35.490002},"name":"Guarabira"},{"country":"BR","id":3403353,"coord":{"lat":-4.35889,"lon":-39.311668},"name":"Caninde"},{"country":"BR","id":3406038,"coord":{"lat":-9.36667,"lon":-37.23333},"name":"Barroso"},{"country":"BR","id":3451114,"coord":{"lat":-21.4575,"lon":-43.125278},"name":"Rio Novo"},{"country":"BR","id":3406442,"coord":{"lat":-7.31111,"lon":-39.304169},"name":"Barbalha"},{"country":"BR","id":3457850,"coord":{"lat":-12.77778,"lon":-38.919441},"name":"Maragogipe"},{"country":"BR","id":3456507,"coord":{"lat":-20.66667,"lon":-40.5},"name":"Muqui\u00e7aba"},{"country":"BR","id":3385653,"coord":{"lat":-8.34,"lon":-35.609718},"name":"Uru\u00e7u mirim"},{"country":"BR","id":3452874,"coord":{"lat":-22.783331,"lon":-51.01667},"name":"P\u00f4rto Casa Nova"},{"country":"BR","id":3385745,"coord":{"lat":-4.58583,"lon":-42.86417},"name":"Uniao"},{"country":"BR","id":3399506,"coord":{"lat":-6.76694,"lon":-43.022499},"name":"Floriano"},{"country":"BR","id":3445446,"coord":{"lat":-23.21139,"lon":-46.828331},"name":"Varzea Paulista"},{"country":"BR","id":3455059,"coord":{"lat":-23.778061,"lon":-46.30444},"name":"Paranapiacaba"},{"country":"BR","id":3458367,"coord":{"lat":-26.72056,"lon":-48.932781},"name":"Luiz Alves"},{"country":"BR","id":3449344,"coord":{"lat":-23.69389,"lon":-46.564999},"name":"Sao Bernardo do Campo"},{"country":"BR","id":7614700,"coord":{"lat":-23.25951,"lon":-46.737099},"name":"Bairro Jardim Nossa Senhora Aparecida"},{"country":"BR","id":3453635,"coord":{"lat":-22.629169,"lon":-43.89806},"name":"Pirai"},{"country":"BR","id":3466641,"coord":{"lat":-12.35306,"lon":-38.378891},"name":"Catu"},{"country":"BR","id":3466261,"coord":{"lat":-29.95472,"lon":-51.625278},"name":"Charqueadas"},{"country":"BR","id":3445939,"coord":{"lat":-29.080561,"lon":-53.835831},"name":"Tupancireta"},{"country":"BR","id":3463865,"coord":{"lat":-29.648331,"lon":-51.173889},"name":"Estancia Velha"},{"country":"BR","id":3458051,"coord":{"lat":-23.347219,"lon":-52.09528},"name":"Mandaguacu"},{"country":"BR","id":3459394,"coord":{"lat":-23.621389,"lon":-52.46944},"name":"Jussara"},{"country":"BR","id":3446923,"coord":{"lat":-23.733061,"lon":-52.873329},"name":"Tapejara"},{"country":"BR","id":3461368,"coord":{"lat":-25.23,"lon":-50.604439},"name":"Imbituva"},{"country":"BR","id":3453478,"coord":{"lat":-24.757219,"lon":-51.761391},"name":"Pitanga"},{"country":"BR","id":3447929,"coord":{"lat":-26.4125,"lon":-49.073059},"name":"Schroeder"},{"country":"BR","id":3460740,"coord":{"lat":-27.090281,"lon":-48.611389},"name":"Itapema"},{"country":"BR","id":3458729,"coord":{"lat":-27.216669,"lon":-49.733059},"name":"Laurentino"},{"country":"BR","id":3969406,"coord":{"lat":-10.61944,"lon":-62.327782},"name":"S\u00edtio Paran\u00e1"},{"country":"BR","id":3444914,"coord":{"lat":-14.86611,"lon":-40.839439},"name":"Vitoria da Conquista"},{"country":"BR","id":3465105,"coord":{"lat":-12.67,"lon":-39.10194},"name":"Cruz das Almas"},{"country":"BR","id":3388046,"coord":{"lat":-7.09639,"lon":-35.23278},"name":"Sap\u00e9"},{"country":"BR","id":3388269,"coord":{"lat":-9.78111,"lon":-36.093609},"name":"Sao Miguel dos Campos"},{"country":"BR","id":3464008,"coord":{"lat":-19.762501,"lon":-44.313889},"name":"Esmeraldas"},{"country":"BR","id":3402945,"coord":{"lat":-5.53,"lon":-37.303059},"name":"Cara\u00fabas"},{"country":"BR","id":3385736,"coord":{"lat":-5.64194,"lon":-37.257778},"name":"Upanema"},{"country":"BR","id":3388441,"coord":{"lat":-2.56194,"lon":-44.054169},"name":"Sao Jose de Ribamar"},{"country":"BR","id":3456290,"coord":{"lat":-22.807501,"lon":-43.413891},"name":"Nilopolis"},{"country":"BR","id":3452073,"coord":{"lat":-22.71611,"lon":-43.555279},"name":"Queimados"},{"country":"BR","id":3460132,"coord":{"lat":-22.643061,"lon":-43.653332},"name":"Japeri"},{"country":"BR","id":3449116,"coord":{"lat":-12.6275,"lon":-38.68},"name":"Sao Francisco do Conde"},{"country":"BR","id":3458161,"coord":{"lat":-12.74083,"lon":-38.620831},"name":"Madre de Deus"},{"country":"BR","id":3466520,"coord":{"lat":-12.41667,"lon":-38.950001},"name":"Cedro"},{"country":"BR","id":3386248,"coord":{"lat":-7.51667,"lon":-35.700001},"name":"T\u00f4rres"},{"country":"BR","id":3398485,"coord":{"lat":-7.12389,"lon":-35.424438},"name":"Gurinhem"},{"country":"BR","id":3473215,"coord":{"lat":-13.95,"lon":-39.116669},"name":"Acara\u00ed"},{"country":"BR","id":3455065,"coord":{"lat":-19.677219,"lon":-51.19083},"name":"Paranaiba"},{"country":"BR","id":3456880,"coord":{"lat":-18.87056,"lon":-48.880829},"name":"Monte Alegre de Minas"},{"country":"BR","id":3445941,"coord":{"lat":-18.59222,"lon":-48.705002},"name":"Tupaciguara"},{"country":"BR","id":3466462,"coord":{"lat":-18.583891,"lon":-49.19944},"name":"Centralina"},{"country":"BR","id":6322637,"coord":{"lat":-23.42621,"lon":-45.036331},"name":"Ubatuba"},{"country":"BR","id":3445847,"coord":{"lat":-23.433889,"lon":-45.07111},"name":"Ubatuba"},{"country":"BR","id":3390901,"coord":{"lat":-5.19917,"lon":-39.292782},"name":"Quixeramobim"},{"country":"BR","id":3449056,"coord":{"lat":-21.89222,"lon":-45.59528},"name":"Sao Goncalo do Sapucai"},{"country":"BR","id":3407151,"coord":{"lat":-6.19444,"lon":-35.160278},"name":"Ares"},{"country":"BR","id":3456863,"coord":{"lat":-20.907221,"lon":-48.641392},"name":"Monte Azul Paulista"},{"country":"BR","id":3463422,"coord":{"lat":-23.540831,"lon":-46.36861},"name":"Ferraz de Vasconcelos"},{"country":"BR","id":3464335,"coord":{"lat":-23.04278,"lon":-47.37389},"name":"Elias Fausto"},{"country":"BR","id":3456060,"coord":{"lat":-21.46806,"lon":-49.220829},"name":"Novo Horizonte"},{"country":"BR","id":3453544,"coord":{"lat":-23.39694,"lon":-47.00222},"name":"Pirapora do Bom Jesus"},{"country":"BR","id":3449948,"coord":{"lat":-23.44417,"lon":-46.917782},"name":"Santana de Parnaiba"},{"country":"BR","id":3469421,"coord":{"lat":-23.135,"lon":-46.465279},"name":"Bom Jesus dos Perdoes"},{"country":"BR","id":3446974,"coord":{"lat":-22.73028,"lon":-42.714169},"name":"Tangua"},{"country":"BR","id":3387202,"coord":{"lat":-6.75917,"lon":-38.228062},"name":"Sousa"},{"country":"BR","id":3456234,"coord":{"lat":-10.49167,"lon":-37.193329},"name":"Nossa Senhora das Dores"},{"country":"BR","id":3397560,"coord":{"lat":-6.58444,"lon":-36.774441},"name":"Jardim do Serido"},{"country":"BR","id":3389560,"coord":{"lat":-6.87222,"lon":-36.91861},"name":"Santa Luzia"},{"country":"BR","id":3393867,"coord":{"lat":-6.45528,"lon":-36.203331},"name":"Nova Floresta"},{"country":"BR","id":3470878,"coord":{"lat":-19.945829,"lon":-43.487221},"name":"Barao de Cocais"},{"country":"BR","id":3452172,"coord":{"lat":-22.46417,"lon":-42.30806},"name":"Aldeia Velha"},{"country":"BR","id":3468425,"coord":{"lat":-22.4625,"lon":-42.653061},"name":"Cachoeiras de Macacu"},{"country":"BR","id":3461949,"coord":{"lat":-22.53722,"lon":-42.981941},"name":"Guapimirim"},{"country":"BR","id":3445156,"coord":{"lat":-30.08111,"lon":-51.023331},"name":"Viamao"},{"country":"BR","id":3388341,"coord":{"lat":-9.31833,"lon":-35.561111},"name":"Sao Luis do Quitunde"},{"country":"BR","id":3397904,"coord":{"lat":-7.77639,"lon":-34.89222},"name":"Itapissuma"},{"country":"BR","id":3404656,"coord":{"lat":-7.51556,"lon":-34.908329},"name":"Caapora"},{"country":"BR","id":3464100,"coord":{"lat":-11.94194,"lon":-38.084438},"name":"Entre Rios"},{"country":"BR","id":3467780,"coord":{"lat":-10.73333,"lon":-37.493328},"name":"Campo do Brito"},{"country":"BR","id":3401109,"coord":{"lat":-9.38861,"lon":-37.999168},"name":"Delmiro Gouveia"},{"country":"BR","id":3467550,"coord":{"lat":-29.66917,"lon":-52.788891},"name":"Candelaria"},{"country":"BR","id":3451783,"coord":{"lat":-25.76889,"lon":-53.532501},"name":"Realeza"},{"country":"BR","id":3445080,"coord":{"lat":-21.966669,"lon":-46.783329},"name":"Vila Conrado"},{"country":"BR","id":3465764,"coord":{"lat":-19.914721,"lon":-48.388329},"name":"Conceicao das Alagoas"},{"country":"BR","id":3448825,"coord":{"lat":-20.58139,"lon":-47.854721},"name":"Sao Joaquim da Barra"},{"country":"BR","id":3455785,"coord":{"lat":-20.72028,"lon":-47.886669},"name":"Orlandia"},{"country":"BR","id":3457192,"coord":{"lat":-20.17944,"lon":-48.03194},"name":"Miguelopolis"},{"country":"BR","id":3461080,"coord":{"lat":-20.438061,"lon":-48.012218},"name":"Ipua"},{"country":"BR","id":3456724,"coord":{"lat":-20.73139,"lon":-48.057781},"name":"Morro Agudo"},{"country":"BR","id":3460511,"coord":{"lat":-20.339439,"lon":-47.78056},"name":"Ituverava"},{"country":"BR","id":3392145,"coord":{"lat":-6.51056,"lon":-36.346939},"name":"Picui"},{"country":"BR","id":3407703,"coord":{"lat":-3.36167,"lon":-39.831669},"name":"Amontada"},{"country":"BR","id":3447186,"coord":{"lat":-23.62611,"lon":-46.791672},"name":"Taboao da Serra"},{"country":"BR","id":3467722,"coord":{"lat":-23.633329,"lon":-46.76667},"name":"Campo Limpo"},{"country":"BR","id":3453605,"coord":{"lat":-21.99861,"lon":-49.457218},"name":"Pirajui"},{"country":"BR","id":3471309,"coord":{"lat":-20.68556,"lon":-50.554722},"name":"Auriflama"},{"country":"BR","id":3464422,"coord":{"lat":-22.41444,"lon":-49.403889},"name":"Duartina"},{"country":"BR","id":3468789,"coord":{"lat":-21.066111,"lon":-50.147221},"name":"Buritama"},{"country":"BR","id":3458245,"coord":{"lat":-22.50222,"lon":-48.711391},"name":"Macatuba"},{"country":"BR","id":3395880,"coord":{"lat":-9.53222,"lon":-36.985001},"name":"Major Isidoro"},{"country":"BR","id":3465329,"coord":{"lat":-10.12556,"lon":-36.17556},"name":"Coruripe"},{"country":"BR","id":3471849,"coord":{"lat":-23.50528,"lon":-47.61417},"name":"Aracoiaba da Serra"},{"country":"BR","id":3446400,"coord":{"lat":-11.18389,"lon":-37.998329},"name":"Tobias Barreto"},{"country":"BR","id":3403741,"coord":{"lat":-8.02167,"lon":-34.98111},"name":"Camaragibe"},{"country":"BR","id":3394453,"coord":{"lat":-8.11861,"lon":-35.09222},"name":"Moreno"},{"country":"BR","id":3471210,"coord":{"lat":-20.91806,"lon":-49.445278},"name":"Bady Bassitt"},{"country":"BR","id":3457000,"coord":{"lat":-22.372219,"lon":-46.942219},"name":"Mogi Guacu"},{"country":"BR","id":7593881,"coord":{"lat":-23.468941,"lon":-47.7617},"name":"Cercadinho"},{"country":"BR","id":6322286,"coord":{"lat":-23.843081,"lon":-45.265121},"name":"Ilhabela"},{"country":"BR","id":3461425,"coord":{"lat":-23.778061,"lon":-45.358059},"name":"Ilhabela"},{"country":"BR","id":3460535,"coord":{"lat":-23.26417,"lon":-47.299171},"name":"Itu"},{"country":"BR","id":6322227,"coord":{"lat":-23.853359,"lon":-46.839569},"name":"Embu-Gua\u00e7u"},{"country":"BR","id":3464304,"coord":{"lat":-23.83222,"lon":-46.81139},"name":"Embu Guacu"},{"country":"BR","id":3460748,"coord":{"lat":-23.71694,"lon":-46.849171},"name":"Itapecerica da Serra"},{"country":"BR","id":3460594,"coord":{"lat":-23.101669,"lon":-48.615829},"name":"Itatinga"},{"country":"BR","id":6322593,"coord":{"lat":-22.60767,"lon":-46.70322},"name":"Serra Negra"},{"country":"BR","id":3447718,"coord":{"lat":-22.612221,"lon":-46.700562},"name":"Serra Negra"},{"country":"BR","id":3461143,"coord":{"lat":-23.056669,"lon":-49.626389},"name":"Ipaucu"},{"country":"BR","id":3460697,"coord":{"lat":-15.82333,"lon":-50.613331},"name":"Itapirapua"},{"country":"BR","id":7739883,"coord":{"lat":-23.2439,"lon":-50.106499},"name":"S\u00edtio Le\u00f4ncio Corsine"},{"country":"BR","id":3451159,"coord":{"lat":-26.738331,"lon":-49.27417},"name":"Rio dos Cedros"},{"country":"BR","id":3455784,"coord":{"lat":-28.358891,"lon":-49.291389},"name":"Orleans"},{"country":"BR","id":7570940,"coord":{"lat":-26.652,"lon":-48.737701},"name":"Itinga II"},{"country":"BR","id":3448906,"coord":{"lat":-27.27611,"lon":-48.849442},"name":"Sao Joao Batista"},{"country":"BR","id":3468704,"coord":{"lat":-30.11972,"lon":-51.962219},"name":"Butia"},{"country":"BR","id":3452179,"coord":{"lat":-30.387501,"lon":-56.451389},"name":"Quarai"},{"country":"BR","id":3402724,"coord":{"lat":-7.33278,"lon":-47.46944},"name":"Carolina"},{"country":"BR","id":3925040,"coord":{"lat":-10.43889,"lon":-62.466389},"name":"Jaru"},{"country":"BR","id":3454032,"coord":{"lat":-16.094999,"lon":-49.338058},"name":"Petrolina de Goias"},{"country":"BR","id":7691503,"coord":{"lat":-25.454399,"lon":-48.716099},"name":"S\u00edtio Pinheiro Solit\u00e1rio"},{"country":"BR","id":3465083,"coord":{"lat":-23.785,"lon":-53.07333},"name":"Cruzeiro do Oeste"},{"country":"BR","id":3472304,"coord":{"lat":-25.915001,"lon":-53.472778},"name":"Ampere"},{"country":"BR","id":3455553,"coord":{"lat":-23.4575,"lon":-52.048611},"name":"Paicandu"},{"country":"BR","id":3449521,"coord":{"lat":-12.96889,"lon":-39.261391},"name":"Santo Antonio de Jesus"},{"country":"BR","id":3455298,"coord":{"lat":-24.28389,"lon":-53.84},"name":"Palotina"},{"country":"BR","id":3449711,"coord":{"lat":-27.688061,"lon":-48.77861},"name":"Santo Amaro da Imperatriz"},{"country":"BR","id":3450872,"coord":{"lat":-14.83611,"lon":-56.427502},"name":"Rosario Oeste"},{"country":"BR","id":3460963,"coord":{"lat":-16.020281,"lon":-49.81028},"name":"Itaberai"},{"country":"BR","id":3461151,"coord":{"lat":-17.721939,"lon":-48.159721},"name":"Ipameri"},{"country":"BR","id":3466307,"coord":{"lat":-15.46056,"lon":-55.749722},"name":"Chapada dos Guimaraes"},{"country":"BR","id":3453014,"coord":{"lat":-13.44083,"lon":-49.148609},"name":"Porangatu"},{"country":"BR","id":3462374,"coord":{"lat":-15.93444,"lon":-50.140282},"name":"Goias"},{"country":"BR","id":3466167,"coord":{"lat":-23.38028,"lon":-52.944721},"name":"Cidade Ga\u00facha"},{"country":"BR","id":3449933,"coord":{"lat":-19.363609,"lon":-42.568611},"name":"Santana do Paraiso"},{"country":"BR","id":3461732,"coord":{"lat":-21.00778,"lon":-42.717781},"name":"Guiricema"},{"country":"BR","id":3388991,"coord":{"lat":-6.28333,"lon":-37.75},"name":"Sao Bento"},{"country":"BR","id":3404020,"coord":{"lat":-6.89028,"lon":-38.555279},"name":"Cajazeiras"},{"country":"BR","id":3467680,"coord":{"lat":-21.235001,"lon":-45.75861},"name":"Campos Gerais"},{"country":"BR","id":3401703,"coord":{"lat":-4.13,"lon":-44.124168},"name":"Coroata"},{"country":"BR","id":3455089,"coord":{"lat":-22.554171,"lon":-45.779999},"name":"Paraisopolis"},{"country":"BR","id":3466763,"coord":{"lat":-22.48056,"lon":-42.20417},"name":"Casimiro de Abreu"},{"country":"BR","id":3457191,"coord":{"lat":-22.45389,"lon":-43.468891},"name":"Miguel Pereira"},{"country":"BR","id":3456034,"coord":{"lat":-22.43889,"lon":-49.922779},"name":"Ocau\u00e7u"},{"country":"BR","id":3450272,"coord":{"lat":-22.89889,"lon":-49.6325},"name":"Santa Cruz do Rio Pardo"},{"country":"BR","id":3466824,"coord":{"lat":-21.77389,"lon":-47.086391},"name":"Casa Branca"},{"country":"BR","id":3471949,"coord":{"lat":-22.846939,"lon":-45.229721},"name":"Aparecida"},{"country":"BR","id":3468428,"coord":{"lat":-22.665001,"lon":-45.009441},"name":"Cachoeira Paulista"},{"country":"BR","id":3460267,"coord":{"lat":-22.285561,"lon":-46.612221},"name":"Jacutinga"},{"country":"BR","id":3394661,"coord":{"lat":-1.88389,"lon":-48.76889},"name":"Moju"},{"country":"BR","id":3444969,"coord":{"lat":-21.010281,"lon":-42.840561},"name":"Visconde do Rio Branco"},{"country":"BR","id":3469425,"coord":{"lat":-21.13389,"lon":-41.679722},"name":"Bom Jesus do Itabapoana"},{"country":"BR","id":3447059,"coord":{"lat":-15.80778,"lon":-42.233059},"name":"Taiobeiras"},{"country":"BR","id":3457152,"coord":{"lat":-17.218611,"lon":-42.590279},"name":"Minas Novas"},{"country":"BR","id":3451650,"coord":{"lat":-19.32556,"lon":-41.25528},"name":"Resplendor"},{"country":"BR","id":3449504,"coord":{"lat":-22.19278,"lon":-46.74667},"name":"Santo Ant\u00f4nio do Jardim"},{"country":"BR","id":3444843,"coord":{"lat":-23.038891,"lon":-49.709438},"name":"Chavantes"},{"country":"BR","id":3458701,"coord":{"lat":-21.168329,"lon":-51.039719},"name":"Lav\u00ednia"},{"country":"BR","id":3445922,"coord":{"lat":-21.381109,"lon":-51.57056},"name":"Tupi Paulista"},{"country":"BR","id":3448640,"coord":{"lat":-21.59556,"lon":-46.888611},"name":"Sao Jose do Rio Pardo"},{"country":"BR","id":3461625,"coord":{"lat":-21.95472,"lon":-47.99667},"name":"Ibate"},{"country":"BR","id":3460484,"coord":{"lat":-29.59111,"lon":-51.160561},"name":"Ivoti"},{"country":"BR","id":3449518,"coord":{"lat":-22.60611,"lon":-46.919441},"name":"Santo Antonio de Posse"},{"country":"BR","id":3470668,"coord":{"lat":-20.809441,"lon":-49.61639},"name":"Barra Dourada"},{"country":"BR","id":3462376,"coord":{"lat":-16.496111,"lon":-49.426392},"name":"Goianira"},{"country":"BR","id":3469391,"coord":{"lat":-29.608891,"lon":-51.943062},"name":"Bom Retiro do Sul"},{"country":"BR","id":3458746,"coord":{"lat":-25.40778,"lon":-52.416111},"name":"Laranjeiras do Sul"},{"country":"BR","id":3394649,"coord":{"lat":-5.74306,"lon":-39.627499},"name":"Mombaca"},{"country":"BR","id":3458093,"coord":{"lat":-10.65778,"lon":-37.304722},"name":"Malhador"},{"country":"BR","id":3407440,"coord":{"lat":-5.66417,"lon":-37.798889},"name":"Apodi"},{"country":"BR","id":3385742,"coord":{"lat":-9.16278,"lon":-36.03194},"name":"Uniao dos Palmares"},{"country":"BR","id":3386568,"coord":{"lat":-5.96667,"lon":-40.299999},"name":"Tau\u00e1"},{"country":"BR","id":3398384,"coord":{"lat":-4.71306,"lon":-37.355282},"name":"Icapu\u00ed"},{"country":"BR","id":3385504,"coord":{"lat":-4.19444,"lon":-40.476669},"name":"Varjota"},{"country":"BR","id":3460831,"coord":{"lat":-14.67806,"lon":-39.375},"name":"Itajuipe"},{"country":"BR","id":3393017,"coord":{"lat":-6.68778,"lon":-36.657501},"name":"Parelhas"},{"country":"BR","id":3395380,"coord":{"lat":-7.06,"lon":-35.319439},"name":"Mari"},{"country":"BR","id":3407693,"coord":{"lat":-9.68444,"lon":-36.304169},"name":"Anadia"},{"country":"BR","id":3448669,"coord":{"lat":-21.02528,"lon":-41.654442},"name":"Sao Jose do Calcado"},{"country":"BR","id":3384987,"coord":{"lat":-8.11806,"lon":-35.291389},"name":"Vitoria de Santo Antao"},{"country":"BR","id":3391220,"coord":{"lat":-5.29,"lon":-44.490002},"name":"Presidente Dutra"},{"country":"BR","id":3397875,"coord":{"lat":-7.375,"lon":-35.62833},"name":"Itatuba"},{"country":"BR","id":3663529,"coord":{"lat":-3.29972,"lon":-60.62056},"name":"Manacapuru"},{"country":"BR","id":3403209,"coord":{"lat":-6.1,"lon":-38.166672},"name":"Capa de Cima"},{"country":"BR","id":3448098,"coord":{"lat":-12.38333,"lon":-38.349998},"name":"Sap\u00e9"},{"country":"BR","id":3468376,"coord":{"lat":-20.84889,"lon":-41.112782},"name":"Cachoeiro de Itapemirim"},{"country":"BR","id":3452368,"coord":{"lat":-20.950001,"lon":-41.316669},"name":"Pratinha"},{"country":"BR","id":3446866,"coord":{"lat":-11.84722,"lon":-40.791389},"name":"Tapiramuta"},{"country":"BR","id":3447839,"coord":{"lat":-10.46139,"lon":-40.189442},"name":"Senhor do Bonfim"},{"country":"BR","id":3459785,"coord":{"lat":-17.7425,"lon":-46.172501},"name":"Joao Pinheiro"},{"country":"BR","id":3472417,"coord":{"lat":-22.079439,"lon":-51.471939},"name":"Alvares Machado"},{"country":"BR","id":3457722,"coord":{"lat":-21.798889,"lon":-51.181389},"name":"Mari\u00e1polis"},{"country":"BR","id":3447854,"coord":{"lat":-16.708059,"lon":-49.09306},"name":"Senador Canedo"},{"country":"BR","id":3456735,"coord":{"lat":-17.73111,"lon":-49.099442},"name":"Morrinhos"},{"country":"BR","id":3460107,"coord":{"lat":-15.75694,"lon":-49.334438},"name":"Jaragua"},{"country":"BR","id":3449847,"coord":{"lat":-22.25222,"lon":-45.703331},"name":"Santa Rita do Sapucai"},{"country":"BR","id":7588653,"coord":{"lat":-23.055799,"lon":-47.864601},"name":"S\u00edtio Bom Jardim"},{"country":"BR","id":3446171,"coord":{"lat":-26.10639,"lon":-50.32222},"name":"Tres Barras"},{"country":"BR","id":3449427,"coord":{"lat":-21.456671,"lon":-43.552502},"name":"Santos Dumont"},{"country":"BR","id":3473267,"coord":{"lat":-19.16,"lon":-45.445831},"name":"Abaete"},{"country":"BR","id":3461214,"coord":{"lat":-19.54917,"lon":-42.119999},"name":"Inhapim"},{"country":"BR","id":3469140,"coord":{"lat":-21.633329,"lon":-46.395},"name":"Botelhos"},{"country":"BR","id":3455155,"coord":{"lat":-21.54722,"lon":-45.737499},"name":"Paraguacu"},{"country":"BR","id":3461498,"coord":{"lat":-20.07028,"lon":-44.30167},"name":"Igarape"},{"country":"BR","id":3447969,"coord":{"lat":-20.03528,"lon":-44.144718},"name":"Sarzedo"},{"country":"BR","id":3388435,"coord":{"lat":-7.47889,"lon":-37.274441},"name":"Sao Jose do Egito"},{"country":"BR","id":3450710,"coord":{"lat":-11.03194,"lon":-37.474998},"name":"Salgado"},{"country":"BR","id":3457582,"coord":{"lat":-10.7375,"lon":-37.081669},"name":"Maruim"},{"country":"BR","id":3467956,"coord":{"lat":-22.612221,"lon":-46.057499},"name":"Cambui"},{"country":"BR","id":3471830,"coord":{"lat":-18.647221,"lon":-48.187222},"name":"Araguari"},{"country":"BR","id":3449053,"coord":{"lat":-19.31111,"lon":-46.048889},"name":"Sao Gotardo"},{"country":"BR","id":3458333,"coord":{"lat":-19.80139,"lon":-45.685558},"name":"Luz"},{"country":"BR","id":3457484,"coord":{"lat":-19.986389,"lon":-44.42778},"name":"Mateus Leme"},{"country":"BR","id":3456125,"coord":{"lat":-28.78389,"lon":-51.610001},"name":"Nova Prata"},{"country":"BR","id":3460629,"coord":{"lat":-29.12528,"lon":-56.553059},"name":"Itaqui"},{"country":"BR","id":3450920,"coord":{"lat":-27.76667,"lon":-52.801941},"name":"Ronda Alta"},{"country":"BR","id":3453279,"coord":{"lat":-20.78528,"lon":-49.823608},"name":"Poloni"},{"country":"BR","id":3455061,"coord":{"lat":-23.388611,"lon":-48.722778},"name":"Paranapanema"},{"country":"BR","id":3452167,"coord":{"lat":-22.247499,"lon":-50.69833},"name":"Quata"},{"country":"BR","id":3469169,"coord":{"lat":-22.27417,"lon":-46.165279},"name":"Borda da Mata"},{"country":"BR","id":3465935,"coord":{"lat":-20.713329,"lon":-48.540829},"name":"Colina"},{"country":"BR","id":3444944,"coord":{"lat":-21.170561,"lon":-48.629169},"name":"Vista Alegre do Alto"},{"country":"BR","id":3460622,"coord":{"lat":-15.65972,"lon":-40.065559},"name":"Itarantim"},{"country":"BR","id":3456768,"coord":{"lat":-17.35,"lon":-40.216671},"name":"Moreira"},{"country":"BR","id":3472596,"coord":{"lat":-20.635,"lon":-40.749722},"name":"Alfredo Chaves"},{"country":"BR","id":3460505,"coord":{"lat":-20.345831,"lon":-41.535831},"name":"Iuna"},{"country":"BR","id":3460817,"coord":{"lat":-18.031111,"lon":-41.685001},"name":"Itambacuri"},{"country":"BR","id":3465307,"coord":{"lat":-20.41667,"lon":-40.650002},"name":"Costa Pereira"},{"country":"BR","id":3449209,"coord":{"lat":-13.63333,"lon":-41.316669},"name":"S\u00e3o F\u00e9lix"},{"country":"BR","id":3405924,"coord":{"lat":-4.17972,"lon":-38.130562},"name":"Beberibe"},{"country":"BR","id":3398343,"coord":{"lat":-1.975,"lon":-48.959721},"name":"Igarape Miri"},{"country":"BR","id":3403687,"coord":{"lat":-2.90222,"lon":-40.84111},"name":"Camocim"},{"country":"BR","id":3397319,"coord":{"lat":-7.85583,"lon":-35.588329},"name":"Joao Alfredo"},{"country":"BR","id":3408337,"coord":{"lat":-5.57667,"lon":-36.908611},"name":"Acu"},{"country":"BR","id":3398178,"coord":{"lat":-6.66833,"lon":-41.707779},"name":"Inhuma"},{"country":"BR","id":3454578,"coord":{"lat":-16.00528,"lon":-41.297218},"name":"Pedra Azul"},{"country":"BR","id":3455036,"coord":{"lat":-23.217779,"lon":-44.713058},"name":"Parati"},{"country":"BR","id":3447928,"coord":{"lat":-12.41861,"lon":-41.770279},"name":"Seabra"},{"country":"BR","id":3460966,"coord":{"lat":-12.5275,"lon":-40.306938},"name":"Itaberaba"},{"country":"BR","id":3463920,"coord":{"lat":-11.79611,"lon":-37.945},"name":"Esplanada"},{"country":"BR","id":3468529,"coord":{"lat":-13.75,"lon":-39.5},"name":"Cachoeira"},{"country":"BR","id":3390522,"coord":{"lat":-9.25,"lon":-35.383331},"name":"Riacho"},{"country":"BR","id":3469983,"coord":{"lat":-11.61667,"lon":-38.799999},"name":"Biritinga"},{"country":"BR","id":3469437,"coord":{"lat":-13.255,"lon":-43.41806},"name":"Bom Jesus da Lapa"},{"country":"BR","id":3469984,"coord":{"lat":-23.5725,"lon":-46.038609},"name":"Biritiba Mirim"},{"country":"BR","id":3449624,"coord":{"lat":-24.316669,"lon":-47.633331},"name":"Santo Ant\u00f4nio"},{"country":"BR","id":3462916,"coord":{"lat":-20.024719,"lon":-48.940559},"name":"Frutal"},{"country":"BR","id":3447730,"coord":{"lat":-19.111389,"lon":-46.68972},"name":"Serra do Salitre"},{"country":"BR","id":3469910,"coord":{"lat":-21.9925,"lon":-48.390831},"name":"Boa Esperanca do Sul"},{"country":"BR","id":3453435,"coord":{"lat":-20.83778,"lon":-40.721939},"name":"Piuma"},{"country":"BR","id":3400567,"coord":{"lat":-5.70556,"lon":-35.30722},"name":"Extremoz"},{"country":"BR","id":3389590,"coord":{"lat":-1.29861,"lon":-48.160561},"name":"Santa Isabel do Par\u00e1"},{"country":"BR","id":3457697,"coord":{"lat":-19.412781,"lon":-40.541672},"name":"Marilandia"},{"country":"BR","id":3456127,"coord":{"lat":-29.37639,"lon":-51.114441},"name":"Nova Petropolis"},{"country":"BR","id":3401992,"coord":{"lat":-4.25667,"lon":-43.012779},"name":"Coelho Neto"},{"country":"BR","id":3407422,"coord":{"lat":-7.88333,"lon":-35.333328},"name":"Apu\u00e1"},{"country":"BR","id":3397262,"coord":{"lat":-8.62444,"lon":-35.533329},"name":"Joaquim Nabuco"},{"country":"BR","id":3396497,"coord":{"lat":-8.38333,"lon":-36.549999},"name":"Lajedo"},{"country":"BR","id":3387663,"coord":{"lat":-8.07361,"lon":-37.264439},"name":"Sertania"},{"country":"BR","id":3447417,"coord":{"lat":-22.059999,"lon":-45.044998},"name":"Soledade de Minas"},{"country":"BR","id":3448824,"coord":{"lat":-20.04917,"lon":-44.273891},"name":"Sao Joaquim de Bicas"},{"country":"BR","id":3449219,"coord":{"lat":-19.865,"lon":-42.96833},"name":"Sao Domingos do Prata"},{"country":"BR","id":3665210,"coord":{"lat":-7.56667,"lon":-72.616669},"name":"Arenal"},{"country":"BR","id":3402340,"coord":{"lat":-6.60667,"lon":-39.062222},"name":"Cedro"},{"country":"BR","id":3397941,"coord":{"lat":-3.68667,"lon":-39.586109},"name":"Itapage"},{"country":"BR","id":3452881,"coord":{"lat":-23.368059,"lon":-53.743061},"name":"Porto Camargo"},{"country":"BR","id":3452141,"coord":{"lat":-25.365561,"lon":-49.076939},"name":"Quatro Barras"},{"country":"BR","id":3463246,"coord":{"lat":-22.863331,"lon":-51.387218},"name":"Florestopolis"},{"country":"BR","id":3448227,"coord":{"lat":-29.58667,"lon":-51.375561},"name":"Sao Sebastiao do Cai"},{"country":"BR","id":3404766,"coord":{"lat":-8.62306,"lon":-37.15583},"name":"Buique"},{"country":"BR","id":3398401,"coord":{"lat":-8.54056,"lon":-37.690281},"name":"Ibimirim"},{"country":"BR","id":3463692,"coord":{"lat":-21.09861,"lon":-42.186668},"name":"Eugen\u00f3polis"},{"country":"BR","id":3472234,"coord":{"lat":-23.489719,"lon":-48.412781},"name":"Angatuba"},{"country":"BR","id":3460723,"coord":{"lat":-23.98222,"lon":-48.875561},"name":"Itapeva"},{"country":"BR","id":3448332,"coord":{"lat":-29.62056,"lon":-54.17889},"name":"Sao Pedro do Sul"},{"country":"BR","id":3450960,"coord":{"lat":-29.66667,"lon":-50.549999},"name":"Rolantinho da Figueira"},{"country":"BR","id":3445431,"coord":{"lat":-24.616671,"lon":-50.866669},"name":"Va\u00fa"},{"country":"BR","id":3454632,"coord":{"lat":-23.912781,"lon":-52.34306},"name":"Peabiru"},{"country":"BR","id":3465330,"coord":{"lat":-26.42528,"lon":-49.243061},"name":"Corupa"},{"country":"BR","id":3461677,"coord":{"lat":-16.962219,"lon":-49.228062},"name":"Hidrolandia"},{"country":"BR","id":3462378,"coord":{"lat":-15.3175,"lon":-49.1175},"name":"Goianesia"},{"country":"BR","id":3448207,"coord":{"lat":-30.160561,"lon":-53.565281},"name":"Sao Sepe"},{"country":"BR","id":3447005,"coord":{"lat":-21.705,"lon":-47.274441},"name":"Tambau"},{"country":"BR","id":3464971,"coord":{"lat":-24.032499,"lon":-50.458328},"name":"Curi\u00fava"},{"country":"BR","id":3457772,"coord":{"lat":-24.55611,"lon":-54.056671},"name":"Marechal Candido Rondon"},{"country":"BR","id":3447409,"coord":{"lat":-29.11389,"lon":-49.616669},"name":"Sombrio"},{"country":"BR","id":3445667,"coord":{"lat":-28.51778,"lon":-49.320831},"name":"Urussanga"},{"country":"BR","id":3453794,"coord":{"lat":-27.875,"lon":-51.172218},"name":"Pinhal da Serra"},{"country":"BR","id":3460214,"coord":{"lat":-24.25111,"lon":-49.70583},"name":"Jaguariaiva"},{"country":"BR","id":3464194,"coord":{"lat":-22.549721,"lon":-43.678329},"name":"Engenheiro Paulo de Frontin"},{"country":"BR","id":3461499,"coord":{"lat":-20.03833,"lon":-47.746941},"name":"Igarapava"},{"country":"BR","id":3461565,"coord":{"lat":-14.06694,"lon":-39.64056},"name":"Ibirataia"},{"country":"BR","id":3456796,"coord":{"lat":-15.17194,"lon":-42.497219},"name":"Montezuma"},{"country":"BR","id":3387082,"coord":{"lat":-7.59083,"lon":-37.53944},"name":"Tabira"},{"country":"BR","id":3403251,"coord":{"lat":-8.11,"lon":-42.944439},"name":"Canto do Buriti"},{"country":"BR","id":3467003,"coord":{"lat":-22.18722,"lon":-41.66111},"name":"Carapebus"},{"country":"BR","id":3460434,"coord":{"lat":-14.84972,"lon":-42.433331},"name":"Jacaraci"},{"country":"BR","id":3461023,"coord":{"lat":-12.24861,"lon":-41.619438},"name":"Iraquara"},{"country":"BR","id":3395404,"coord":{"lat":-3.12389,"lon":-40.146671},"name":"Marco"},{"country":"BR","id":3456559,"coord":{"lat":-11.85889,"lon":-40.4725},"name":"Mundo Novo"},{"country":"BR","id":3387115,"coord":{"lat":-7.83306,"lon":-35.754719},"name":"Surubim"},{"country":"BR","id":3467577,"coord":{"lat":-15.675,"lon":-38.94722},"name":"Canavieiras"},{"country":"BR","id":3402528,"coord":{"lat":-8.66667,"lon":-35.716671},"name":"Catende"},{"country":"BR","id":3456322,"coord":{"lat":-16.406389,"lon":-49.218609},"name":"Neropolis"},{"country":"BR","id":3462383,"coord":{"lat":-16.510559,"lon":-49.023891},"name":"Goianapolis"},{"country":"BR","id":3449936,"coord":{"lat":-30.890829,"lon":-55.53278},"name":"Santana do Livramento"},{"country":"BR","id":3460514,"coord":{"lat":-27.41444,"lon":-49.602501},"name":"Ituporanga"},{"country":"BR","id":3391371,"coord":{"lat":-6.33833,"lon":-47.39917},"name":"Porto Franco"},{"country":"BR","id":3461705,"coord":{"lat":-23.366671,"lon":-50.333328},"name":"Hauer"},{"country":"BR","id":3449747,"coord":{"lat":-33.51889,"lon":-53.368061},"name":"Santa Vitoria do Palmar"},{"country":"BR","id":3446087,"coord":{"lat":-27.455561,"lon":-53.931938},"name":"Tres Passos"},{"country":"BR","id":3466970,"coord":{"lat":-20.08194,"lon":-49.914169},"name":"Cardoso"},{"country":"BR","id":3450283,"coord":{"lat":-21.826941,"lon":-47.248611},"name":"Santa Cruz das Palmeiras"},{"country":"BR","id":3455152,"coord":{"lat":-22.412781,"lon":-50.575829},"name":"Paraguacu Paulista"},{"country":"BR","id":3445675,"coord":{"lat":-21.20167,"lon":-49.290001},"name":"Urupes"},{"country":"BR","id":3405764,"coord":{"lat":-3.9,"lon":-38.383331},"name":"Berra Bode"},{"country":"BR","id":3461571,"coord":{"lat":-17.68778,"lon":-40.109169},"name":"Ibirapu\u00e3"},{"country":"BR","id":3925075,"coord":{"lat":-10.78278,"lon":-65.339439},"name":"Guajara Mirim"},{"country":"BR","id":3472437,"coord":{"lat":-24.028061,"lon":-53.440559},"name":"Alto Piquiri"},{"country":"BR","id":3461469,"coord":{"lat":-14.75639,"lon":-40.089169},"name":"Iguai"},{"country":"BR","id":3461406,"coord":{"lat":-26.899719,"lon":-48.827221},"name":"Ilhota"},{"country":"BR","id":3460698,"coord":{"lat":-27.169439,"lon":-53.712219},"name":"Itapiranga"},{"country":"BR","id":3399295,"coord":{"lat":-7.08806,"lon":-40.61639},"name":"Fronteiras"},{"country":"BR","id":3385592,"coord":{"lat":-6.4075,"lon":-41.74556},"name":"Valenca do Piaui"},{"country":"BR","id":3403362,"coord":{"lat":-6.38,"lon":-35.128891},"name":"Canguaretama"},{"country":"BR","id":3391556,"coord":{"lat":-8.14139,"lon":-35.395828},"name":"Pombos"},{"country":"BR","id":3461602,"coord":{"lat":-14.84167,"lon":-39.986671},"name":"Ibicui"},{"country":"BR","id":3459447,"coord":{"lat":-26.398331,"lon":-52.727779},"name":"Jupi\u00e1"},{"country":"BR","id":3451051,"coord":{"lat":-18.91806,"lon":-54.84417},"name":"Rio Verde de Mato Grosso"},{"country":"BR","id":3468560,"coord":{"lat":-30.51222,"lon":-53.49139},"name":"Cacapava do Sul"},{"country":"BR","id":3450873,"coord":{"lat":-30.258329,"lon":-54.914169},"name":"Rosario do Sul"},{"country":"BR","id":3467362,"coord":{"lat":-29.74556,"lon":-50.00972},"name":"Capao da Canoa"},{"country":"BR","id":3456398,"coord":{"lat":-17.83917,"lon":-40.353889},"name":"Nanuque"},{"country":"BR","id":3471699,"coord":{"lat":-11.26222,"lon":-37.61972},"name":"Araua"},{"country":"BR","id":3460829,"coord":{"lat":-14.06528,"lon":-39.947781},"name":"Itajuru"},{"country":"BR","id":3405993,"coord":{"lat":-9.67778,"lon":-37.124722},"name":"Batalha"},{"country":"BR","id":3456223,"coord":{"lat":-10.855,"lon":-37.12611},"name":"Nossa Senhora do Socorro"},{"country":"BR","id":3390864,"coord":{"lat":-6.53333,"lon":-36.633331},"name":"Rajada"},{"country":"BR","id":3397758,"coord":{"lat":-5.78333,"lon":-35.349998},"name":"Jacar\u00e9 Mirim"},{"country":"BR","id":3407940,"coord":{"lat":-7.43861,"lon":-34.91444},"name":"Alhandra"},{"country":"BR","id":3408073,"coord":{"lat":-2.40889,"lon":-44.414719},"name":"Alcantara"},{"country":"BR","id":3453158,"coord":{"lat":-17.525,"lon":-49.44722},"name":"Pontalina"},{"country":"BR","id":3401845,"coord":{"lat":-8.25778,"lon":-49.264721},"name":"Conceicao do Araguaia"},{"country":"BR","id":3466750,"coord":{"lat":-19.113331,"lon":-51.734169},"name":"Cassilandia"},{"country":"BR","id":3461943,"coord":{"lat":-16.830561,"lon":-49.53194},"name":"Guapo"},{"country":"BR","id":3451265,"coord":{"lat":-25.73278,"lon":-50.796391},"name":"Rio Azul"},{"country":"BR","id":7641674,"coord":{"lat":-25.46546,"lon":-48.816429},"name":"S\u00edtio Jo\u00e3o da S. Passos"},{"country":"BR","id":3449045,"coord":{"lat":-29.959169,"lon":-51.722221},"name":"Sao Jeronimo"},{"country":"BR","id":3454859,"coord":{"lat":-29.74806,"lon":-52.274719},"name":"Passo do Sobrado"},{"country":"BR","id":3460869,"coord":{"lat":-26.33639,"lon":-49.906391},"name":"Itai\u00f3polis"},{"country":"BR","id":3455139,"coord":{"lat":-23.38611,"lon":-45.66222},"name":"Paraibuna"},{"country":"BR","id":3455251,"coord":{"lat":-21.35639,"lon":-51.859718},"name":"Panorama"},{"country":"BR","id":3449793,"coord":{"lat":-21.47278,"lon":-47.36306},"name":"Santa Rosa de Viterbo"},{"country":"BR","id":3460553,"coord":{"lat":-22.252781,"lon":-47.822781},"name":"Itirapina"},{"country":"BR","id":3398691,"coord":{"lat":-8.20111,"lon":-35.56472},"name":"Gravata"},{"country":"BR","id":6321029,"coord":{"lat":-16.27846,"lon":-39.172619},"name":"Santa Cruz Cabr\u00e1lia"},{"country":"BR","id":3450288,"coord":{"lat":-16.278061,"lon":-39.024719},"name":"Santa Cruz Cabralia"},{"country":"BR","id":3395062,"coord":{"lat":-3.38361,"lon":-57.718609},"name":"Maues"},{"country":"BR","id":3466905,"coord":{"lat":-20.557779,"lon":-44.87056},"name":"Carmo da Mata"},{"country":"BR","id":3453337,"coord":{"lat":-14.52972,"lon":-40.36528},"name":"Pocoes"},{"country":"BR","id":3460907,"coord":{"lat":-14.16278,"lon":-40.006111},"name":"Itagi"},{"country":"BR","id":3402271,"coord":{"lat":-8.23833,"lon":-35.46167},"name":"Cha Grande"},{"country":"BR","id":3388925,"coord":{"lat":-8.32583,"lon":-36.14278},"name":"S\u00e3o Caitano"},{"country":"BR","id":3469481,"coord":{"lat":-22.151939,"lon":-42.419441},"name":"Bom Jardim"},{"country":"BR","id":3466901,"coord":{"lat":-20.971939,"lon":-46.118889},"name":"Carmo do Rio Claro"},{"country":"BR","id":3467908,"coord":{"lat":-21.711109,"lon":-46.246391},"name":"Campestre"},{"country":"BR","id":3445859,"coord":{"lat":-21.120001,"lon":-42.94278},"name":"Uba"},{"country":"BR","id":3453457,"coord":{"lat":-19.682779,"lon":-44.890282},"name":"Pitangui"},{"country":"BR","id":3461592,"coord":{"lat":-11.64083,"lon":-42.011108},"name":"Ibipeba"},{"country":"BR","id":3404924,"coord":{"lat":-6.19083,"lon":-35.35667},"name":"Brejinho"},{"country":"BR","id":3390160,"coord":{"lat":-4.94028,"lon":-37.97583},"name":"Russas"},{"country":"BR","id":3401283,"coord":{"lat":-6.26083,"lon":-36.51778},"name":"Currais Novos"},{"country":"BR","id":3447997,"coord":{"lat":-27.94389,"lon":-52.923061},"name":"Sarandi"},{"country":"BR","id":3468553,"coord":{"lat":-29.88361,"lon":-54.825001},"name":"Cacequi"},{"country":"BR","id":3446619,"coord":{"lat":-20.442221,"lon":-54.860279},"name":"Terenos"},{"country":"BR","id":3468234,"coord":{"lat":-16.956671,"lon":-51.81028},"name":"Caiaponia"},{"country":"BR","id":3470164,"coord":{"lat":-16.97278,"lon":-48.953331},"name":"Bela Vista de Goias"},{"country":"BR","id":3467677,"coord":{"lat":-27.40167,"lon":-51.224998},"name":"Campos Novos"},{"country":"BR","id":3453518,"coord":{"lat":-22.412781,"lon":-49.13472},"name":"Piratininga"},{"country":"BR","id":3450404,"coord":{"lat":-22.753611,"lon":-47.413609},"name":"Santa Barbara dOeste"},{"country":"BR","id":3458354,"coord":{"lat":-21.675831,"lon":-50.326672},"name":"Luizi\u00e2nia"},{"country":"BR","id":3459491,"coord":{"lat":-22.00889,"lon":-49.78722},"name":"J\u00falio Mesquita"},{"country":"BR","id":3407210,"coord":{"lat":-6.96333,"lon":-35.691669},"name":"Areia"},{"country":"BR","id":3466907,"coord":{"lat":-21.460831,"lon":-45.22361},"name":"Carmo da Cachoeira"},{"country":"BR","id":3448777,"coord":{"lat":-18.9,"lon":-41.083328},"name":"S\u00e3o Jos\u00e9"},{"country":"BR","id":3467027,"coord":{"lat":-20.933331,"lon":-43.916672},"name":"Caranda\u00ed"},{"country":"BR","id":3457454,"coord":{"lat":-20.28389,"lon":-42.34111},"name":"Matipo"},{"country":"BR","id":3469426,"coord":{"lat":-19.82889,"lon":-42.316109},"name":"Bom Jesus do Galho"},{"country":"BR","id":3452702,"coord":{"lat":-21.883329,"lon":-42.700001},"name":"P\u00f4rto Novo"},{"country":"BR","id":3450166,"coord":{"lat":-20.100559,"lon":-40.52972},"name":"Santa Leopoldina"},{"country":"BR","id":3456110,"coord":{"lat":-18.71056,"lon":-40.400558},"name":"Nova Venecia"},{"country":"BR","id":8051321,"coord":{"lat":-19.93091,"lon":-40.398529},"name":"Campestre"},{"country":"BR","id":3459909,"coord":{"lat":-20.78944,"lon":-41.395},"name":"Jeronimo Monteiro"},{"country":"BR","id":3460623,"coord":{"lat":-19.87389,"lon":-40.875278},"name":"Itarana"},{"country":"BR","id":3384868,"coord":{"lat":-7.1,"lon":-35.683331},"name":"Zumbi"},{"country":"BR","id":3397963,"coord":{"lat":-7.74778,"lon":-34.825562},"name":"Itamaraca"},{"country":"BR","id":3471609,"coord":{"lat":-10.75778,"lon":-37.315281},"name":"Areia Branca"},{"country":"BR","id":3453512,"coord":{"lat":-15.8525,"lon":-48.959171},"name":"Pirenopolis"},{"country":"BR","id":3452216,"coord":{"lat":-25.21306,"lon":-50.977779},"name":"Prudentopolis"},{"country":"BR","id":3454967,"coord":{"lat":-24.715,"lon":-47.881111},"name":"Pariquera Acu"},{"country":"BR","id":3389294,"coord":{"lat":-3.28333,"lon":-41.433331},"name":"Santa Rosa"},{"country":"BR","id":3465749,"coord":{"lat":-20.36833,"lon":-41.243889},"name":"Conceicao do Castelo"},{"country":"BR","id":3446550,"coord":{"lat":-24.509439,"lon":-50.413609},"name":"Tibagi"},{"country":"BR","id":3473268,"coord":{"lat":-16.20417,"lon":-48.70694},"name":"Abadiania"},{"country":"BR","id":3397108,"coord":{"lat":-6.03389,"lon":-37.020279},"name":"Jucurutu"},{"country":"BR","id":3404117,"coord":{"lat":-6.45833,"lon":-37.097778},"name":"Caico"},{"country":"BR","id":3460523,"coord":{"lat":-18.968889,"lon":-49.465},"name":"Ituiutaba"},{"country":"BR","id":3449516,"coord":{"lat":-20.94639,"lon":-44.918892},"name":"Santo Antonio do Amparo"},{"country":"BR","id":3394018,"coord":{"lat":-7.64139,"lon":-35.549999},"name":"Natuba"},{"country":"BR","id":3401419,"coord":{"lat":-6.48361,"lon":-36.15361},"name":"Cuite"},{"country":"BR","id":3456530,"coord":{"lat":-20.46417,"lon":-41.413059},"name":"Muniz Freire"},{"country":"BR","id":7568630,"coord":{"lat":-26.387199,"lon":-48.726799},"name":"S\u00edtio Agenor D. Sim\u00e3o"},{"country":"BR","id":3408368,"coord":{"lat":-2.88556,"lon":-40.119999},"name":"Acarau"},{"country":"BR","id":3466430,"coord":{"lat":-23.035561,"lon":-49.166111},"name":"Cerqueira Cesar"},{"country":"BR","id":3385850,"coord":{"lat":-6.51833,"lon":-38.41222},"name":"Uirauna"},{"country":"BR","id":3397233,"coord":{"lat":-6.31667,"lon":-38.281391},"name":"Jos\u00e9 da Penha"},{"country":"BR","id":3392127,"coord":{"lat":-7.26722,"lon":-35.259998},"name":"Pilar"},{"country":"BR","id":3469974,"coord":{"lat":-26.16139,"lon":-51.552502},"name":"Bituruna"},{"country":"BR","id":3448502,"coord":{"lat":-25.87417,"lon":-50.382778},"name":"Sao Mateus do Sul"},{"country":"BR","id":3393680,"coord":{"lat":-4.56667,"lon":-44.650002},"name":"\u00d4lho d\u2019\u00c1gua"},{"country":"BR","id":3406318,"coord":{"lat":-5.5,"lon":-45.25},"name":"Barra do Corda"},{"country":"BR","id":3456947,"coord":{"lat":-20.850281,"lon":-50.091671},"name":"Mon\u00e7\u00f5es"},{"country":"BR","id":3472414,"coord":{"lat":-22.08917,"lon":-49.718891},"name":"\u00c1lvaro de Carvalho"},{"country":"BR","id":3453503,"coord":{"lat":-17.299721,"lon":-48.279442},"name":"Pires do Rio"},{"country":"BR","id":3403420,"coord":{"lat":-8.93333,"lon":-35.849998},"name":"Canastra"},{"country":"BR","id":3456324,"coord":{"lat":-21.23583,"lon":-45.235828},"name":"Nepomuceno"},{"country":"BR","id":3460450,"coord":{"lat":-19.513611,"lon":-43.744999},"name":"Jaboticatubas"},{"country":"BR","id":3461958,"coord":{"lat":-18.775,"lon":-42.932499},"name":"Guanhaes"},{"country":"BR","id":3448596,"coord":{"lat":-31.36528,"lon":-51.978329},"name":"Sao Lourenco do Sul"},{"country":"BR","id":3454968,"coord":{"lat":-10.6875,"lon":-37.861671},"name":"Paripiranga"},{"country":"BR","id":3461624,"coord":{"lat":-20.233891,"lon":-41.510559},"name":"Ibatiba"},{"country":"BR","id":3389459,"coord":{"lat":-1.35028,"lon":-47.575562},"name":"Santa Maria do Para"},{"country":"BR","id":3468803,"coord":{"lat":-12.51667,"lon":-38.26667},"name":"Buri"},{"country":"BR","id":3458591,"coord":{"lat":-21.842501,"lon":-43.79306},"name":"Lima Duarte"},{"country":"BR","id":3453896,"coord":{"lat":-23.813061,"lon":-47.716389},"name":"Pilar do Sul"},{"country":"BR","id":7692321,"coord":{"lat":-25.9666,"lon":-48.8964},"name":"S\u00edtio Quiriri"},{"country":"BR","id":3467512,"coord":{"lat":-31.395,"lon":-52.67556},"name":"Cangucu"},{"country":"BR","id":3470684,"coord":{"lat":-30.291109,"lon":-51.301109},"name":"Barra do Ribeiro"},{"country":"BR","id":3447258,"coord":{"lat":-23.072781,"lon":-52.408329},"name":"Sumar\u00e9"},{"country":"BR","id":3471487,"coord":{"lat":-22.746941,"lon":-41.881672},"name":"Armacao de Buzios"},{"country":"BR","id":3472728,"coord":{"lat":-17.51944,"lon":-39.19556},"name":"Alcoba\u00e7a"},{"country":"BR","id":3467877,"coord":{"lat":-25.305559,"lon":-49.055279},"name":"Campina Grande do Sul"},{"country":"BR","id":3446598,"coord":{"lat":-23.768061,"lon":-52.444172},"name":"Terra Boa"},{"country":"BR","id":3398003,"coord":{"lat":-7.32861,"lon":-35.3325},"name":"Itabaiana"},{"country":"BR","id":3451931,"coord":{"lat":-18.44833,"lon":-50.451672},"name":"Quirinopolis"},{"country":"BR","id":3465713,"coord":{"lat":-11.81361,"lon":-37.610561},"name":"Conde"},{"country":"BR","id":3451071,"coord":{"lat":-11.48472,"lon":-37.932781},"name":"Rio Real"},{"country":"BR","id":3398355,"coord":{"lat":-9.53694,"lon":-36.63361},"name":"Igaci"},{"country":"BR","id":3404306,"coord":{"lat":-6.64167,"lon":-35.790001},"name":"Cacimba de Dentro"},{"country":"BR","id":3456593,"coord":{"lat":-18.08639,"lon":-39.550831},"name":"Mucuri"},{"country":"BR","id":3460136,"coord":{"lat":-10.59333,"lon":-36.940281},"name":"Japaratuba"},{"country":"BR","id":3408097,"coord":{"lat":-7.07083,"lon":-35.758331},"name":"Alagoa Nova"},{"country":"BR","id":3455141,"coord":{"lat":-22.16194,"lon":-43.292782},"name":"Paraiba do Sul"},{"country":"BR","id":3471422,"coord":{"lat":-32.237499,"lon":-53.086941},"name":"Arroio Grande"},{"country":"BR","id":3463303,"coord":{"lat":-23.31694,"lon":-52.303612},"name":"Flora\u00ed"},{"country":"BR","id":3471659,"coord":{"lat":-22.02861,"lon":-48.91111},"name":"Arealva"},{"country":"BR","id":3456378,"coord":{"lat":-23.375561,"lon":-45.44194},"name":"Natividade da Serra"},{"country":"BR","id":3465067,"coord":{"lat":-26.0175,"lon":-51.346668},"name":"Cruz Machado"},{"country":"BR","id":3455424,"coord":{"lat":-27.582781,"lon":-50.159439},"name":"Palmeira"},{"country":"BR","id":3456277,"coord":{"lat":-14.72028,"lon":-56.327499},"name":"Nobres"},{"country":"BR","id":3393400,"coord":{"lat":-3.98417,"lon":-38.620281},"name":"Pacatuba"},{"country":"BR","id":3455170,"coord":{"lat":-22.60861,"lon":-43.71278},"name":"Paracambi"},{"country":"BR","id":3395844,"coord":{"lat":-7.98333,"lon":-38.299999},"name":"Malhada Cortada"},{"country":"BR","id":3447510,"coord":{"lat":-12.23333,"lon":-38.75},"name":"S\u00edtio do Martins"},{"country":"BR","id":3445534,"coord":{"lat":-20.671391,"lon":-41.006939},"name":"Vargem Alta"},{"country":"BR","id":3390280,"coord":{"lat":-6.80306,"lon":-35.080559},"name":"Rio Tinto"},{"country":"BR","id":3444830,"coord":{"lat":-26.96167,"lon":-52.534721},"name":"Xaxim"},{"country":"BR","id":3397969,"coord":{"lat":-3.96944,"lon":-38.528061},"name":"Itaitinga"},{"country":"BR","id":3452327,"coord":{"lat":-18.41778,"lon":-46.41806},"name":"Presidente Olegario"},{"country":"BR","id":3472485,"coord":{"lat":-21.02556,"lon":-47.37389},"name":"Altinopolis"},{"country":"BR","id":3444997,"coord":{"lat":-20.87306,"lon":-48.29694},"name":"Viradouro"},{"country":"BR","id":3465639,"coord":{"lat":-19.17222,"lon":-41.472221},"name":"Conselheiro Pena"},{"country":"BR","id":3407366,"coord":{"lat":-7.79028,"lon":-35.090832},"name":"Aracoiaba"},{"country":"BR","id":3388376,"coord":{"lat":-8.00222,"lon":-35.01833},"name":"Sao Lourenco da Mata"},{"country":"BR","id":3453741,"coord":{"lat":-31.578329,"lon":-53.381111},"name":"Pinheiro Machado"},{"country":"BR","id":3463993,"coord":{"lat":-20.65028,"lon":-41.907219},"name":"Espera Feliz"},{"country":"BR","id":3387926,"coord":{"lat":-5.58806,"lon":-39.37167},"name":"Senador Pompeu"},{"country":"BR","id":3453767,"coord":{"lat":-22.512779,"lon":-44.000561},"name":"Pinheiral"},{"country":"BR","id":3456102,"coord":{"lat":-17.891939,"lon":-39.371941},"name":"Nova Vicosa"},{"country":"BR","id":3453594,"coord":{"lat":-21.091391,"lon":-48.65778},"name":"Pirangi"},{"country":"BR","id":3405616,"coord":{"lat":-5.1275,"lon":-39.73222},"name":"Boa Viagem"},{"country":"BR","id":3386874,"coord":{"lat":-4.83222,"lon":-40.32056},"name":"Tamboril"},{"country":"BR","id":3398255,"coord":{"lat":-5.39639,"lon":-40.308609},"name":"Independencia"},{"country":"BR","id":3448863,"coord":{"lat":-19.33861,"lon":-42.15778},"name":"S\u00e3o Jo\u00e3o do Oriente"},{"country":"BR","id":3466351,"coord":{"lat":-23.226669,"lon":-47.95306},"name":"Ces\u00e1rio Lange"},{"country":"BR","id":3453514,"coord":{"lat":-21.27639,"lon":-43.02639},"name":"Pira\u00faba"},{"country":"BR","id":3446406,"coord":{"lat":-19.003889,"lon":-45.964439},"name":"Tiros"},{"country":"BR","id":3462937,"coord":{"lat":-23.205,"lon":-50.945278},"name":"Frei Tim\u00f3teo"},{"country":"BR","id":3465737,"coord":{"lat":-21.880831,"lon":-45.085281},"name":"Conceicao do Rio Verde"},{"country":"BR","id":3470992,"coord":{"lat":-22.683611,"lon":-44.32333},"name":"Bananal"},{"country":"BR","id":3457161,"coord":{"lat":-21.064171,"lon":-41.36639},"name":"Mimoso do Sul"},{"country":"BR","id":3388270,"coord":{"lat":-1.62667,"lon":-47.48333},"name":"Sao Miguel do Guama"},{"country":"BR","id":3466041,"coord":{"lat":-14.64083,"lon":-39.551109},"name":"Coaraci"},{"country":"BR","id":3445852,"coord":{"lat":-19.635281,"lon":-42.10556},"name":"Ubaporanga"},{"country":"BR","id":3402882,"coord":{"lat":-7.04222,"lon":-39.283611},"name":"Caririacu"},{"country":"BR","id":3465745,"coord":{"lat":-19.03722,"lon":-43.424999},"name":"Conceicao do Mato Dentro"},{"country":"BR","id":3924887,"coord":{"lat":-10.11667,"lon":-67.816673},"name":"P\u00f4rto Franco"},{"country":"BR","id":3445348,"coord":{"lat":-23.87389,"lon":-49.80278},"name":"Wenceslau Braz"},{"country":"BR","id":3460981,"coord":{"lat":-27.29056,"lon":-52.323059},"name":"It\u00e1"},{"country":"BR","id":3450206,"coord":{"lat":-17.81361,"lon":-50.596939},"name":"Santa Helena de Goias"},{"country":"BR","id":3457859,"coord":{"lat":-21.614441,"lon":-55.168331},"name":"Maracaju"},{"country":"BR","id":3473664,"coord":{"lat":-22.968981,"lon":-43.185631},"name":"Botafogo"},{"country":"BR","id":3398112,"coord":{"lat":-4.32222,"lon":-40.710831},"name":"Ipu"},{"country":"BR","id":3467469,"coord":{"lat":-27.566669,"lon":-50.400002},"name":"Canoas"},{"country":"BR","id":3661980,"coord":{"lat":-8.16139,"lon":-70.765556},"name":"Tarauaca"},{"country":"BR","id":3445781,"coord":{"lat":-15.29333,"lon":-39.075279},"name":"Una"},{"country":"BR","id":3460648,"coord":{"lat":-15.56222,"lon":-49.948608},"name":"Itapuranga"},{"country":"BR","id":3461465,"coord":{"lat":-24.708059,"lon":-47.555279},"name":"Iguape"},{"country":"BR","id":3451056,"coord":{"lat":-17.216669,"lon":-51.549999},"name":"Rio Verde"},{"country":"BR","id":3451362,"coord":{"lat":-24.220831,"lon":-48.76556},"name":"Ribeirao Branco"},{"country":"BR","id":3468352,"coord":{"lat":-18.556669,"lon":-51.130829},"name":"Cacu"},{"country":"BR","id":3463555,"coord":{"lat":-29.57472,"lon":-53.444721},"name":"Faxinal do Soturno"},{"country":"BR","id":3456134,"coord":{"lat":-29.47167,"lon":-53.468891},"name":"Nova Palma"},{"country":"BR","id":3471665,"coord":{"lat":-22.23056,"lon":-43.10556},"name":"Areal"},{"country":"BR","id":3458185,"coord":{"lat":-21.983891,"lon":-42.252781},"name":"Macuco"},{"country":"BR","id":3461224,"coord":{"lat":-11.78444,"lon":-38.353062},"name":"Inhambupe"},{"country":"BR","id":3460969,"coord":{"lat":-21.299999,"lon":-40.966671},"name":"Itabapoana"},{"country":"BR","id":3462500,"coord":{"lat":-29.905001,"lon":-51.760281},"name":"General C\u00e2mara"},{"country":"BR","id":3448695,"coord":{"lat":-23.915831,"lon":-49.652222},"name":"S\u00e3o Jos\u00e9 da Boa Vista"},{"country":"BR","id":3471381,"coord":{"lat":-26.95528,"lon":-49.375561},"name":"Ascurra"},{"country":"BR","id":3472339,"coord":{"lat":-16.254721,"lon":-49.98278},"name":"Americano do Brasil"},{"country":"BR","id":3460770,"coord":{"lat":-19.908609,"lon":-49.38139},"name":"Itapagipe"},{"country":"BR","id":3467263,"coord":{"lat":-18.68194,"lon":-49.569721},"name":"Capinopolis"},{"country":"BR","id":3460901,"coord":{"lat":-19.801941,"lon":-40.85556},"name":"Itaguacu"},{"country":"BR","id":3469033,"coord":{"lat":-22.47361,"lon":-45.607498},"name":"Bras\u00f3polis"},{"country":"BR","id":3394500,"coord":{"lat":-5.10667,"lon":-38.372501},"name":"Morada Nova"},{"country":"BR","id":3453661,"coord":{"lat":-23.05389,"lon":-46.358059},"name":"Piracaia"},{"country":"BR","id":3461689,"coord":{"lat":-22.003611,"lon":-50.385281},"name":"Hercul\u00e2ndia"},{"country":"BR","id":3452233,"coord":{"lat":-10.21111,"lon":-36.840279},"name":"Propria"},{"country":"BR","id":3457221,"coord":{"lat":-22.782499,"lon":-43.428612},"name":"Mesquita"},{"country":"BR","id":3447562,"coord":{"lat":-10.73833,"lon":-37.811111},"name":"Simao Dias"},{"country":"BR","id":3460529,"coord":{"lat":-19.394171,"lon":-41.17028},"name":"Itueta"},{"country":"BR","id":3450806,"coord":{"lat":-18.666109,"lon":-43.083889},"name":"Sabinopolis"},{"country":"BR","id":3461399,"coord":{"lat":-28.341391,"lon":-48.82},"name":"Imaru\u00ed"},{"country":"BR","id":3392544,"coord":{"lat":-6.75778,"lon":-36.470829},"name":"Pedra Lavrada"},{"country":"BR","id":3402621,"coord":{"lat":-9.41667,"lon":-41.133331},"name":"Casa Nova"},{"country":"BR","id":3446713,"coord":{"lat":-19.28083,"lon":-42.006672},"name":"Tarumirim"},{"country":"BR","id":3450864,"coord":{"lat":-22.89806,"lon":-45.305279},"name":"Roseira"},{"country":"BR","id":3463294,"coord":{"lat":-20.67667,"lon":-50.145279},"name":"Floreal"},{"country":"BR","id":7593628,"coord":{"lat":-22.702101,"lon":-45.712299},"name":"Monjolinho"},{"country":"BR","id":3446137,"coord":{"lat":-29.516939,"lon":-50.777779},"name":"Tres Coroas"},{"country":"BR","id":3472172,"coord":{"lat":-23.194719,"lon":-51.915279},"name":"\u00c2ngulo"},{"country":"BR","id":3446581,"coord":{"lat":-22.70944,"lon":-52.61694},"name":"Terra Rica"},{"country":"BR","id":3455786,"coord":{"lat":-17.031389,"lon":-48.29583},"name":"Orizona"},{"country":"BR","id":3460087,"coord":{"lat":-21.48028,"lon":-56.138062},"name":"Jardim"},{"country":"BR","id":3395717,"coord":{"lat":-6.83861,"lon":-35.12611},"name":"Mamanguape"},{"country":"BR","id":3387204,"coord":{"lat":-0.71667,"lon":-48.523331},"name":"Soure"},{"country":"BR","id":3409644,"coord":{"lat":-3.73667,"lon":-43.339439},"name":"Corrente"},{"country":"BR","id":3445914,"coord":{"lat":-20.933331,"lon":-50.107498},"name":"Turi\u00faba"},{"country":"BR","id":3454575,"coord":{"lat":-22.79306,"lon":-46.443062},"name":"Pedra Bela"},{"country":"BR","id":3446736,"coord":{"lat":-22.3025,"lon":-51.55917},"name":"Tarabai"},{"country":"BR","id":3450163,"coord":{"lat":-21.684999,"lon":-48.084171},"name":"Santa L\u00facia"},{"country":"BR","id":3453464,"coord":{"lat":-29.83333,"lon":-50.51667},"name":"Pitangueiras"},{"country":"BR","id":3399653,"coord":{"lat":-5.6025,"lon":-37.68861},"name":"Felipe Guerra"},{"country":"BR","id":3470137,"coord":{"lat":-15.86306,"lon":-38.882778},"name":"Belmonte"},{"country":"BR","id":3394792,"coord":{"lat":-8.12028,"lon":-38.729439},"name":"Mirandiba"},{"country":"BR","id":3388456,"coord":{"lat":-8.89778,"lon":-35.147781},"name":"Sao Jose da Coroa Grande"},{"country":"BR","id":3471529,"coord":{"lat":-17.86722,"lon":-42.556938},"name":"Aricanduva"},{"country":"BR","id":3400752,"coord":{"lat":-7.03306,"lon":-35.85722},"name":"Esperanca"},{"country":"BR","id":3391908,"coord":{"lat":-4.27333,"lon":-41.776939},"name":"Piripiri"},{"country":"BR","id":3464713,"coord":{"lat":-12.6125,"lon":-38.29694},"name":"Dias d\u00e1vila"},{"country":"BR","id":3451927,"coord":{"lat":-22.10667,"lon":-41.472221},"name":"Quissam\u00e3"},{"country":"BR","id":3452599,"coord":{"lat":-14.09306,"lon":-46.369438},"name":"Posse"},{"country":"BR","id":3449937,"coord":{"lat":-20.897779,"lon":-45.130829},"name":"Santana do Jacar\u00e9"},{"country":"BR","id":3449951,"coord":{"lat":-21.825279,"lon":-46.404442},"name":"Santana de Caldas"},{"country":"BR","id":3405380,"coord":{"lat":-9.16972,"lon":-36.679722},"name":"Bom Conselho"},{"country":"BR","id":3385918,"coord":{"lat":-7.60222,"lon":-37.31139},"name":"Tuparetama"},{"country":"BR","id":3397940,"coord":{"lat":-9.06667,"lon":-38.316669},"name":"Itaparica"},{"country":"BR","id":3450901,"coord":{"lat":-28.13139,"lon":-55.025558},"name":"Roque Gonzales"},{"country":"BR","id":3472277,"coord":{"lat":-20.80583,"lon":-40.645561},"name":"Anchieta"},{"country":"BR","id":3446341,"coord":{"lat":-20.90472,"lon":-42.022781},"name":"Tombos"},{"country":"BR","id":3468858,"coord":{"lat":-14.95944,"lon":-39.299721},"name":"Buerarema"},{"country":"BR","id":3408221,"coord":{"lat":-5.89222,"lon":-42.636108},"name":"Agua Branca"},{"country":"BR","id":3468317,"coord":{"lat":-14.06944,"lon":-42.474998},"name":"Caetite"},{"country":"BR","id":3392088,"coord":{"lat":-3.60833,"lon":-45.34333},"name":"Pindare Mirim"},{"country":"BR","id":3453591,"coord":{"lat":-22.40111,"lon":-45.53167},"name":"Piranguinho"},{"country":"BR","id":3385674,"coord":{"lat":-3.625,"lon":-39.508331},"name":"Uruburetama"},{"country":"BR","id":3402787,"coord":{"lat":-4.16667,"lon":-40.94278},"name":"Carnaubal"},{"country":"BR","id":3462999,"coord":{"lat":-24.06583,"lon":-53.847778},"name":"Francisco Alves"},{"country":"BR","id":3463590,"coord":{"lat":-10.6,"lon":-38.216671},"name":"F\u00e1tima"},{"country":"BR","id":3460825,"coord":{"lat":-17.85722,"lon":-42.858891},"name":"Itamarandiba"},{"country":"BR","id":3393452,"coord":{"lat":-7.8825,"lon":-40.081669},"name":"Ouricuri"},{"country":"BR","id":3448599,"coord":{"lat":-23.852501,"lon":-46.942501},"name":"Sao Lourenco da Serra"},{"country":"BR","id":3456356,"coord":{"lat":-16.581671,"lon":-49.881672},"name":"Naz\u00e1rio"},{"country":"BR","id":7773450,"coord":{"lat":-23.49651,"lon":-49.968021},"name":"S\u00edtio Elias Viscala"},{"country":"BR","id":3457854,"coord":{"lat":-13.44111,"lon":-40.430828},"name":"Maracas"},{"country":"BR","id":3393764,"coord":{"lat":-7.02528,"lon":-42.131111},"name":"Oeiras"},{"country":"BR","id":3467617,"coord":{"lat":-12.28333,"lon":-40.433331},"name":"Canad\u00e1"},{"country":"BR","id":3468641,"coord":{"lat":-15.80056,"lon":-46.92667},"name":"Cabeceiras"},{"country":"BR","id":3450158,"coord":{"lat":-10.18333,"lon":-48.866669},"name":"Santa Luz"},{"country":"BR","id":3403241,"coord":{"lat":-5.06778,"lon":-36.78167},"name":"Porto do Mangue"},{"country":"BR","id":3458507,"coord":{"lat":-22.52306,"lon":-46.650002},"name":"Lind\u00f3ia"},{"country":"BR","id":3467609,"coord":{"lat":-25.014721,"lon":-47.92667},"name":"Cananeia"},{"country":"BR","id":3461733,"coord":{"lat":-16.34944,"lon":-53.758331},"name":"Guiratinga"},{"country":"BR","id":3465881,"coord":{"lat":-22.8375,"lon":-51.973061},"name":"Colorado"},{"country":"BR","id":3455304,"coord":{"lat":-27.067499,"lon":-53.16111},"name":"Palmitos"},{"country":"BR","id":3457145,"coord":{"lat":-22.409439,"lon":-48.450562},"name":"Mineiros do Tiet\u00ea"},{"country":"BR","id":3457425,"coord":{"lat":-15.25,"lon":-56.73333},"name":"Mato Grosso"},{"country":"BR","id":3465276,"coord":{"lat":-28.99444,"lon":-51.695831},"name":"Cotipor\u00e3"},{"country":"BR","id":3471425,"coord":{"lat":-30.077221,"lon":-51.729172},"name":"Arroio dos Ratos"},{"country":"BR","id":3456285,"coord":{"lat":-14.47389,"lon":-48.459721},"name":"Niquelandia"},{"country":"BR","id":3447450,"coord":{"lat":-19.23472,"lon":-42.098331},"name":"Sobr\u00e1lia"},{"country":"BR","id":3451107,"coord":{"lat":-20.862499,"lon":-40.93639},"name":"Rio Novo do Sul"},{"country":"BR","id":3445818,"coord":{"lat":-11.38333,"lon":-37.65778},"name":"Umbauba"},{"country":"BR","id":3388145,"coord":{"lat":-9.01528,"lon":-42.69944},"name":"Sao Raimundo Nonato"},{"country":"BR","id":3463797,"coord":{"lat":-13.91667,"lon":-39.75},"name":"Estivado"},{"country":"BR","id":3457566,"coord":{"lat":-15.56306,"lon":-39.302502},"name":"Mascote"},{"country":"BR","id":3455362,"coord":{"lat":-16.805,"lon":-49.925831},"name":"Palmeiras de Goias"},{"country":"BR","id":3471981,"coord":{"lat":-28.85833,"lon":-51.28278},"name":"Ant\u00f4nio Prado"},{"country":"BR","id":3467545,"coord":{"lat":-24.56694,"lon":-51.333328},"name":"Candido de Abreu"},{"country":"BR","id":3472831,"coord":{"lat":-29.645281,"lon":-53.240002},"name":"Agudo"},{"country":"BR","id":3456037,"coord":{"lat":-20.730829,"lon":-47.73056},"name":"Nuporanga"},{"country":"BR","id":3407297,"coord":{"lat":-6.82833,"lon":-35.758331},"name":"Arara"},{"country":"BR","id":3466904,"coord":{"lat":-22.122219,"lon":-45.129169},"name":"Carmo de Minas"},{"country":"BR","id":3466803,"coord":{"lat":-28.56111,"lon":-51.978329},"name":"Casca"},{"country":"BR","id":3452502,"coord":{"lat":-27.25806,"lon":-49.933891},"name":"Pouso Redondo"},{"country":"BR","id":3453943,"coord":{"lat":-26.763889,"lon":-48.671669},"name":"Pi\u00e7arras"},{"country":"BR","id":3456111,"coord":{"lat":-27.28583,"lon":-48.929722},"name":"Nova Trento"},{"country":"BR","id":3455643,"coord":{"lat":-21.56222,"lon":-51.260559},"name":"Pacaembu"},{"country":"BR","id":3456498,"coord":{"lat":-10.42722,"lon":-36.959171},"name":"Muribeca"},{"country":"BR","id":3408134,"coord":{"lat":-3.44889,"lon":-40.473888},"name":"Aiu\u00e1"},{"country":"BR","id":3406954,"coord":{"lat":-6.9425,"lon":-38.967499},"name":"Aurora"},{"country":"BR","id":3386370,"coord":{"lat":-6.08333,"lon":-35.150002},"name":"Timb\u00f3"},{"country":"BR","id":3406923,"coord":{"lat":-7.20472,"lon":-47.756939},"name":"Baba\u00e7ul\u00e2ndia"},{"country":"BR","id":3452241,"coord":{"lat":-29.244169,"lon":-52.312222},"name":"Progresso"},{"country":"BR","id":3393829,"coord":{"lat":-1.20778,"lon":-47.392502},"name":"Nova Timboteua"},{"country":"BR","id":3450613,"coord":{"lat":-22.84667,"lon":-47.676941},"name":"Saltinho"},{"country":"BR","id":7594343,"coord":{"lat":-23.598,"lon":-47.556999},"name":"S\u00edtio Velho"},{"country":"BR","id":3471485,"coord":{"lat":-28.26194,"lon":-49.017502},"name":"Armaz\u00e9m"},{"country":"BR","id":3445853,"coord":{"lat":-14.3125,"lon":-39.32333},"name":"Ubaitaba"},{"country":"BR","id":3407194,"coord":{"lat":-4.95611,"lon":-37.13694},"name":"Areia Branca"},{"country":"BR","id":3454161,"coord":{"lat":-19.95278,"lon":-45.084171},"name":"Perdig\u00e3o"},{"country":"BR","id":3461642,"coord":{"lat":-21.889999,"lon":-49.024719},"name":"Iacanga"},{"country":"BR","id":3469128,"coord":{"lat":-27.19944,"lon":-49.074718},"name":"Botuver\u00e1"},{"country":"BR","id":3468869,"coord":{"lat":-22.44083,"lon":-46.35083},"name":"Bueno Brandao"},{"country":"BR","id":6322440,"coord":{"lat":-21.00667,"lon":-48.771431},"name":"Para\u00edso"},{"country":"BR","id":3455119,"coord":{"lat":-21.01639,"lon":-48.773609},"name":"Paraiso"},{"country":"BR","id":3405051,"coord":{"lat":-4.38778,"lon":-59.593891},"name":"Borba"},{"country":"BR","id":7776186,"coord":{"lat":-23.784439,"lon":-50.04937},"name":"S\u00edtio Jo\u00e3o Pereira"},{"country":"BR","id":3447598,"coord":{"lat":-28.59778,"lon":-49.424438},"name":"Sideropolis"},{"country":"BR","id":3449950,"coord":{"lat":-21.28722,"lon":-42.55722},"name":"Santana de Cataguases"},{"country":"BR","id":3461830,"coord":{"lat":-23.37278,"lon":-48.18417},"name":"Guare\u00ed"},{"country":"BR","id":3456248,"coord":{"lat":-14.45472,"lon":-56.80278},"name":"Nortelandia"},{"country":"BR","id":3399679,"coord":{"lat":-7.95083,"lon":-35.389172},"name":"Feira Nova"},{"country":"BR","id":6321234,"coord":{"lat":-20.59235,"lon":-46.1572},"name":"Capit\u00f3lio"},{"country":"BR","id":3467241,"coord":{"lat":-20.61528,"lon":-46.049999},"name":"Capitolio"},{"country":"BR","id":3401443,"coord":{"lat":-6.41167,"lon":-36.789719},"name":"Cruzeta"},{"country":"BR","id":3391395,"coord":{"lat":-9.91722,"lon":-37.278332},"name":"Porto da Folha"},{"country":"BR","id":7771981,"coord":{"lat":-23.264669,"lon":-52.505798},"name":"Juranda"},{"country":"BR","id":3456666,"coord":{"lat":-29.538059,"lon":-51.08083},"name":"Morro Reuter"},{"country":"BR","id":3445912,"coord":{"lat":-17.285561,"lon":-42.73},"name":"Turmalina"},{"country":"BR","id":3405814,"coord":{"lat":-9.8,"lon":-36.333328},"name":"Belo Horizonte"},{"country":"BR","id":3461525,"coord":{"lat":-12.18528,"lon":-43.220558},"name":"Ibotirama"},{"country":"BR","id":3386201,"coord":{"lat":-1.07611,"lon":-46.903061},"name":"Tracuateua"},{"country":"BR","id":3474028,"coord":{"lat":-25.569441,"lon":-48.312778},"name":"Convento"},{"country":"BR","id":3450720,"coord":{"lat":-20.77194,"lon":-47.838058},"name":"Sales Oliveira"},{"country":"BR","id":3460813,"coord":{"lat":-15.245,"lon":-40.624439},"name":"Itambe"},{"country":"BR","id":3401548,"coord":{"lat":-5.17833,"lon":-40.677502},"name":"Crateus"},{"country":"BR","id":3462710,"coord":{"lat":-18.966669,"lon":-51.950001},"name":"Galheiro"},{"country":"BR","id":3453415,"coord":{"lat":-27.32889,"lon":-53.058609},"name":"Planalto"},{"country":"BR","id":3404394,"coord":{"lat":-1.01139,"lon":-48.963329},"name":"Cachoeira do Arari"},{"country":"BR","id":3405806,"coord":{"lat":-2.63639,"lon":-54.937222},"name":"Belterra"},{"country":"BR","id":3450978,"coord":{"lat":-26.85,"lon":-49.333328},"name":"Rodeio Doze"},{"country":"BR","id":3453682,"coord":{"lat":-22.613609,"lon":-45.176109},"name":"Piquete"},{"country":"BR","id":3452669,"coord":{"lat":-22.700001,"lon":-51.366669},"name":"P\u00f4rto Ribeir\u00e3o Vermelho"},{"country":"BR","id":3467543,"coord":{"lat":-27.951941,"lon":-54.751942},"name":"C\u00e2ndido God\u00f3i"},{"country":"BR","id":3447063,"coord":{"lat":-27.11639,"lon":-49.998058},"name":"Tai\u00f3"},{"country":"BR","id":3462505,"coord":{"lat":-21.83889,"lon":-48.49472},"name":"Gavi\u00e3o Peixoto"},{"country":"BR","id":3450560,"coord":{"lat":-22.89278,"lon":-49.985561},"name":"Salto Grande"},{"country":"BR","id":3400558,"coord":{"lat":-3.89,"lon":-38.450562},"name":"Eusebio"},{"country":"BR","id":3469311,"coord":{"lat":-16.617781,"lon":-48.963329},"name":"Bonfin\u00f3polis"},{"country":"BR","id":3465536,"coord":{"lat":-24.798889,"lon":-53.306671},"name":"Corbelia"},{"country":"BR","id":3455222,"coord":{"lat":-30.191389,"lon":-52.373611},"name":"Pantano Grande"},{"country":"BR","id":3461501,"coord":{"lat":-22.509171,"lon":-48.557781},"name":"Igaracu do Tiete"},{"country":"BR","id":3456538,"coord":{"lat":-22.61306,"lon":-46.360561},"name":"Munhoz"},{"country":"BR","id":3386446,"coord":{"lat":-4.83722,"lon":-37.252499},"name":"Tibau"},{"country":"BR","id":3461606,"coord":{"lat":-14.865,"lon":-39.587502},"name":"Ibicarai"},{"country":"BR","id":3460513,"coord":{"lat":-19.72806,"lon":-50.19556},"name":"Iturama"},{"country":"BR","id":3393692,"coord":{"lat":-2.88333,"lon":-39.950001},"name":"Olho d\u2019Agua"},{"country":"BR","id":3452261,"coord":{"lat":-21.01667,"lon":-51.116669},"name":"Primeira Alian\u00e7a"},{"country":"BR","id":3471801,"coord":{"lat":-20.66667,"lon":-42.520828},"name":"Araponga"},{"country":"BR","id":3454105,"coord":{"lat":-19.157499,"lon":-42.233608},"name":"Periquito"},{"country":"BR","id":3392425,"coord":{"lat":-6.43917,"lon":-35.22139},"name":"Pedro Velho"},{"country":"BR","id":3461155,"coord":{"lat":-27.004169,"lon":-51.242222},"name":"Iomer\u00ea"},{"country":"BR","id":3471840,"coord":{"lat":-15.8975,"lon":-52.250832},"name":"Aragarcas"},{"country":"BR","id":3458362,"coord":{"lat":-20.43972,"lon":-42.102779},"name":"Luisburgo"},{"country":"BR","id":3450044,"coord":{"lat":-21.35083,"lon":-51.75528},"name":"Santa Mercedes"},{"country":"BR","id":3386177,"coord":{"lat":-3.27778,"lon":-39.26889},"name":"Trairi"},{"country":"BR","id":3404862,"coord":{"lat":-8.14583,"lon":-36.371109},"name":"Brejo da Madre de Deus"},{"country":"BR","id":3391040,"coord":{"lat":-7.35833,"lon":-35.898331},"name":"Queimadas"},{"country":"BR","id":3401340,"coord":{"lat":-8.61667,"lon":-35.950001},"name":"Cupira"},{"country":"BR","id":3465495,"coord":{"lat":-21.35194,"lon":-50.281391},"name":"Coroados"},{"country":"BR","id":3464097,"coord":{"lat":-20.67083,"lon":-44.065559},"name":"Entre Rios de Minas"},{"country":"BR","id":3450977,"coord":{"lat":-21.200001,"lon":-42.865002},"name":"Rodeiro"},{"country":"BR","id":3387242,"coord":{"lat":-5.73333,"lon":-39.0075},"name":"Solon\u00f3pole"},{"country":"BR","id":3410836,"coord":{"lat":-2.79352,"lon":-40.519039},"name":"Jericoacoara"},{"country":"BR","id":3461539,"coord":{"lat":-11.54722,"lon":-41.977501},"name":"Ibitit\u00e1"},{"country":"BR","id":3469294,"coord":{"lat":-21.121111,"lon":-56.481941},"name":"Bonito"},{"country":"BR","id":3468720,"coord":{"lat":-17.35111,"lon":-44.962219},"name":"Buritizeiro"},{"country":"BR","id":3466196,"coord":{"lat":-25.855829,"lon":-52.523331},"name":"Chopinzinho"},{"country":"BR","id":3462087,"coord":{"lat":-28.33111,"lon":-49.035278},"name":"Gravatal"},{"country":"BR","id":3449121,"coord":{"lat":-29.448059,"lon":-50.583611},"name":"Sao Francisco de Paula"},{"country":"BR","id":3463939,"coord":{"lat":-14.92611,"lon":-42.819172},"name":"Espinosa"},{"country":"BR","id":3449124,"coord":{"lat":-29.55028,"lon":-55.131111},"name":"Sao Francisco de Assis"},{"country":"BR","id":3460558,"coord":{"lat":-17.08333,"lon":-54.933331},"name":"Itiquira"},{"country":"BR","id":3466470,"coord":{"lat":-22.82111,"lon":-51.59528},"name":"Centenario do Sul"},{"country":"BR","id":3469422,"coord":{"lat":-21.132219,"lon":-41.67667},"name":"Bom Jesus do Norte"},{"country":"BR","id":3451121,"coord":{"lat":-26.105829,"lon":-49.797501},"name":"Rio Negro"},{"country":"BR","id":3397355,"coord":{"lat":-2.06667,"lon":-44.666672},"name":"Jipuba"},{"country":"BR","id":3385873,"coord":{"lat":-3.85444,"lon":-40.921108},"name":"Ubajara"},{"country":"BR","id":3405339,"coord":{"lat":-7.79583,"lon":-35.587219},"name":"Bom Jardim"},{"country":"BR","id":3465370,"coord":{"lat":-18.66917,"lon":-42.773891},"name":"Correntinho"},{"country":"BR","id":3449710,"coord":{"lat":-10.78889,"lon":-37.05444},"name":"Santo Amaro das Brotas"},{"country":"BR","id":3448558,"coord":{"lat":-16.525,"lon":-50.372219},"name":"Sao Luis de Montes Belos"},{"country":"BR","id":3662155,"coord":{"lat":-9.06556,"lon":-68.656937},"name":"Sena Madureira"},{"country":"BR","id":3456146,"coord":{"lat":-22.765829,"lon":-52.985001},"name":"Nova Londrina"},{"country":"BR","id":3449491,"coord":{"lat":-22.827221,"lon":-45.662498},"name":"Santo Ant\u00f4nio do Pinhal"},{"country":"BR","id":3448850,"coord":{"lat":-18.547779,"lon":-42.763329},"name":"Sao Joao Evangelista"},{"country":"BR","id":3454761,"coord":{"lat":-20.639441,"lon":-47.28167},"name":"Patroc\u00ednio Paulista"},{"country":"BR","id":3462022,"coord":{"lat":-20.77556,"lon":-41.67944},"name":"Guacui"},{"country":"BR","id":3385726,"coord":{"lat":-3.20778,"lon":-43.40361},"name":"Urbano Santos"},{"country":"BR","id":3471839,"coord":{"lat":-16.91194,"lon":-49.451389},"name":"Aragoi\u00e2nia"},{"country":"BR","id":3461334,"coord":{"lat":-22.31694,"lon":-46.327782},"name":"Inconfidentes"},{"country":"BR","id":3465319,"coord":{"lat":-20.477779,"lon":-49.777779},"name":"Cosmorama"},{"country":"BR","id":3451474,"coord":{"lat":-11.80694,"lon":-39.385559},"name":"Riachao do Jacuipe"},{"country":"BR","id":3449749,"coord":{"lat":-18.83861,"lon":-50.121391},"name":"Santa Vitoria"},{"country":"BR","id":3466871,"coord":{"lat":-21.487499,"lon":-44.642502},"name":"Carrancas"},{"country":"BR","id":3449851,"coord":{"lat":-21.710279,"lon":-47.478062},"name":"Santa Rita do Passa Quatro"},{"country":"BR","id":3396786,"coord":{"lat":-7.84472,"lon":-35.319721},"name":"Lagoa do Carro"},{"country":"BR","id":3406457,"coord":{"lat":-5.08,"lon":-37.616669},"name":"Barauna"},{"country":"BR","id":3398192,"coord":{"lat":-9.22139,"lon":-37.748611},"name":"Inhapi"},{"country":"BR","id":3464571,"coord":{"lat":-19.37389,"lon":-42.106392},"name":"Dom Cavati"},{"country":"BR","id":3461640,"coord":{"lat":-21.85833,"lon":-50.689442},"name":"Iacri"},{"country":"BR","id":3407977,"coord":{"lat":-6.4125,"lon":-38.015831},"name":"Alexandria"},{"country":"BR","id":3388440,"coord":{"lat":-7.86139,"lon":-38.75972},"name":"Sao Jose do Belmonte"},{"country":"BR","id":3403941,"coord":{"lat":-9.71667,"lon":-36.450001},"name":"Cajueiro"},{"country":"BR","id":3460472,"coord":{"lat":-27.175831,"lon":-51.733608},"name":"Jabor\u00e1"},{"country":"BR","id":3454892,"coord":{"lat":-20.65056,"lon":-44.49556},"name":"Passa Tempo"},{"country":"BR","id":3446591,"coord":{"lat":-29.585279,"lon":-50.070831},"name":"Terra de Areia"},{"country":"BR","id":3473235,"coord":{"lat":-20.301109,"lon":-42.477501},"name":"Abre Campo"},{"country":"BR","id":3471553,"coord":{"lat":-22.66806,"lon":-48.665001},"name":"Arei\u00f3polis"},{"country":"BR","id":3460940,"coord":{"lat":-14.2775,"lon":-38.99667},"name":"Itacare"},{"country":"BR","id":3472868,"coord":{"lat":-22.59944,"lon":-47.87611},"name":"\u00c1guas de S\u00e3o Pedro"},{"country":"BR","id":3464255,"coord":{"lat":-30.54389,"lon":-52.521938},"name":"Encruzilhada do Sul"},{"country":"BR","id":3450812,"coord":{"lat":-23.317499,"lon":-51.552502},"name":"Sab\u00e1udia"},{"country":"BR","id":3451004,"coord":{"lat":-19.95306,"lon":-54.892502},"name":"Rochedo"},{"country":"BR","id":3457147,"coord":{"lat":-17.569441,"lon":-52.551109},"name":"Mineiros"},{"country":"BR","id":3453020,"coord":{"lat":-19.932779,"lon":-50.537498},"name":"Populina"},{"country":"BR","id":3397665,"coord":{"lat":-4.83389,"lon":-37.781109},"name":"Jaguaruana"},{"country":"BR","id":3453218,"coord":{"lat":-17.747499,"lon":-39.226109},"name":"Ponta da Areia"},{"country":"BR","id":3451098,"coord":{"lat":-28.15,"lon":-49.216671},"name":"Rio Pequeno"},{"country":"BR","id":3460197,"coord":{"lat":-28.615,"lon":-49.025558},"name":"Jaguaruna"},{"country":"BR","id":3458631,"coord":{"lat":-16.619169,"lon":-48.74361},"name":"Leopoldo de Bulh\u00f5es"},{"country":"BR","id":3464363,"coord":{"lat":-17.338329,"lon":-49.931389},"name":"Edeia"},{"country":"BR","id":3447909,"coord":{"lat":-27.47806,"lon":-53.4025},"name":"Seberi"},{"country":"BR","id":3460176,"coord":{"lat":-18.46278,"lon":-41.80389},"name":"Jampruca"},{"country":"BR","id":3449342,"coord":{"lat":-27.90139,"lon":-48.929169},"name":"S\u00e3o Bonif\u00e1cio"},{"country":"BR","id":3466682,"coord":{"lat":-20.07472,"lon":-43.407501},"name":"Catas Altas"},{"country":"BR","id":3461742,"coord":{"lat":-18.843889,"lon":-46.79306},"name":"Guimar\u00e2nia"},{"country":"BR","id":3467353,"coord":{"lat":-31.76333,"lon":-52.483891},"name":"Cap\u00e3o do Le\u00e3o"},{"country":"BR","id":3470718,"coord":{"lat":-15.0725,"lon":-57.18111},"name":"Barra do Bugres"},{"country":"BR","id":3453515,"coord":{"lat":-27.41972,"lon":-51.771938},"name":"Piratuba"},{"country":"BR","id":3447757,"coord":{"lat":-21.310829,"lon":-47.565559},"name":"Serra Azul"},{"country":"BR","id":3448460,"coord":{"lat":-23.87833,"lon":-47.997219},"name":"S\u00e3o Miguel Arcanjo"},{"country":"BR","id":3404231,"coord":{"lat":-8.77306,"lon":-36.622501},"name":"Caetes"},{"country":"BR","id":3396266,"coord":{"lat":-5.14556,"lon":-38.098061},"name":"Limoeiro do Norte"},{"country":"BR","id":3455459,"coord":{"lat":-26.484171,"lon":-51.990559},"name":"Palmas"},{"country":"BR","id":3457098,"coord":{"lat":-22.291941,"lon":-51.906391},"name":"Mirante do Paranapanema"},{"country":"BR","id":3460780,"coord":{"lat":-19.17194,"lon":-41.86528},"name":"Itanhomi"},{"country":"BR","id":3407005,"coord":{"lat":-5.51667,"lon":-35.799999},"name":"Assun\u00e7\u00e3o"},{"country":"BR","id":3464480,"coord":{"lat":-22.1,"lon":-48.317501},"name":"Dourado"},{"country":"BR","id":3474495,"coord":{"lat":-13.65,"lon":-59.911388},"name":"Nova Alvorada"},{"country":"BR","id":3445255,"coord":{"lat":-25.88139,"lon":-52.90778},"name":"Ver\u00ea"},{"country":"BR","id":3456806,"coord":{"lat":-22.432501,"lon":-46.572498},"name":"Monte Siao"},{"country":"BR","id":3473269,"coord":{"lat":-18.485559,"lon":-47.403061},"name":"Abadia dos Dourados"},{"country":"BR","id":3451290,"coord":{"lat":-20.080561,"lon":-47.421391},"name":"Rifaina"},{"country":"BR","id":3460543,"coord":{"lat":-21.73694,"lon":-46.974998},"name":"Itobi"},{"country":"BR","id":3450063,"coord":{"lat":-13.39472,"lon":-44.18861},"name":"Santa Maria da Vitoria"},{"country":"BR","id":3454384,"coord":{"lat":-19.227779,"lon":-47.462219},"name":"Pedrin\u00f3polis"},{"country":"BR","id":3459795,"coord":{"lat":-19.7575,"lon":-40.385559},"name":"Joao Neiva"},{"country":"BR","id":3472585,"coord":{"lat":-27.700279,"lon":-49.333611},"name":"Alfredo Wagner"},{"country":"BR","id":3448336,"coord":{"lat":-23.86528,"lon":-51.856392},"name":"S\u00e3o Pedro do Iva\u00ed"},{"country":"BR","id":3467305,"coord":{"lat":-17.691389,"lon":-42.515831},"name":"Capelinha"},{"country":"BR","id":3460351,"coord":{"lat":-28.997499,"lon":-49.763611},"name":"Jacinto Machado"},{"country":"BR","id":3466405,"coord":{"lat":-24.82361,"lon":-49.261108},"name":"Cerro Azul"},{"country":"BR","id":3398379,"coord":{"lat":-6.40111,"lon":-38.862221},"name":"Ico"},{"country":"BR","id":3447848,"coord":{"lat":-24.11278,"lon":-49.463612},"name":"Senges"},{"country":"BR","id":3472397,"coord":{"lat":-22.780279,"lon":-51.23111},"name":"Alvorada do Sul"},{"country":"BR","id":3469065,"coord":{"lat":-16.430559,"lon":-49.389172},"name":"Brazabrantes"},{"country":"BR","id":3663145,"coord":{"lat":-2.62139,"lon":-60.944172},"name":"Novo Air\u00e3o"},{"country":"BR","id":3466936,"coord":{"lat":-23.424999,"lon":-49.720829},"name":"Carl\u00f3polis"},{"country":"BR","id":3407011,"coord":{"lat":-6.43333,"lon":-48.383331},"name":"Assaizal"},{"country":"BR","id":3466634,"coord":{"lat":-28.25,"lon":-54.011669},"name":"Catu\u00edpe"},{"country":"BR","id":3458629,"coord":{"lat":-23.08,"lon":-50.75111},"name":"Le\u00f3polis"},{"country":"BR","id":3453297,"coord":{"lat":-19.61972,"lon":-41.63694},"name":"Pocrane"},{"country":"BR","id":3451750,"coord":{"lat":-21.525,"lon":-42.46917},"name":"Recreio"},{"country":"BR","id":3458417,"coord":{"lat":-20.96694,"lon":-50.224171},"name":"Lourdes"},{"country":"BR","id":3461889,"coord":{"lat":-21.895,"lon":-49.589722},"name":"Guarant\u00e3"},{"country":"BR","id":3468823,"coord":{"lat":-11.14694,"lon":-37.62056},"name":"Boquim"},{"country":"BR","id":7775367,"coord":{"lat":-23.512199,"lon":-50.052269},"name":"S\u00edtio S\u00e3o Jos\u00e9"},{"country":"BR","id":3470703,"coord":{"lat":-23.115,"lon":-50.181389},"name":"Barra do Jacar\u00e9"},{"country":"BR","id":3451359,"coord":{"lat":-20.45694,"lon":-47.590279},"name":"Ribeir\u00e3o Corrente"},{"country":"BR","id":3401751,"coord":{"lat":-9.63833,"lon":-35.803059},"name":"Coqueiro Seco"},{"country":"BR","id":3459187,"coord":{"lat":-20.91444,"lon":-44.078331},"name":"Lagoa Dourada"},{"country":"BR","id":3471846,"coord":{"lat":-16.84972,"lon":-42.070278},"name":"Aracuai"},{"country":"BR","id":3452380,"coord":{"lat":-20.74472,"lon":-46.860828},"name":"Prat\u00e1polis"},{"country":"BR","id":3386116,"coord":{"lat":-9.41667,"lon":-36.616669},"name":"Travessada"},{"country":"BR","id":3465339,"coord":{"lat":-15.92361,"lon":-48.808609},"name":"Corumb\u00e1 de Goi\u00e1s"},{"country":"BR","id":3388092,"coord":{"lat":-5.9725,"lon":-36.075279},"name":"Sao Tome"},{"country":"BR","id":3386264,"coord":{"lat":-8.00667,"lon":-36.056671},"name":"Toritama"},{"country":"BR","id":7619472,"coord":{"lat":-24.73679,"lon":-48.118839},"name":"Loteamento Jardim Ana Maria"},{"country":"BR","id":3472444,"coord":{"lat":-23.874439,"lon":-53.901669},"name":"Altania"},{"country":"BR","id":3467718,"coord":{"lat":-25.36861,"lon":-49.451389},"name":"Campo Magro"},{"country":"BR","id":3391188,"coord":{"lat":-7.96667,"lon":-46.583328},"name":"Primavera"},{"country":"BR","id":3411871,"coord":{"lat":-6.38917,"lon":-47.864441},"name":"Angico"},{"country":"BR","id":3457105,"coord":{"lat":-10.95444,"lon":-40.575829},"name":"Mirangaba"},{"country":"BR","id":3465521,"coord":{"lat":-19.125,"lon":-44.320831},"name":"Cordisburgo"},{"country":"BR","id":3451396,"coord":{"lat":-24.65694,"lon":-49.008888},"name":"Ribeira"},{"country":"BR","id":3456864,"coord":{"lat":-15.155,"lon":-42.874722},"name":"Monte Azul"},{"country":"BR","id":3458339,"coord":{"lat":-22.75528,"lon":-51.657219},"name":"Lupion\u00f3polis"},{"country":"BR","id":3472808,"coord":{"lat":-19.495831,"lon":-41.063889},"name":"Aimores"},{"country":"BR","id":3402893,"coord":{"lat":-3.95056,"lon":-40.473331},"name":"Carire"},{"country":"BR","id":3389822,"coord":{"lat":-0.61361,"lon":-47.35611},"name":"Salinopolis"},{"country":"BR","id":3390295,"coord":{"lat":-8.66361,"lon":-35.158611},"name":"Rio Formoso"},{"country":"BR","id":3460908,"coord":{"lat":-12.98639,"lon":-40.9725},"name":"Itaet\u00e9"},{"country":"BR","id":3458817,"coord":{"lat":-11.38333,"lon":-41.83194},"name":"Lapao"},{"country":"BR","id":3463251,"coord":{"lat":-14.86,"lon":-39.659721},"name":"Floresta Azul"},{"country":"BR","id":3389462,"coord":{"lat":-8.80778,"lon":-39.825562},"name":"Santa Maria da Boa Vista"},{"country":"BR","id":3400740,"coord":{"lat":-3.90167,"lon":-42.233608},"name":"Esperantina"},{"country":"BR","id":3404833,"coord":{"lat":-7.49333,"lon":-38.987221},"name":"Brejo Santo"},{"country":"BR","id":3396792,"coord":{"lat":-5.91667,"lon":-35.73333},"name":"Lagoa do Canto"},{"country":"BR","id":3460837,"coord":{"lat":-14.28361,"lon":-39.842781},"name":"Itagiba"},{"country":"BR","id":3465228,"coord":{"lat":-18.50667,"lon":-54.759998},"name":"Coxim"},{"country":"BR","id":3456816,"coord":{"lat":-21.18972,"lon":-46.980282},"name":"Monte Santo de Minas"},{"country":"BR","id":3458217,"coord":{"lat":-27.56694,"lon":-51.667782},"name":"Machadinho"},{"country":"BR","id":3402206,"coord":{"lat":-8.87917,"lon":-48.44083},"name":"Charqueada"},{"country":"BR","id":3468186,"coord":{"lat":-21.831671,"lon":-51.998329},"name":"Caiu\u00e1"},{"country":"BR","id":3467272,"coord":{"lat":-11.38111,"lon":-40.012779},"name":"Capim Grosso"},{"country":"BR","id":3452330,"coord":{"lat":-27.05056,"lon":-49.62278},"name":"Presidente Get\u00falio"},{"country":"BR","id":3411913,"coord":{"lat":-8.05917,"lon":-48.474998},"name":"Colinas do Tocantins"},{"country":"BR","id":3398706,"coord":{"lat":-3.12028,"lon":-40.826111},"name":"Granja"},{"country":"BR","id":3458079,"coord":{"lat":-24.319441,"lon":-52.529999},"name":"Mambor\u00ea"},{"country":"BR","id":3468435,"coord":{"lat":-18.514999,"lon":-49.501389},"name":"Cachoeira Dourada"},{"country":"BR","id":3457243,"coord":{"lat":-21.16667,"lon":-49.58083},"name":"Mendon\u00e7a"},{"country":"BR","id":3448667,"coord":{"lat":-26.455,"lon":-53.494171},"name":"S\u00e3o Jos\u00e9 do Cedro"},{"country":"BR","id":3451104,"coord":{"lat":-19.193609,"lon":-46.247219},"name":"Rio Parana\u00edba"},{"country":"BR","id":3454369,"coord":{"lat":-24.274719,"lon":-47.23278},"name":"Pedro de Toledo"},{"country":"BR","id":3446665,"coord":{"lat":-12.43333,"lon":-39.23333},"name":"Teixeira"},{"country":"BR","id":3470674,"coord":{"lat":-10.90889,"lon":-37.038609},"name":"Barra dos Coqueiros"},{"country":"BR","id":3468908,"coord":{"lat":-15.24111,"lon":-51.160561},"name":"Brit\u00e2nia"},{"country":"BR","id":3396601,"coord":{"lat":-4.33333,"lon":-45.166672},"name":"Lago da Pedra"},{"country":"BR","id":3390542,"coord":{"lat":-7.24806,"lon":-35.662781},"name":"Riach\u00e3o do Bacamarte"},{"country":"BR","id":3470937,"coord":{"lat":-15.88472,"lon":-40.559441},"name":"Bandeira"},{"country":"BR","id":3459867,"coord":{"lat":-16.654169,"lon":-41.03056},"name":"Joaima"},{"country":"BR","id":3462112,"coord":{"lat":-24.146391,"lon":-51.50639},"name":"Grandes Rios"},{"country":"BR","id":3451095,"coord":{"lat":-19.929171,"lon":-43.174171},"name":"Rio Piracicaba"},{"country":"BR","id":3447296,"coord":{"lat":-20.69083,"lon":-50.923889},"name":"Sud Mennucci"},{"country":"BR","id":3471296,"coord":{"lat":-21.460831,"lon":-49.949718},"name":"Avanhandava"},{"country":"BR","id":3463399,"coord":{"lat":-19.231939,"lon":-43.023331},"name":"Ferros"},{"country":"BR","id":3458136,"coord":{"lat":-15.62111,"lon":-40.266109},"name":"Maiquinique"},{"country":"BR","id":3453010,"coord":{"lat":-20.96278,"lon":-42.040829},"name":"Porciuncula"},{"country":"BR","id":3465527,"coord":{"lat":-22.02861,"lon":-42.360828},"name":"Cordeiro"},{"country":"BR","id":3460530,"coord":{"lat":-13.73222,"lon":-39.14917},"name":"Itubera"},{"country":"BR","id":3460597,"coord":{"lat":-27.366671,"lon":-52.450001},"name":"Itatiba"},{"country":"BR","id":3461633,"coord":{"lat":-19.43667,"lon":-42.217781},"name":"Iapu"},{"country":"BR","id":3447205,"coord":{"lat":-20.96417,"lon":-49.03167},"name":"Tabapu\u00e3"},{"country":"BR","id":3453782,"coord":{"lat":-26.848061,"lon":-52.99194},"name":"Pinhalzinho"},{"country":"BR","id":3451242,"coord":{"lat":-25.190001,"lon":-49.314171},"name":"Rio Branco do Sul"},{"country":"BR","id":3456630,"coord":{"lat":-16.126671,"lon":-50.215},"name":"Moss\u00e2medes"},{"country":"BR","id":3466171,"coord":{"lat":-10.6,"lon":-38.383331},"name":"Cicero Dantas"},{"country":"BR","id":3456696,"coord":{"lat":-11.55,"lon":-41.156109},"name":"Morro do Chapeu"},{"country":"BR","id":3385131,"coord":{"lat":-7.90278,"lon":-35.988331},"name":"Vertentes"},{"country":"BR","id":3446006,"coord":{"lat":-27.29917,"lon":-49.790279},"name":"Trombudo Central"},{"country":"BR","id":3467524,"coord":{"lat":-27.264999,"lon":-48.76778},"name":"Canelinha"},{"country":"BR","id":3445895,"coord":{"lat":-28.926109,"lon":-49.679169},"name":"Turvo"},{"country":"BR","id":3463187,"coord":{"lat":-28.98278,"lon":-52.345829},"name":"Fontoura Xavier"},{"country":"BR","id":3403697,"coord":{"lat":-2.24444,"lon":-49.495831},"name":"Cameta"},{"country":"BR","id":3393768,"coord":{"lat":-1.9175,"lon":-55.518059},"name":"Abidos"},{"country":"BR","id":3457752,"coord":{"lat":-22.30806,"lon":-45.375278},"name":"Maria da F\u00e9"},{"country":"BR","id":3397886,"coord":{"lat":-7.66778,"lon":-35.101669},"name":"Itaquitinga"},{"country":"BR","id":3451950,"coord":{"lat":-22.0725,"lon":-50.307499},"name":"Quintana"},{"country":"BR","id":3451812,"coord":{"lat":-19.96722,"lon":-43.804169},"name":"Raposos"},{"country":"BR","id":3458718,"coord":{"lat":-21.513889,"lon":-50.45528},"name":"Lauro Penteado"},{"country":"BR","id":3398312,"coord":{"lat":-8.63333,"lon":-39.549999},"name":"Ilha Redonda"},{"country":"BR","id":3395215,"coord":{"lat":-7.20028,"lon":-35.789169},"name":"Massaranduba"},{"country":"BR","id":3451286,"coord":{"lat":-21.586941,"lon":-48.070831},"name":"Rinc\u00e3o"},{"country":"BR","id":3457119,"coord":{"lat":-21.19528,"lon":-42.61417},"name":"Mirai"},{"country":"BR","id":3398902,"coord":{"lat":-6.26472,"lon":-35.212502},"name":"Goianinha"},{"country":"BR","id":3445591,"coord":{"lat":-20.42222,"lon":-50.087502},"name":"Valentim Gentil"},{"country":"BR","id":3454671,"coord":{"lat":-26.039721,"lon":-50.835831},"name":"Paulo Frontin"},{"country":"BR","id":3461065,"coord":{"lat":-22.09889,"lon":-46.18972},"name":"Ipui\u00fana"},{"country":"BR","id":3461580,"coord":{"lat":-20.462219,"lon":-47.122219},"name":"Ibiraci"},{"country":"BR","id":3457581,"coord":{"lat":-23.70611,"lon":-51.639439},"name":"Marumbi"},{"country":"BR","id":3454363,"coord":{"lat":-18.100559,"lon":-54.551941},"name":"Pedro Gomes"},{"country":"BR","id":3445727,"coord":{"lat":-20.246111,"lon":-50.643059},"name":"Ur\u00e2nia"},{"country":"BR","id":3389652,"coord":{"lat":-7.9575,"lon":-36.20472},"name":"Santa Cruz do Capibaribe"},{"country":"BR","id":3462321,"coord":{"lat":-18.454439,"lon":-43.740829},"name":"Gouv\u00eaa"},{"country":"BR","id":3461620,"coord":{"lat":-19.478331,"lon":-46.538891},"name":"Ibia"},{"country":"BR","id":3385106,"coord":{"lat":-3.56222,"lon":-41.09222},"name":"Vicosa do Ceara"},{"country":"BR","id":3465373,"coord":{"lat":-13.34333,"lon":-44.636669},"name":"Correntina"},{"country":"BR","id":3451432,"coord":{"lat":-11.61667,"lon":-47.133331},"name":"Riacho do Ouro"},{"country":"BR","id":3471919,"coord":{"lat":-27.035561,"lon":-49.389721},"name":"Api\u00fana"},{"country":"BR","id":3448237,"coord":{"lat":-21.71056,"lon":-46.820831},"name":"S\u00e3o Sebasti\u00e3o da Grama"},{"country":"BR","id":3463449,"coord":{"lat":-29.45083,"lon":-51.306389},"name":"Feliz"},{"country":"BR","id":3456232,"coord":{"lat":-22.91361,"lon":-51.794441},"name":"Nossa Senhora das Gra\u00e7as"},{"country":"BR","id":3464364,"coord":{"lat":-18.373329,"lon":-40.830559},"name":"Ecoporanga"},{"country":"BR","id":3455020,"coord":{"lat":-16.947781,"lon":-50.448608},"name":"Parauna"},{"country":"BR","id":3471012,"coord":{"lat":-25.583891,"lon":-49.635559},"name":"Balsa Nova"},{"country":"BR","id":3452012,"coord":{"lat":-26.72611,"lon":-52.720558},"name":"Quilombo"},{"country":"BR","id":3393876,"coord":{"lat":-6.47806,"lon":-35.433891},"name":"Nova Cruz"},{"country":"BR","id":3472508,"coord":{"lat":-27.24889,"lon":-53.035},"name":"Alpestre"},{"country":"BR","id":3457883,"coord":{"lat":-29.58917,"lon":-55.48278},"name":"Manoel Viana"},