[{"country":"MN","id":1516272,"coord":{"lat":45.55529,"lon":99.433144},"name":"Bayansayr"},{"country":"MN","id":1516274,"coord":{"lat":44.616669,"lon":94.916672},"name":"Bayan-Ovoo"},{"country":"MN","id":1516288,"coord":{"lat":48.23333,"lon":91.916672},"name":"Bayanhoshuu"},{"country":"MN","id":1516296,"coord":{"lat":45.556549,"lon":94.364487},"name":"Bayangol"},{"country":"MN","id":1516305,"coord":{"lat":46.809811,"lon":98.090057},"name":"Bayanbulag"},{"country":"MN","id":1516306,"coord":{"lat":45.014332,"lon":98.927589},"name":"Bayanbulag"},{"country":"MN","id":1516308,"coord":{"lat":49.433331,"lon":99.599998},"name":"Bayan"},{"country":"MN","id":1516309,"coord":{"lat":46.992901,"lon":95.199623},"name":"Bayan"},{"country":"MN","id":1516313,"coord":{"lat":49.65963,"lon":94.404137},"name":"Baruunturuun"},{"country":"MN","id":1516329,"coord":{"lat":46.900002,"lon":97.150002},"name":"Balgatay"},{"country":"MN","id":1516389,"coord":{"lat":50.1791,"lon":98.972054},"name":"Altraga"},{"country":"MN","id":1516392,"coord":{"lat":49.703171,"lon":96.3592},"name":"Altay"},{"country":"MN","id":1516393,"coord":{"lat":46.372219,"lon":96.258331},"name":"Altai"},{"country":"MN","id":1516395,"coord":{"lat":47.110439,"lon":92.843742},"name":"Altanteel"},{"country":"MN","id":1516399,"coord":{"lat":49.306881,"lon":96.342369},"name":"Altanbulag"},{"country":"MN","id":1516400,"coord":{"lat":48.116669,"lon":95.716667},"name":"Altan"},{"country":"MN","id":1516403,"coord":{"lat":47.642262,"lon":96.536873},"name":"Aldar"},{"country":"MN","id":1538308,"coord":{"lat":48.16,"lon":99.875557},"name":"Horgo"},{"country":"MN","id":2028252,"coord":{"lat":44.082161,"lon":106.86985},"name":"UEydzen"},{"country":"MN","id":2028287,"coord":{"lat":48.608849,"lon":101.934242},"name":"Uubulan"},{"country":"MN","id":2028313,"coord":{"lat":43.232449,"lon":101.048126},"name":"Urt"},{"country":"MN","id":2028351,"coord":{"lat":48.690281,"lon":111.994629},"name":"Uldz"},{"country":"MN","id":2028357,"coord":{"lat":46.067402,"lon":100.817238},"name":"Ulaan-Uul"},{"country":"MN","id":2028359,"coord":{"lat":44.333328,"lon":111.23333},"name":"Ulaan-Uul"},{"country":"MN","id":2028411,"coord":{"lat":45.049999,"lon":105.566673},"name":"Ulaanjirem"},{"country":"MN","id":2028429,"coord":{"lat":47.333328,"lon":104.5},"name":"Ulaanhudag"},{"country":"MN","id":2028437,"coord":{"lat":47.949928,"lon":105.553207},"name":"Ulaanhad"},{"country":"MN","id":2028445,"coord":{"lat":46.900002,"lon":109.75},"name":"Ulaan-Ereg"},{"country":"MN","id":2028450,"coord":{"lat":46.36446,"lon":113.577003},"name":"Ulaandel"},{"country":"MN","id":2028534,"coord":{"lat":51.507252,"lon":100.662567},"name":"Turt"},{"country":"MN","id":2028562,"coord":{"lat":47.833328,"lon":104.5},"name":"Tsul-Ulaan"},{"country":"MN","id":2028577,"coord":{"lat":43.306568,"lon":104.074173},"name":"Tsoohor"},{"country":"MN","id":2028581,"coord":{"lat":45.916672,"lon":109.066673},"name":"Tsomog"},{"country":"MN","id":2028606,"coord":{"lat":47.474998,"lon":101.45417},"name":"Tsetserleg"},{"country":"MN","id":2028614,"coord":{"lat":49.478329,"lon":100.889442},"name":"Tsengel"},{"country":"MN","id":2028653,"coord":{"lat":46.183331,"lon":106.716667},"name":"Tsant"},{"country":"MN","id":2028720,"coord":{"lat":45.964039,"lon":101.45977},"name":"Tsagaan-Ovoo"},{"country":"MN","id":2028722,"coord":{"lat":45.507191,"lon":105.755943},"name":"Tsagaan-Ovoo"},{"country":"MN","id":2028790,"coord":{"lat":45.798168,"lon":109.31826},"name":"Tsagaandorvolj"},{"country":"MN","id":2028792,"coord":{"lat":48.049999,"lon":114.366669},"name":"Tsagaanders"},{"country":"MN","id":2028905,"coord":{"lat":44.400002,"lon":108.25},"name":"Naran-mandokhu Somon"},{"country":"MN","id":2028933,"coord":{"lat":49.94669,"lon":102.661232},"name":"Teshig"},{"country":"MN","id":2028961,"coord":{"lat":48.046391,"lon":100.509171},"name":"Teel"},{"country":"MN","id":2028972,"coord":{"lat":46.391941,"lon":105.735168},"name":"Tavin"},{"country":"MN","id":2028983,"coord":{"lat":47.381851,"lon":101.90815},"name":"Tavanbulag"},{"country":"MN","id":2029117,"coord":{"lat":47.849998,"lon":104.050003},"name":"Dashinchilling"},{"country":"MN","id":2029118,"coord":{"lat":45.53257,"lon":107.045464},"name":"Suugaant"},{"country":"MN","id":2029130,"coord":{"lat":49.133331,"lon":114.883331},"name":"Sumiyn Bulag"},{"country":"MN","id":2029176,"coord":{"lat":49.317509,"lon":104.381958},"name":"Sort"},{"country":"MN","id":2029238,"coord":{"lat":45.727268,"lon":112.355629},"name":"Shireet"},{"country":"MN","id":2029241,"coord":{"lat":45.849998,"lon":103.400002},"name":"Shiree"},{"country":"MN","id":2029315,"coord":{"lat":49.237331,"lon":106.430054},"name":"Sharingol"},{"country":"MN","id":2029321,"coord":{"lat":44.650002,"lon":104.050003},"name":"Sharhulsan"},{"country":"MN","id":2029335,"coord":{"lat":49.04192,"lon":102.089249},"name":"Sharga"},{"country":"MN","id":2029419,"coord":{"lat":48.566669,"lon":114.083328},"name":"Sergelen"},{"country":"MN","id":2029420,"coord":{"lat":46.200001,"lon":111.816673},"name":"Sergelen"},{"country":"MN","id":2029427,"coord":{"lat":44.716671,"lon":110.76667},"name":"Senj"},{"country":"MN","id":2029433,"coord":{"lat":49.433331,"lon":101.466667},"name":"Selenge"},{"country":"MN","id":2029463,"coord":{"lat":43.616669,"lon":102.533333},"name":"Saynshand"},{"country":"MN","id":2029494,"coord":{"lat":46.650002,"lon":103.316673},"name":"Sangiyn Dalay"},{"country":"MN","id":2029495,"coord":{"lat":46.007931,"lon":104.942093},"name":"Sangiyn Dalay"},{"country":"MN","id":2029499,"coord":{"lat":42.841991,"lon":105.137962},"name":"Sangiyn Dalay"},{"country":"MN","id":2029525,"coord":{"lat":49.126671,"lon":101.428062},"name":"Rashaant"},{"country":"MN","id":2029527,"coord":{"lat":45.299999,"lon":106.199997},"name":"Rashaant"},{"country":"MN","id":2029542,"coord":{"lat":46.816669,"lon":102.25},"name":"Ovt"},{"country":"MN","id":2029558,"coord":{"lat":45.30423,"lon":113.84977},"name":"Ovoot"},{"country":"MN","id":2029588,"coord":{"lat":48.949718,"lon":104.97583},"name":"Orhontuul"},{"country":"MN","id":2029596,"coord":{"lat":44.73637,"lon":100.39135},"name":"Orgon"},{"country":"MN","id":2029597,"coord":{"lat":48.4538,"lon":105.317688},"name":"Orgil"},{"country":"MN","id":2029610,"coord":{"lat":48.616669,"lon":110.599998},"name":"Onon"},{"country":"MN","id":2029624,"coord":{"lat":46.98259,"lon":103.78389},"name":"Ongon"},{"country":"MN","id":2029635,"coord":{"lat":46.466671,"lon":102.283333},"name":"Ongi"},{"country":"MN","id":2029636,"coord":{"lat":45.450001,"lon":103.900002},"name":"Ongi"},{"country":"MN","id":2029651,"coord":{"lat":48,"lon":113.933327},"name":"OEndoerhoshuu"},{"country":"MN","id":2029698,"coord":{"lat":48.528431,"lon":101.37394},"name":"Oldziyt"},{"country":"MN","id":2029700,"coord":{"lat":44.683331,"lon":109.01667},"name":"Oldziyt"},{"country":"MN","id":2029735,"coord":{"lat":43.78336,"lon":104.480667},"name":"Ogoomor"},{"country":"MN","id":2029784,"coord":{"lat":43.583328,"lon":110.466667},"name":"Nuden"},{"country":"MN","id":2029816,"coord":{"lat":49.2001,"lon":105.665817},"name":"Nomgon"},{"country":"MN","id":2029840,"coord":{"lat":49.145,"lon":105.388329},"name":"Nart"},{"country":"MN","id":2029886,"coord":{"lat":49.243599,"lon":113.374268},"name":"Naranbulag"},{"country":"MN","id":2029947,"coord":{"lat":47.382542,"lon":110.316467},"name":"Moron"},{"country":"MN","id":2029961,"coord":{"lat":46.75,"lon":103.51667},"name":"Monhbulag"},{"country":"MN","id":2029989,"coord":{"lat":47.75,"lon":109.050003},"name":"Modot"},{"country":"MN","id":2030035,"coord":{"lat":46.091209,"lon":103.839508},"name":"Mayhan"},{"country":"MN","id":2030040,"coord":{"lat":45.950001,"lon":102.050003},"name":"Mardzad"},{"country":"MN","id":2030053,"coord":{"lat":50.121391,"lon":100.04306},"name":"Manhan"},{"country":"MN","id":2030066,"coord":{"lat":48.633331,"lon":106.73333},"name":"Dzuunkharaa"},{"country":"MN","id":2030067,"coord":{"lat":48.631111,"lon":103.529167},"name":"Mandal"},{"country":"MN","id":2030068,"coord":{"lat":48.370621,"lon":106.740761},"name":"Mandal"},{"country":"MN","id":2030078,"coord":{"lat":48.296669,"lon":103.42556},"name":"Maanit"},{"country":"MN","id":2030079,"coord":{"lat":47.25,"lon":107.533333},"name":"Maanit"},{"country":"MN","id":2030085,"coord":{"lat":47.866669,"lon":105.25},"name":"Sujji"},{"country":"MN","id":2030159,"coord":{"lat":48.801891,"lon":105.924004},"name":"Javhlant"},{"country":"MN","id":2030161,"coord":{"lat":49.150002,"lon":112.73333},"name":"Javarthushuu"},{"country":"MN","id":2030170,"coord":{"lat":50.067501,"lon":105.880562},"name":"Jargalant"},{"country":"MN","id":2030171,"coord":{"lat":49.666672,"lon":106.333328},"name":"Jargalant"},{"country":"MN","id":2030172,"coord":{"lat":49.29591,"lon":100.257111},"name":"Jargalant"},{"country":"MN","id":2030173,"coord":{"lat":48.520561,"lon":105.868332},"name":"Jargalant"},{"country":"MN","id":2030175,"coord":{"lat":47.793091,"lon":101.972351},"name":"Jargalant"},{"country":"MN","id":2030176,"coord":{"lat":47.533329,"lon":100.216667},"name":"Jargalant"},{"country":"MN","id":2030208,"coord":{"lat":49.46167,"lon":103.974167},"name":"Ingettolgoy"},{"country":"MN","id":2030218,"coord":{"lat":48.2257,"lon":106.291519},"name":"Ihsueuej"},{"country":"MN","id":2030251,"coord":{"lat":43.200001,"lon":107.199997},"name":"Ihbulag"},{"country":"MN","id":2030296,"coord":{"lat":50.103611,"lon":105.419998},"name":"Huurch"},{"country":"MN","id":2030316,"coord":{"lat":49.395,"lon":102.693329},"name":"Hutag"},{"country":"MN","id":2030368,"coord":{"lat":48.663059,"lon":102.62278},"name":"Huremt"},{"country":"MN","id":2030369,"coord":{"lat":46.30241,"lon":102.445541},"name":"Huremt"},{"country":"MN","id":2030392,"coord":{"lat":48.433331,"lon":114.866669},"name":"Hulstay"},{"country":"MN","id":2030427,"coord":{"lat":48.881989,"lon":101.239532},"name":"Hujirt"},{"country":"MN","id":2030428,"coord":{"lat":46.896568,"lon":102.782593},"name":"Hujirt"},{"country":"MN","id":2030429,"coord":{"lat":46.599998,"lon":104.583328},"name":"Hujirt"},{"country":"MN","id":2030465,"coord":{"lat":43.173611,"lon":102.131943},"name":"Noyon Suma"},{"country":"MN","id":2030470,"coord":{"lat":43.606392,"lon":109.638062},"name":"Khuvsget"},{"country":"MN","id":2030473,"coord":{"lat":44.666672,"lon":102.383331},"name":"Hovd"},{"country":"MN","id":2030477,"coord":{"lat":47.362782,"lon":102.467941},"name":"Hotont"},{"country":"MN","id":2030502,"coord":{"lat":48.100899,"lon":102.556862},"name":"Hoshoot"},{"country":"MN","id":2030512,"coord":{"lat":45.200001,"lon":100.76667},"name":"Horiult"},{"country":"MN","id":2030525,"coord":{"lat":48.400002,"lon":113.433327},"name":"Tsagaan-Owoo"},{"country":"MN","id":2030526,"coord":{"lat":45.166672,"lon":101.400002},"name":"Bayan Uula Sumu"},{"country":"MN","id":2030531,"coord":{"lat":45.533329,"lon":102.98333},"name":"Hoolt"},{"country":"MN","id":2030570,"coord":{"lat":45.799999,"lon":111.199997},"name":"Hongor"},{"country":"MN","id":2030572,"coord":{"lat":45.135071,"lon":113.683777},"name":"Hongor"},{"country":"MN","id":2030646,"coord":{"lat":50.472778,"lon":100.92778},"name":"Undur Sume"},{"country":"MN","id":2030696,"coord":{"lat":46.285751,"lon":100.448341},"name":"Hohburd"},{"country":"MN","id":2030764,"coord":{"lat":47.299999,"lon":110.566673},"name":"Herlen"},{"country":"MN","id":2030813,"coord":{"lat":46.900002,"lon":113.416672},"name":"Haylaastay"},{"country":"MN","id":2030841,"coord":{"lat":45.666672,"lon":113.083328},"name":"Havirga"},{"country":"MN","id":2030849,"coord":{"lat":46.166672,"lon":112.949997},"name":"Hatavch"},{"country":"MN","id":2030851,"coord":{"lat":44.545952,"lon":100.827881},"name":"Hatansuudal"},{"country":"MN","id":2030890,"coord":{"lat":45.243229,"lon":104.805107},"name":"Hashaat"},{"country":"MN","id":2030915,"coord":{"lat":49.8325,"lon":106.136391},"name":"Orhon"},{"country":"MN","id":2030927,"coord":{"lat":47.197529,"lon":102.823792},"name":"Harhorin"},{"country":"MN","id":2030996,"coord":{"lat":46.416672,"lon":107.650002},"name":"Haraat"},{"country":"MN","id":2031016,"coord":{"lat":47.616669,"lon":112.133331},"name":"Hanhohiy"},{"country":"MN","id":2031088,"coord":{"lat":46.049881,"lon":107.489548},"name":"Hajuu-Us"},{"country":"MN","id":2031357,"coord":{"lat":48.273941,"lon":102.981201},"name":"Erhet"},{"country":"MN","id":2031368,"coord":{"lat":43.150002,"lon":109.133331},"name":"Ergel"},{"country":"MN","id":2031374,"coord":{"lat":49.880699,"lon":115.725258},"name":"Ereencav"},{"country":"MN","id":2031402,"coord":{"lat":46.418449,"lon":100.822388},"name":"Erdenetsogt"},{"country":"MN","id":2031403,"coord":{"lat":42.972382,"lon":106.11866},"name":"Erdenetsogt"},{"country":"MN","id":2031408,"coord":{"lat":50.10944,"lon":101.575279},"name":"Eg-Uur"},{"country":"MN","id":2031411,"coord":{"lat":49.247501,"lon":105.373611},"name":"Enhtal"},{"country":"MN","id":2031484,"coord":{"lat":48.683331,"lon":110.183327},"name":"Eg"},{"country":"MN","id":2031517,"coord":{"lat":47.70694,"lon":106.952782},"name":"Dzuunmod"},{"country":"MN","id":2031552,"coord":{"lat":46.95343,"lon":115.293961},"name":"Dzuunbulag"},{"country":"MN","id":2031553,"coord":{"lat":46.383331,"lon":112.183327},"name":"Dzuunbulag"},{"country":"MN","id":2031601,"coord":{"lat":46.799999,"lon":107.150002},"name":"Dzogsool"},{"country":"MN","id":2031613,"coord":{"lat":50.315559,"lon":105.04583},"name":"Dzelter"},{"country":"MN","id":2031615,"coord":{"lat":47.668049,"lon":102.549988},"name":"Dzegstey"},{"country":"MN","id":2031704,"coord":{"lat":47.493309,"lon":100.878014},"name":"Dzaanhoshuu"},{"country":"MN","id":2031728,"coord":{"lat":48.03791,"lon":105.921898},"name":"Dund-Urt"},{"country":"MN","id":2031741,"coord":{"lat":47.9459,"lon":111.497841},"name":"Dundburd"},{"country":"MN","id":2031832,"coord":{"lat":44.424461,"lon":105.320778},"name":"Doloon"},{"country":"MN","id":2031906,"coord":{"lat":50.085781,"lon":106.185783},"name":"Delgerhaan"},{"country":"MN","id":2031946,"coord":{"lat":49.545712,"lon":114.40287},"name":"Dashbalbar"},{"country":"MN","id":2031965,"coord":{"lat":48.254631,"lon":103.880539},"name":"Darhan"},{"country":"MN","id":2031998,"coord":{"lat":43.467869,"lon":103.51284},"name":"Dalay"},{"country":"MN","id":2032050,"coord":{"lat":46.361111,"lon":108.361107},"name":"Choyr"},{"country":"MN","id":2032058,"coord":{"lat":45.900002,"lon":115.366669},"name":"Chonogol"},{"country":"MN","id":2032070,"coord":{"lat":45.533329,"lon":110.466667},"name":"Chandmani"},{"country":"MN","id":2032085,"coord":{"lat":46.25,"lon":110.833328},"name":"Buyant"},{"country":"MN","id":2032157,"coord":{"lat":49.264999,"lon":104.743477},"name":"Burgaltay"},{"country":"MN","id":2032191,"coord":{"lat":46.496738,"lon":104.117767},"name":"Bumbat"},{"country":"MN","id":2032200,"coord":{"lat":50.541939,"lon":101.514168},"name":"Bulgan"},{"country":"MN","id":2032202,"coord":{"lat":44.09745,"lon":103.542877},"name":"Bulgan"},{"country":"MN","id":2032220,"coord":{"lat":49.77594,"lon":107.516159},"name":"Bulagtay"},{"country":"MN","id":2032221,"coord":{"lat":47.318691,"lon":101.115761},"name":"Bulagiyn Denj"},{"country":"MN","id":2032225,"coord":{"lat":49.859459,"lon":100.626869},"name":"Bulag"},{"country":"MN","id":2032226,"coord":{"lat":48.200001,"lon":108.48333},"name":"Bulag"},{"country":"MN","id":2032252,"coord":{"lat":49.066669,"lon":103.665833},"name":"Bugat"},{"country":"MN","id":2032255,"coord":{"lat":49.583328,"lon":106.849998},"name":"Bugant"},{"country":"MN","id":2032327,"coord":{"lat":48.466671,"lon":106.26667},"name":"Bornuur"},{"country":"MN","id":2032362,"coord":{"lat":45.232231,"lon":108.282448},"name":"Bohot"},{"country":"MN","id":2032373,"coord":{"lat":45.411709,"lon":100.573997},"name":"Bodi"},{"country":"MN","id":2032432,"coord":{"lat":47.416672,"lon":104.816673},"name":"Bayshint"},{"country":"MN","id":2032435,"coord":{"lat":47.179451,"lon":108.259956},"name":"Bayasgalant"},{"country":"MN","id":2032436,"coord":{"lat":46.98333,"lon":112.050003},"name":"Bayasgalant"},{"country":"MN","id":2032457,"coord":{"lat":46.521778,"lon":102.594276},"name":"Bayan-Ulaan"},{"country":"MN","id":2032473,"coord":{"lat":48.73167,"lon":100.760002},"name":"Bayantsagaan"},{"country":"MN","id":2032480,"coord":{"lat":46.916672,"lon":105.050003},"name":"Bayantohom"},{"country":"MN","id":2032490,"coord":{"lat":49.01667,"lon":111.633331},"name":"Bayan-Ovoo"},{"country":"MN","id":2032491,"coord":{"lat":47.783329,"lon":112.116669},"name":"Javhlant"},{"country":"MN","id":2032523,"coord":{"lat":46.701969,"lon":100.143303},"name":"Bayanhoshuu"},{"country":"MN","id":2032533,"coord":{"lat":46.194439,"lon":100.718063},"name":"Bayanhongor"},{"country":"MN","id":2032571,"coord":{"lat":47.727322,"lon":108.110619},"name":"Bayandelger"},{"country":"MN","id":2032586,"coord":{"lat":47.866669,"lon":109.916672},"name":"Bayanbulag"},{"country":"MN","id":2032593,"coord":{"lat":46.866669,"lon":106.25},"name":"Bayanbaraat"},{"country":"MN","id":2032594,"coord":{"lat":48.549999,"lon":111.083328},"name":"Bayan"},{"country":"MN","id":2032595,"coord":{"lat":47.916672,"lon":112.949997},"name":"Bayan"},{"country":"MN","id":2032596,"coord":{"lat":47.450001,"lon":103.150002},"name":"Bayan"},{"country":"MN","id":2032597,"coord":{"lat":47.166672,"lon":110.816673},"name":"Bayan"},{"country":"MN","id":2032598,"coord":{"lat":46.25,"lon":110.166672},"name":"Bayan"},{"country":"MN","id":2032602,"coord":{"lat":48.215519,"lon":104.773178},"name":"Bat-Oldziyt"},{"country":"MN","id":2032631,"coord":{"lat":43.655949,"lon":105.755768},"name":"Baruunsuu"},{"country":"MN","id":2032663,"coord":{"lat":49.5,"lon":105.616669},"name":"Hushaat"},{"country":"MN","id":2032767,"coord":{"lat":49.618328,"lon":101.989723},"name":"Badrah"},{"country":"MN","id":2032786,"coord":{"lat":47.178509,"lon":109.189682},"name":"Avraga"},{"country":"MN","id":2032789,"coord":{"lat":47.633331,"lon":103.51667},"name":"Avdzaga"},{"country":"MN","id":2032814,"coord":{"lat":46.263889,"lon":102.775002},"name":"Arvayheer"},{"country":"MN","id":2032850,"coord":{"lat":47.79425,"lon":107.883339},"name":"Arhust"},{"country":"MN","id":2032857,"coord":{"lat":45.46278,"lon":102.420563},"name":"Arguut"},{"country":"MN","id":2032860,"coord":{"lat":45.76667,"lon":107.98333},"name":"Argatay"},{"country":"MN","id":2032871,"coord":{"lat":47.942108,"lon":105.895844},"name":"Argalant"},{"country":"MN","id":2032899,"coord":{"lat":48.262218,"lon":105.411942},"name":"Ar-Asgat"},{"country":"MN","id":2032937,"coord":{"lat":46.125721,"lon":106.37426},"name":"Amardalay"},{"country":"MN","id":2032956,"coord":{"lat":47.447418,"lon":101.755028},"name":"Altan-Ovoo"},{"country":"MN","id":2032960,"coord":{"lat":50.315559,"lon":106.498611},"name":"Altanbulag"},{"country":"MN","id":2032961,"coord":{"lat":47.700001,"lon":106.400002},"name":"Altanbulag"},{"country":"MN","id":6988111,"coord":{"lat":49.510818,"lon":96.799438},"name":"Asgat"},{"country":"MN","id":6988118,"coord":{"lat":47.289478,"lon":103.85659},"name":"Ulaanshiveet"},{"country":"MN","id":6997293,"coord":{"lat":47.658581,"lon":118.510139},"name":"Sumber"},{"country":"MN","id":6997301,"coord":{"lat":46.621342,"lon":108.35804},"name":"Bayantal"},{"country":"MN","id":6997302,"coord":{"lat":46.090809,"lon":108.68306},"name":"Shiveegovi"},{"country":"MN","id":6997320,"coord":{"lat":49.230122,"lon":105.896744},"name":"Hongor"},{"country":"MN","id":6997333,"coord":{"lat":49.12915,"lon":104.408028},"name":"Jargalant"},{"country":"MN","id":6997380,"coord":{"lat":47.557171,"lon":106.963333},"name":"Hoshigiyn-Ar"},{"country":"MN","id":7648891,"coord":{"lat":47.192451,"lon":102.813492},"name":"Kharkhorin"},{"country":"MP","id":4041558,"coord":{"lat":14.96874,"lon":145.624374},"name":"JP Tinian Town pre-WW2"},{"country":"MP","id":7828739,"coord":{"lat":15.20833,"lon":145.716644},"name":"Northern Islands Municipality - Mayors Office"},{"country":"MQ","id":3569907,"coord":{"lat":14.74383,"lon":-61.175331},"name":"Saint-Pierre"},{"country":"MQ","id":3569928,"coord":{"lat":14.46733,"lon":-60.927078},"name":"Sainte-Luce"},{"country":"MQ","id":3570392,"coord":{"lat":14.54524,"lon":-60.838829},"name":"Le Vauclin"},{"country":"MQ","id":3570396,"coord":{"lat":14.539,"lon":-61.036079},"name":"Les Trois-Ilets"},{"country":"MQ","id":3570423,"coord":{"lat":14.76667,"lon":-61.133331},"name":"Le Morne-Rouge"},{"country":"MQ","id":3570426,"coord":{"lat":14.47212,"lon":-60.869732},"name":"Le Marin"},{"country":"MQ","id":3571097,"coord":{"lat":14.86954,"lon":-61.11504},"name":"Basse-Pointe"},{"country":"MR","id":2375558,"coord":{"lat":22.718731,"lon":-12.45205},"name":"Zouerate"},{"country":"MR","id":2376719,"coord":{"lat":15.15895,"lon":-12.1829},"name":"Selibabi"},{"country":"MR","id":2376898,"coord":{"lat":16.520041,"lon":-15.80727},"name":"Rosso"},{"country":"MR","id":2380519,"coord":{"lat":20.440359,"lon":-12.2622},"name":"Chinguetti"},{"country":"MR","id":2381163,"coord":{"lat":16.64039,"lon":-12.49849},"name":"Barkewol"},{"country":"MR","id":2381291,"coord":{"lat":16.6614,"lon":-9.6149},"name":"Ayoun el Atrous"},{"country":"MR","id":2381659,"coord":{"lat":17.0481,"lon":-13.9209},"name":"Aleg"},{"country":"MT","id":2562247,"coord":{"lat":35.841942,"lon":14.54306},"name":"Marsaxlokk"},{"country":"MT","id":2562261,"coord":{"lat":35.871941,"lon":14.44111},"name":"Zebbug"},{"country":"MT","id":2562274,"coord":{"lat":36.03278,"lon":14.25806},"name":"Xewkija"},{"country":"MT","id":2562280,"coord":{"lat":36.049999,"lon":14.26444},"name":"Xaghra"},{"country":"MT","id":2562320,"coord":{"lat":35.89917,"lon":14.49444},"name":"Ta Xbiex"},{"country":"MT","id":2562504,"coord":{"lat":35.85556,"lon":14.43639},"name":"Siggiewi"},{"country":"MT","id":2562529,"coord":{"lat":35.862782,"lon":14.5075},"name":"Santa Lucija"},{"country":"MT","id":2562541,"coord":{"lat":35.950642,"lon":14.41561},"name":"San Pawl il-Bahar"},{"country":"MT","id":2562545,"coord":{"lat":36.024441,"lon":14.24278},"name":"Sannat"},{"country":"MT","id":2562557,"coord":{"lat":35.918388,"lon":14.48977},"name":"San Giljan"},{"country":"MT","id":2562598,"coord":{"lat":35.833061,"lon":14.48472},"name":"Safi"},{"country":"MT","id":2562617,"coord":{"lat":35.873058,"lon":14.49889},"name":"Paola"},{"country":"MT","id":2562622,"coord":{"lat":35.834721,"lon":14.45833},"name":"Qrendi"},{"country":"MT","id":2562683,"coord":{"lat":35.913609,"lon":14.44361},"name":"Naxxar"},{"country":"MT","id":2562701,"coord":{"lat":35.84763,"lon":14.46824},"name":"Mqabba"},{"country":"MT","id":2562734,"coord":{"lat":36.02528,"lon":14.295},"name":"Mgarr"},{"country":"MT","id":2562735,"coord":{"lat":35.920559,"lon":14.36639},"name":"Imgarr"},{"country":"MT","id":2562755,"coord":{"lat":35.879169,"lon":14.49528},"name":"Marsa"},{"country":"MT","id":2562792,"coord":{"lat":35.887501,"lon":14.51694},"name":"Senglea"},{"country":"MT","id":2562800,"coord":{"lat":35.90414,"lon":14.45415},"name":"L-Iklin"},{"country":"MT","id":2562801,"coord":{"lat":35.900558,"lon":14.44639},"name":"Lija"},{"country":"MT","id":2562830,"coord":{"lat":35.889172,"lon":14.53278},"name":"Kalkara"},{"country":"MT","id":2562850,"coord":{"lat":35.922501,"lon":14.48},"name":"Swieqi"},{"country":"MT","id":2562998,"coord":{"lat":35.88472,"lon":14.48444},"name":"Hamrun"},{"country":"MT","id":2563020,"coord":{"lat":35.849171,"lon":14.50306},"name":"Gudja"},{"country":"MT","id":2563046,"coord":{"lat":35.848888,"lon":14.51667},"name":"Ghaxaq"},{"country":"MT","id":2563062,"coord":{"lat":35.924171,"lon":14.45194},"name":"Gharghur"},{"country":"MT","id":2563115,"coord":{"lat":35.870281,"lon":14.51333},"name":"Fgura"},{"country":"MT","id":2563140,"coord":{"lat":35.861389,"lon":14.38222},"name":"Dingli"},{"country":"MT","id":2563217,"coord":{"lat":35.90028,"lon":14.455},"name":"Balzan"},{"country":"MT","id":2567539,"coord":{"lat":35.90556,"lon":14.47611},"name":"Saint John"},{"country":"MU","id":933933,"coord":{"lat":-20.228331,"lon":57.543892},"name":"Verdun"},{"country":"MU","id":933974,"coord":{"lat":-20.12611,"lon":57.524441},"name":"Terre Rouge"},{"country":"MU","id":933982,"coord":{"lat":-20.32556,"lon":57.37056},"name":"Tamarin"},{"country":"MU","id":933988,"coord":{"lat":-20.50972,"lon":57.50528},"name":"Surinam"},{"country":"MU","id":934013,"coord":{"lat":-20.288891,"lon":57.6875},"name":"Sebastopol"},{"country":"MU","id":934043,"coord":{"lat":-20.226391,"lon":57.636391},"name":"Saint Julien"},{"country":"MU","id":934047,"coord":{"lat":-20.36417,"lon":57.638329},"name":"Saint Hubert"},{"country":"MU","id":934056,"coord":{"lat":-20.491671,"lon":57.541389},"name":"Saint Aubin"},{"country":"MU","id":934058,"coord":{"lat":-20.073059,"lon":57.55806},"name":"Morcellemont Saint Andre"},{"country":"MU","id":934095,"coord":{"lat":-20.485279,"lon":57.550831},"name":"Riviere des Anguilles"},{"country":"MU","id":934126,"coord":{"lat":-20.219999,"lon":57.7075},"name":"Queen Victoria"},{"country":"MU","id":934138,"coord":{"lat":-20.24472,"lon":57.612221},"name":"Providence"},{"country":"MU","id":934149,"coord":{"lat":-20.163059,"lon":57.73056},"name":"Poste de Flacq"},{"country":"MU","id":934169,"coord":{"lat":-20.42861,"lon":57.653061},"name":"Plaine Magnien"},{"country":"MU","id":934170,"coord":{"lat":-20.065001,"lon":57.572498},"name":"Plaine des Papayes"},{"country":"MU","id":934184,"coord":{"lat":-20.01333,"lon":57.611938},"name":"Petit Raffray"},{"country":"MU","id":934198,"coord":{"lat":-20.393061,"lon":57.365002},"name":"Petite Case Noyale"},{"country":"MU","id":934213,"coord":{"lat":-20.103889,"lon":57.570278},"name":"Pamplemousses"},{"country":"MU","id":934219,"coord":{"lat":-20.192711,"lon":57.488258},"name":"Pailles"},{"country":"MU","id":934225,"coord":{"lat":-20.297501,"lon":57.725559},"name":"Olivia"},{"country":"MU","id":934229,"coord":{"lat":-20.37056,"lon":57.561111},"name":"Nouvelle France"},{"country":"MU","id":934232,"coord":{"lat":-20.14056,"lon":57.553059},"name":"Notre Dame"},{"country":"MU","id":934255,"coord":{"lat":-20.090281,"lon":57.63028},"name":"Piton"},{"country":"MU","id":934282,"coord":{"lat":-20.3325,"lon":57.558331},"name":"Midlands"},{"country":"MU","id":934288,"coord":{"lat":-20.26972,"lon":57.631939},"name":"Melrose"},{"country":"MU","id":934390,"coord":{"lat":-20.18972,"lon":57.66111},"name":"Lalmatie"},{"country":"MU","id":934400,"coord":{"lat":-20.24444,"lon":57.554169},"name":"La Dagotiere"},{"country":"MU","id":934459,"coord":{"lat":-20.314171,"lon":57.764439},"name":"Grand Sable"},{"country":"MU","id":934475,"coord":{"lat":-20.28611,"lon":57.775829},"name":"Grande Riviere Sud Est"},{"country":"MU","id":934482,"coord":{"lat":-20.01816,"lon":57.580151},"name":"Grand Baie"},{"country":"MU","id":934485,"coord":{"lat":-20.41889,"lon":57.54417},"name":"Grand Bois"},{"country":"MU","id":934517,"coord":{"lat":-20.27417,"lon":57.36306},"name":"Flic en Flac"},{"country":"MU","id":934533,"coord":{"lat":-20.069719,"lon":57.641941},"name":"Esperance Trebuchet"},{"country":"MU","id":934573,"coord":{"lat":-20.191111,"lon":57.55722},"name":"Creve Coeur"},{"country":"MU","id":934599,"coord":{"lat":-20.263889,"lon":57.706108},"name":"Clemencia"},{"country":"MU","id":934624,"coord":{"lat":-20.48222,"lon":57.46611},"name":"Chamouny"},{"country":"MU","id":934644,"coord":{"lat":-20.28694,"lon":57.407219},"name":"Cascavelle"},{"country":"MU","id":934649,"coord":{"lat":-19.984171,"lon":57.61417},"name":"Cap Malheureux"},{"country":"MU","id":934656,"coord":{"lat":-20.21472,"lon":57.616112},"name":"Camp Thorel"},{"country":"MU","id":934660,"coord":{"lat":-20.46278,"lon":57.578892},"name":"Camp Diable"},{"country":"MU","id":934661,"coord":{"lat":-20.23694,"lon":57.66333},"name":"Camp de Masque"},{"country":"MU","id":934677,"coord":{"lat":-20.163891,"lon":57.646671},"name":"Brisee Verdiere"},{"country":"MU","id":934812,"coord":{"lat":-20.21167,"lon":57.400829},"name":"Albion"},{"country":"MU","id":1106584,"coord":{"lat":-20.14583,"lon":57.67667},"name":"Laventure"},{"country":"MU","id":1106596,"coord":{"lat":-20.059719,"lon":57.629169},"name":"Cottage"},{"country":"MU","id":1106614,"coord":{"lat":-20.06278,"lon":57.513062},"name":"Grande Pointe aux Piments"},{"country":"MU","id":1106621,"coord":{"lat":-20.14889,"lon":57.590832},"name":"Congomah"},{"country":"MU","id":1106630,"coord":{"lat":-20.130831,"lon":57.659168},"name":"Amaury"},{"country":"MU","id":1106631,"coord":{"lat":-20.11167,"lon":57.69083},"name":"Plaines des Roches"},{"country":"MU","id":1106643,"coord":{"lat":-20.207781,"lon":57.762501},"name":"Quatre Cocos"},{"country":"MU","id":1106645,"coord":{"lat":-20.21583,"lon":57.74556},"name":"Camp Ithier"},{"country":"MU","id":1106660,"coord":{"lat":-20.22611,"lon":57.736111},"name":"Ecroignard"},{"country":"MU","id":1106677,"coord":{"lat":-20.342779,"lon":57.7575},"name":"Bambous Virieux"},{"country":"MU","id":1106748,"coord":{"lat":-20.24494,"lon":57.491631},"name":"Ebene"},{"country":"MU","id":1106811,"coord":{"lat":-20.11167,"lon":57.55389},"name":"Calebasses"},{"country":"MU","id":1106813,"coord":{"lat":-20.10556,"lon":57.535278},"name":"Arsenal"},{"country":"MV","id":1281980,"coord":{"lat":-0.58333,"lon":73.23333},"name":"Meedhoo"},{"country":"MV","id":1282256,"coord":{"lat":-0.6,"lon":73.083328},"name":"Hithadhoo"},{"country":"MV","id":1337605,"coord":{"lat":3.78333,"lon":72.966667},"name":"Mahibadhoo"},{"country":"MV","id":1337606,"coord":{"lat":5.10327,"lon":73.070778},"name":"Eydhafushi"},{"country":"MV","id":1337607,"coord":{"lat":2.67075,"lon":72.894371},"name":"Kudahuvadhoo"},{"country":"MV","id":1337610,"coord":{"lat":0.53333,"lon":72.933327},"name":"Thinadhoo"},{"country":"MV","id":1337612,"coord":{"lat":6.88333,"lon":73.099998},"name":"Dhidhdhoo"},{"country":"MV","id":1337613,"coord":{"lat":6.62207,"lon":73.069977},"name":"Kulhudhuffushi"},{"country":"MV","id":1337616,"coord":{"lat":5.44438,"lon":73.365707},"name":"Naifaru"},{"country":"MV","id":1337617,"coord":{"lat":2.91667,"lon":73.566673},"name":"Muli"},{"country":"MV","id":1337618,"coord":{"lat":5.76667,"lon":73.383331},"name":"Manadhoo"},{"country":"MV","id":1337619,"coord":{"lat":5.66667,"lon":73},"name":"Ugoofaaru"},{"country":"MV","id":1337620,"coord":{"lat":6.15,"lon":73.26667},"name":"Funadhoo"},{"country":"MV","id":7910632,"coord":{"lat":2.50306,"lon":73.308594},"name":"Vilufushi"},{"country":"MV","id":7911024,"coord":{"lat":2.35582,"lon":73.354729},"name":"Madifushi"},{"country":"MW","id":235751,"coord":{"lat":-9.70237,"lon":33.269691},"name":"Chitipa"},{"country":"MW","id":924206,"coord":{"lat":-15.80635,"lon":35.650669},"name":"Phalombe"},{"country":"MW","id":924491,"coord":{"lat":-13.52775,"lon":33.914902},"name":"Ntchisi"},{"country":"MW","id":924492,"coord":{"lat":-14.82027,"lon":34.63586},"name":"Ntcheu"},{"country":"MW","id":924732,"coord":{"lat":-11.60659,"lon":34.29073},"name":"Nkhata Bay"},{"country":"MW","id":924963,"coord":{"lat":-15.39805,"lon":34.653431},"name":"Neno"},{"country":"MW","id":925475,"coord":{"lat":-11.46556,"lon":34.02071},"name":"Mzuzu"},{"country":"MW","id":925596,"coord":{"lat":-15.60262,"lon":34.524792},"name":"Mwanza"},{"country":"MW","id":926087,"coord":{"lat":-13.53194,"lon":33.740082},"name":"Mponela"},{"country":"MW","id":926308,"coord":{"lat":-14.0728,"lon":34.920052},"name":"Monkey Bay"},{"country":"MW","id":927643,"coord":{"lat":-15.16849,"lon":35.300018},"name":"Machinga"},{"country":"MW","id":927792,"coord":{"lat":-16.006929,"lon":35.309479},"name":"Luchenza"},{"country":"MW","id":927856,"coord":{"lat":-10.60602,"lon":34.106281},"name":"Livingstonia"},{"country":"MW","id":929977,"coord":{"lat":-13.65399,"lon":33.937538},"name":"Dowa"},{"country":"MW","id":930580,"coord":{"lat":-15.67461,"lon":35.140709},"name":"Chiradzulu"},{"country":"MW","id":930582,"coord":{"lat":-12.06618,"lon":34.740921},"name":"Chipyela"},{"country":"MW","id":930629,"coord":{"lat":-13.99328,"lon":34.515659},"name":"Chipoka"},{"country":"MW","id":931070,"coord":{"lat":-16.03352,"lon":34.800911},"name":"Chikwawa"},{"country":"MW","id":7839184,"coord":{"lat":-15.7872,"lon":35.03046},"name":"Makata"},{"country":"MX","id":3482886,"coord":{"lat":22.533331,"lon":-98.150002},"name":"Cuauhtemoc"},{"country":"MX","id":3513976,"coord":{"lat":20.15,"lon":-97.583328},"name":"Zozocolco de Hidalgo"},{"country":"MX","id":3514013,"coord":{"lat":19.415831,"lon":-99.494438},"name":"Zolotepec"},{"country":"MX","id":3514049,"coord":{"lat":21.283331,"lon":-97.716667},"name":"Zaragoza"},{"country":"MX","id":3514052,"coord":{"lat":19.14583,"lon":-99.647217},"name":"Zaragoza de Guadalupe"},{"country":"MX","id":3514060,"coord":{"lat":19.966669,"lon":-98.849998},"name":"Zapotlan de Juarez"},{"country":"MX","id":3514329,"coord":{"lat":18.83333,"lon":-96.800003},"name":"Yanga"},{"country":"MX","id":3514424,"coord":{"lat":19.033331,"lon":-97.099998},"name":"Xocotla"},{"country":"MX","id":3514440,"coord":{"lat":16.783331,"lon":-98.25},"name":"Xochistlahuaca"},{"country":"MX","id":3514454,"coord":{"lat":17.91667,"lon":-98.433327},"name":"Xochihuehuetlan"},{"country":"MX","id":3514502,"coord":{"lat":21.33333,"lon":-98.966667},"name":"Xilitla"},{"country":"MX","id":3514589,"coord":{"lat":18.866671,"lon":-97.599998},"name":"Xaltepec"},{"country":"MX","id":3514592,"coord":{"lat":17.466669,"lon":-98.616669},"name":"Xalpatlahuac"},{"country":"MX","id":3514597,"coord":{"lat":19.216669,"lon":-98.383331},"name":"Xalmimilulco"},{"country":"MX","id":3514633,"coord":{"lat":19.51667,"lon":-99.216667},"name":"Vista Hermosa"},{"country":"MX","id":3514658,"coord":{"lat":19.44194,"lon":-99.998611},"name":"Villa Victoria"},{"country":"MX","id":3514682,"coord":{"lat":22.183331,"lon":-97.833328},"name":"Villa Cuauhtemoc"},{"country":"MX","id":3514833,"coord":{"lat":14.98333,"lon":-92.25},"name":"Veinte de Noviembre"},{"country":"MX","id":3515002,"coord":{"lat":14.95,"lon":-92.166672},"name":"Tuxtla Chico"},{"country":"MX","id":3515040,"coord":{"lat":20.216669,"lon":-87.466667},"name":"Tulum"},{"country":"MX","id":3515056,"coord":{"lat":18.049999,"lon":-98.433327},"name":"Tulcingo del Valle"},{"country":"MX","id":3515120,"coord":{"lat":15.86667,"lon":-93.533333},"name":"Tres Picos"},{"country":"MX","id":3515200,"coord":{"lat":18.51667,"lon":-96.183327},"name":"Totolapa"},{"country":"MX","id":3515205,"coord":{"lat":19.23333,"lon":-99.583328},"name":"Totocuitlapilco"},{"country":"MX","id":3515326,"coord":{"lat":18.950001,"lon":-97.01667},"name":"Tocuila"},{"country":"MX","id":3515349,"coord":{"lat":19.616671,"lon":-98.116669},"name":"Tlaxco de Morelos"},{"country":"MX","id":3515354,"coord":{"lat":20.433331,"lon":-98.01667},"name":"Tlaxco"},{"country":"MX","id":3515363,"coord":{"lat":19.85,"lon":-97.48333},"name":"Tlatlauquitepec"},{"country":"MX","id":3515369,"coord":{"lat":18.58333,"lon":-99.199997},"name":"Tlatenchi"},{"country":"MX","id":3515394,"coord":{"lat":18.85,"lon":-97.900002},"name":"Tlanepantla"},{"country":"MX","id":3515410,"coord":{"lat":18.51667,"lon":-99.5},"name":"Tlamacazapa"},{"country":"MX","id":3515434,"coord":{"lat":19,"lon":-98.98333},"name":"Tlalnepantla"},{"country":"MX","id":3515473,"coord":{"lat":20.066669,"lon":-97.866669},"name":"Tlacotepec"},{"country":"MX","id":3515475,"coord":{"lat":18.816669,"lon":-98.75},"name":"Tlacotepec"},{"country":"MX","id":3515744,"coord":{"lat":20.966669,"lon":-89.933327},"name":"Tetiz"},{"country":"MX","id":3515753,"coord":{"lat":19.066669,"lon":-97.150002},"name":"Tetelzingo"},{"country":"MX","id":3515757,"coord":{"lat":19.866671,"lon":-97.433327},"name":"Teteles"},{"country":"MX","id":3515806,"coord":{"lat":19.116671,"lon":-97.98333},"name":"Tepulco"},{"country":"MX","id":3515848,"coord":{"lat":18.58333,"lon":-97.933327},"name":"Tepexi de Rodriguez"},{"country":"MX","id":3515862,"coord":{"lat":19.58333,"lon":-98.816673},"name":"Tepetlaoxtoc de Hidalgo"},{"country":"MX","id":3515868,"coord":{"lat":19.633329,"lon":-99.916672},"name":"Tepetitlan"},{"country":"MX","id":3515911,"coord":{"lat":20,"lon":-97.816673},"name":"Tepango de Rodriguez"},{"country":"MX","id":3515939,"coord":{"lat":18.716669,"lon":-98.26667},"name":"Teopantlan"},{"country":"MX","id":3516003,"coord":{"lat":18.65,"lon":-98.183327},"name":"Tenango"},{"country":"MX","id":3516005,"coord":{"lat":16.966669,"lon":-92.416672},"name":"Tenango"},{"country":"MX","id":3516022,"coord":{"lat":20.799999,"lon":-88.216667},"name":"Temozon"},{"country":"MX","id":3516048,"coord":{"lat":21.15,"lon":-88.933327},"name":"Temax"},{"country":"MX","id":3516063,"coord":{"lat":18.566669,"lon":-98.76667},"name":"Telixtac"},{"country":"MX","id":3516072,"coord":{"lat":20.533331,"lon":-89.333328},"name":"Tekit"},{"country":"MX","id":3516168,"coord":{"lat":20.75,"lon":-89.466667},"name":"Tecoh"},{"country":"MX","id":3516171,"coord":{"lat":16.51667,"lon":-98.75},"name":"Tecoanapa"},{"country":"MX","id":3516174,"coord":{"lat":19.11083,"lon":-99.527779},"name":"San Pedro Techuchulco"},{"country":"MX","id":3516191,"coord":{"lat":18.9,"lon":-97.966667},"name":"Tecali de Herrera"},{"country":"MX","id":3516234,"coord":{"lat":18.23333,"lon":-94.75},"name":"Tatahuicapan"},{"country":"MX","id":3516281,"coord":{"lat":21.616671,"lon":-98.633331},"name":"Tanquian Escobedo"},{"country":"MX","id":3516344,"coord":{"lat":18.216669,"lon":-92.783333},"name":"Tamulte de las Sabanas"},{"country":"MX","id":3516396,"coord":{"lat":21.933331,"lon":-99.48333},"name":"Tamasopo"},{"country":"MX","id":3516410,"coord":{"lat":21.35,"lon":-97.800003},"name":"Tamalin"},{"country":"MX","id":3516488,"coord":{"lat":21.15,"lon":-88.316673},"name":"Sucila"},{"country":"MX","id":3516497,"coord":{"lat":14.55,"lon":-92.216667},"name":"Suchiate"},{"country":"MX","id":3516510,"coord":{"lat":19.98333,"lon":-99.5},"name":"Soyaniquilpan"},{"country":"MX","id":3516515,"coord":{"lat":20.6,"lon":-89.01667},"name":"Sotuta"},{"country":"MX","id":3516552,"coord":{"lat":19.116671,"lon":-97.699997},"name":"Soltepec"},{"country":"MX","id":3516611,"coord":{"lat":17.966669,"lon":-94.866669},"name":"Soconusco"},{"country":"MX","id":3516683,"coord":{"lat":20.83333,"lon":-89.366669},"name":"Seye"},{"country":"MX","id":3516723,"coord":{"lat":17.866671,"lon":-94.949997},"name":"Sayula de Aleman"},{"country":"MX","id":3516763,"coord":{"lat":19.26667,"lon":-98.199997},"name":"Xiloxoxtla"},{"country":"MX","id":3516764,"coord":{"lat":21.73333,"lon":-98.566673},"name":"San Vicente Tancuayalab"},{"country":"MX","id":3516770,"coord":{"lat":16.383329,"lon":-96.833328},"name":"San Vicente Coatlan"},{"country":"MX","id":3516837,"coord":{"lat":16.48307,"lon":-94.347542},"name":"Santo Domingo Zanatepec"},{"country":"MX","id":3516881,"coord":{"lat":19.588329,"lon":-99.774719},"name":"Santo Domingo de Guzman"},{"country":"MX","id":3516909,"coord":{"lat":16.23333,"lon":-97.23333},"name":"Santiago Yaitepec"},{"country":"MX","id":3516937,"coord":{"lat":16.866671,"lon":-96.383331},"name":"Santiago Matatlan"},{"country":"MX","id":3516945,"coord":{"lat":17.33333,"lon":-98.01667},"name":"Santiago Juxtlahuaca"},{"country":"MX","id":3516956,"coord":{"lat":20.950001,"lon":-97.400002},"name":"Santiago de la Pena"},{"country":"MX","id":3516975,"coord":{"lat":18.98333,"lon":-97.916672},"name":"Santiago Acatlan"},{"country":"MX","id":3517029,"coord":{"lat":18.066669,"lon":-93.383331},"name":"Santa Rosalia"},{"country":"MX","id":3517095,"coord":{"lat":19.33333,"lon":-98.566673},"name":"Santa Rita Tlahuapan"},{"country":"MX","id":3517151,"coord":{"lat":24.216669,"lon":-98.466667},"name":"Santander Jimenez"},{"country":"MX","id":3517178,"coord":{"lat":16.76667,"lon":-97.98333},"name":"Santa Maria Zacatepec"},{"country":"MX","id":3517191,"coord":{"lat":15.93333,"lon":-96.066673},"name":"Santa Maria Xadani"},{"country":"MX","id":3517217,"coord":{"lat":19.14444,"lon":-99.583611},"name":"Rayon"},{"country":"MX","id":3517220,"coord":{"lat":16.83333,"lon":-95.116669},"name":"Santa Maria Petapa"},{"country":"MX","id":3517236,"coord":{"lat":19.63917,"lon":-99.416107},"name":"Cahuacan"},{"country":"MX","id":3517246,"coord":{"lat":19.183331,"lon":-97.816673},"name":"Santa Maria Ixtiyucan"},{"country":"MX","id":3517250,"coord":{"lat":16.283331,"lon":-97.933327},"name":"Santa Maria Huazolotitlan"},{"country":"MX","id":3517256,"coord":{"lat":19.287781,"lon":-99.822777},"name":"Santa Maria del Monte"},{"country":"MX","id":3517265,"coord":{"lat":19.116671,"lon":-98.300003},"name":"Santa Maria Coronanco"},{"country":"MX","id":3517294,"coord":{"lat":19.033331,"lon":-98.383331},"name":"Santa Maria Acuexcomac"},{"country":"MX","id":3517449,"coord":{"lat":19.73333,"lon":-99.366669},"name":"Santa Gertrudis"},{"country":"MX","id":3517482,"coord":{"lat":24.01667,"lon":-99.199997},"name":"Guillermo Zuniga"},{"country":"MX","id":3517498,"coord":{"lat":20.33333,"lon":-89.650002},"name":"Santa Elena"},{"country":"MX","id":3517519,"coord":{"lat":16.316669,"lon":-96.666672},"name":"Santa Cruz Xitla"},{"country":"MX","id":3517521,"coord":{"lat":19.56806,"lon":-99.70417},"name":"Santa Cruz Tepexpan"},{"country":"MX","id":3517543,"coord":{"lat":19.250561,"lon":-99.733612},"name":"Santa Cruz Cuauhtenco"},{"country":"MX","id":3517618,"coord":{"lat":18.966669,"lon":-98.283333},"name":"Santa Clara Ocoyucan"},{"country":"MX","id":3517665,"coord":{"lat":16.33333,"lon":-97.833328},"name":"Santa Catarina Mechoacan"},{"country":"MX","id":3517673,"coord":{"lat":19.200001,"lon":-98.933327},"name":"Santa Catarina Ayotzingo"},{"country":"MX","id":3517687,"coord":{"lat":18.966669,"lon":-99.133331},"name":"Santa Catarina"},{"country":"MX","id":3517731,"coord":{"lat":19.744169,"lon":-99.073334},"name":"Nextlalpan"},{"country":"MX","id":3517734,"coord":{"lat":19.4,"lon":-98.150002},"name":"Santa Ana Huiloac"},{"country":"MX","id":3517735,"coord":{"lat":20.183331,"lon":-98.300003},"name":"Santa Ana Hueytlalpan"},{"country":"MX","id":3517795,"coord":{"lat":18.33333,"lon":-97.25},"name":"San Sebastian Zinacatepec"},{"country":"MX","id":3517798,"coord":{"lat":17.75,"lon":-97.599998},"name":"San Sebastian Tutla"},{"country":"MX","id":3517801,"coord":{"lat":16.945829,"lon":-96.609169},"name":"Teitipac"},{"country":"MX","id":3517954,"coord":{"lat":19.06139,"lon":-99.655563},"name":"San Pedro Tlanisco"},{"country":"MX","id":3517962,"coord":{"lat":16.35,"lon":-94.199997},"name":"San Pedro Tapanatepec"},{"country":"MX","id":3517970,"coord":{"lat":15.73333,"lon":-96.466667},"name":"San Pedro Pochutla"},{"country":"MX","id":3517978,"coord":{"lat":16.283331,"lon":-96.283333},"name":"San Pedro Mixtepec"},{"country":"MX","id":3517984,"coord":{"lat":19.6675,"lon":-99.832779},"name":"San Pedro Los Banos"},{"country":"MX","id":3517988,"coord":{"lat":16.41667,"lon":-97.98333},"name":"San Pedro Jicayan"},{"country":"MX","id":3517993,"coord":{"lat":18.15,"lon":-96.5},"name":"San Pedro Ixcatlan"},{"country":"MX","id":3517999,"coord":{"lat":19.611389,"lon":-99.910561},"name":"San Pedro El Alto"},{"country":"MX","id":3518014,"coord":{"lat":16.08333,"lon":-93.116669},"name":"San Pedro Buenavista"},{"country":"MX","id":3518122,"coord":{"lat":19.66667,"lon":-98.949997},"name":"San Pablo Tecalco"},{"country":"MX","id":3518128,"coord":{"lat":16.83333,"lon":-96.76667},"name":"San Pablo Huixtepec"},{"country":"MX","id":3518139,"coord":{"lat":19.216669,"lon":-98.900002},"name":"San Pablo Atlazalpan"},{"country":"MX","id":3518181,"coord":{"lat":19.066669,"lon":-98.48333},"name":"San Nicolas de los Ranchos"},{"country":"MX","id":3518182,"coord":{"lat":19.16667,"lon":-97.566673},"name":"San Nicolas de Buenos Aires"},{"country":"MX","id":3518183,"coord":{"lat":19.13583,"lon":-99.43222},"name":"San Nicolas Coatepec"},{"country":"MX","id":3518200,"coord":{"lat":20.48333,"lon":-99.916672},"name":"San Nicolas"},{"country":"MX","id":3518220,"coord":{"lat":18.75,"lon":-97.650002},"name":"San Miguel Zozutla"},{"country":"MX","id":3518224,"coord":{"lat":19.183331,"lon":-98.300003},"name":"San Miguel Xoxtla"},{"country":"MX","id":3518235,"coord":{"lat":19.716669,"lon":-97.583328},"name":"San Miguel Tenextatiloyan"},{"country":"MX","id":3518249,"coord":{"lat":16.966669,"lon":-95.816673},"name":"San Miguel Quetzaltepec"},{"country":"MX","id":3518253,"coord":{"lat":16.24844,"lon":-97.38427},"name":"San Miguel Panixtlahuaca"},{"country":"MX","id":3518281,"coord":{"lat":19.15,"lon":-98.083328},"name":"San Miguel Canoa"},{"country":"MX","id":3518286,"coord":{"lat":19.106939,"lon":-99.654716},"name":"San Miguel Balderas"},{"country":"MX","id":3518326,"coord":{"lat":19.752501,"lon":-99.930832},"name":"San Miguel Tenochtitlan"},{"country":"MX","id":3518361,"coord":{"lat":19.701389,"lon":-99.251938},"name":"San Mateo Xoloc"},{"country":"MX","id":3518363,"coord":{"lat":18.9,"lon":-97.73333},"name":"San Mateo Tlaixpan"},{"country":"MX","id":3518364,"coord":{"lat":19.16667,"lon":-99.466667},"name":"San Mateo Texcalyacac"},{"country":"MX","id":3518379,"coord":{"lat":19.69972,"lon":-99.178329},"name":"San Mateo Ixtacalco"},{"country":"MX","id":3518382,"coord":{"lat":16.200001,"lon":-95},"name":"San Mateo del Mar"},{"country":"MX","id":3518439,"coord":{"lat":18.65,"lon":-97.583328},"name":"San Marcos Tlacoyalco"},{"country":"MX","id":3518451,"coord":{"lat":20.200001,"lon":-96.949997},"name":"Vega de San Marcos"},{"country":"MX","id":3518453,"coord":{"lat":20.066669,"lon":-99.333328},"name":"San Marcos"},{"country":"MX","id":3518518,"coord":{"lat":18.066669,"lon":-96.383331},"name":"San Lucas Ojitlan"},{"country":"MX","id":3518538,"coord":{"lat":19.428061,"lon":-99.580833},"name":"San Lorenzo Oyamel"},{"country":"MX","id":3518602,"coord":{"lat":19.799999,"lon":-97.333328},"name":"San Juan Xiutetelco"},{"country":"MX","id":3518676,"coord":{"lat":16.966669,"lon":-95.099998},"name":"San Juan Guichicovi"},{"country":"MX","id":3518677,"coord":{"lat":16.950001,"lon":-96.550003},"name":"San Juan Guelavia"},{"country":"MX","id":3518679,"coord":{"lat":17.9,"lon":-95.133331},"name":"San Juan Evangelista"},{"country":"MX","id":3518702,"coord":{"lat":19.246389,"lon":-99.760559},"name":"San Juan de las Huertas"},{"country":"MX","id":3518720,"coord":{"lat":16.616671,"lon":-98.150002},"name":"San Juan Cacahuatepec"},{"country":"MX","id":3518729,"coord":{"lat":17.799999,"lon":-96.966667},"name":"San Juan Bautista Cuicatlan"},{"country":"MX","id":3518739,"coord":{"lat":18.816669,"lon":-98.650002},"name":"San Juan Amecac"},{"country":"MX","id":3518835,"coord":{"lat":18.283331,"lon":-97.283333},"name":"San Jose Miahuatlan"},{"country":"MX","id":3518892,"coord":{"lat":19.25,"lon":-97.76667},"name":"San Jose Chiapa"},{"country":"MX","id":3519061,"coord":{"lat":19.033331,"lon":-97.949997},"name":"San Jeronimo Ocotitlan"},{"country":"MX","id":3519101,"coord":{"lat":16.799999,"lon":-96.716667},"name":"San Jacinto Ocotlan"},{"country":"MX","id":3519207,"coord":{"lat":18.933331,"lon":-97.849998},"name":"San Hipolito Xochiltenango"},{"country":"MX","id":3519216,"coord":{"lat":19.033331,"lon":-98.333328},"name":"San Gregorio Atzompa"},{"country":"MX","id":3519230,"coord":{"lat":18.316669,"lon":-97.349998},"name":"San Gabriel Chilac"},{"country":"MX","id":3519231,"coord":{"lat":18.15,"lon":-97.133331},"name":"San Gabriel Casa Blanca"},{"country":"MX","id":3519243,"coord":{"lat":19.933331,"lon":-98.98333},"name":"San Francisco Zacacalco"},{"country":"MX","id":3519249,"coord":{"lat":19.29278,"lon":-99.777779},"name":"San Francisco Tlalcilalcalpan"},{"country":"MX","id":3519274,"coord":{"lat":16.23333,"lon":-94.650002},"name":"San Francisco del Mar"},{"country":"MX","id":3519396,"coord":{"lat":16.866671,"lon":-93.216667},"name":"San Fernando"},{"country":"MX","id":3519402,"coord":{"lat":17.897499,"lon":-96.531113},"name":"San Felipe Usila"},{"country":"MX","id":3519405,"coord":{"lat":19.23333,"lon":-98.48333},"name":"San Felipe Teotlalcingo"},{"country":"MX","id":3519409,"coord":{"lat":18.066669,"lon":-96.533333},"name":"San Felipe Jalapa de Diaz"},{"country":"MX","id":3519412,"coord":{"lat":19.71278,"lon":-99.951942},"name":"San Felipe del Progreso"},{"country":"MX","id":3519480,"coord":{"lat":16.799999,"lon":-96.400002},"name":"San Dionisio Ocotepec"},{"country":"MX","id":3519481,"coord":{"lat":16.33333,"lon":-94.75},"name":"San Dionisio del Mar"},{"country":"MX","id":3519487,"coord":{"lat":19.48333,"lon":-98.816673},"name":"San Dieguito Xochimanca"},{"country":"MX","id":3519539,"coord":{"lat":16.316669,"lon":-96.400002},"name":"San Cristobal Amatlan"},{"country":"MX","id":3519588,"coord":{"lat":17.549999,"lon":-91.150002},"name":"San Carlos"},{"country":"MX","id":3519601,"coord":{"lat":19.26889,"lon":-99.696388},"name":"San Buenaventura"},{"country":"MX","id":3519622,"coord":{"lat":19.366671,"lon":-98.183327},"name":"Amaxac de Guerrero"},{"country":"MX","id":3519632,"coord":{"lat":18.5,"lon":-97.51667},"name":"San Bartolo Teontepec"},{"country":"MX","id":3519640,"coord":{"lat":18.033331,"lon":-96.666672},"name":"San Bartolome Ayautla"},{"country":"MX","id":3519642,"coord":{"lat":19.59083,"lon":-99.743889},"name":"San Bartolo del Llano"},{"country":"MX","id":3519666,"coord":{"lat":16.75,"lon":-96.48333},"name":"San Baltazar Chichicapan"},{"country":"MX","id":3519675,"coord":{"lat":19.1,"lon":-98.150002},"name":"San Aparicio"},{"country":"MX","id":3519926,"coord":{"lat":17.1,"lon":-96.666672},"name":"San Andres Huayapan"},{"country":"MX","id":3519927,"coord":{"lat":16.316669,"lon":-97.933327},"name":"San Andres Huaxpaltepec"},{"country":"MX","id":3519930,"coord":{"lat":19.1,"lon":-98.449997},"name":"San Andres Calpan"},{"country":"MX","id":3519972,"coord":{"lat":20.116671,"lon":-98.883331},"name":"San Agustin Tlaxiaca"},{"country":"MX","id":3520038,"coord":{"lat":19.433331,"lon":-99.849998},"name":"Salitrillo"},{"country":"MX","id":3520249,"coord":{"lat":21.6,"lon":-88.166672},"name":"Rio Lagartos"},{"country":"MX","id":3520260,"coord":{"lat":19.35,"lon":-98.666672},"name":"Rio Frio"},{"country":"MX","id":3520281,"coord":{"lat":16.9,"lon":-95.050003},"name":"Rincon Viejo"},{"country":"MX","id":3520428,"coord":{"lat":17.200001,"lon":-93},"name":"Rayon"},{"country":"MX","id":3520876,"coord":{"lat":19.25,"lon":-97.166672},"name":"Rafael J. Garcia"},{"country":"MX","id":3520935,"coord":{"lat":17.033331,"lon":-97.933327},"name":"Putla de Guerrero"},{"country":"MX","id":3520989,"coord":{"lat":14.72076,"lon":-92.421463},"name":"Puerto Madero"},{"country":"MX","id":3521111,"coord":{"lat":19.628611,"lon":-99.35611},"name":"Progreso Industrial"},{"country":"MX","id":3521482,"coord":{"lat":18.76667,"lon":-96.183327},"name":"Piedras Negras"},{"country":"MX","id":3521610,"coord":{"lat":17.283331,"lon":-92.449997},"name":"Petalcingo"},{"country":"MX","id":3521830,"coord":{"lat":19.033331,"lon":-96.116669},"name":"Paso del Toro"},{"country":"MX","id":3521894,"coord":{"lat":16.033331,"lon":-93.866669},"name":"Paredon"},{"country":"MX","id":3521925,"coord":{"lat":19.566669,"lon":-98.849998},"name":"Papalotla"},{"country":"MX","id":3521972,"coord":{"lat":21.283331,"lon":-88.26667},"name":"Panaba"},{"country":"MX","id":3522198,"coord":{"lat":20.283331,"lon":-98.150002},"name":"Pahuatlan del Valle"},{"country":"MX","id":3522208,"coord":{"lat":20.066669,"lon":-98.699997},"name":"Pachuquilla"},{"country":"MX","id":3522235,"coord":{"lat":21.66667,"lon":-97.849998},"name":"Ozuluama"},{"country":"MX","id":3522256,"coord":{"lat":16.85,"lon":-92.416672},"name":"Oxchuc"},{"country":"MX","id":3522280,"coord":{"lat":18.200001,"lon":-96.033333},"name":"Otatitlan"},{"country":"MX","id":3522317,"coord":{"lat":19.366671,"lon":-97.616669},"name":"Oriental"},{"country":"MX","id":3522454,"coord":{"lat":19.15,"lon":-98.26667},"name":"Ocotlan"},{"country":"MX","id":3522459,"coord":{"lat":19.23333,"lon":-99.616669},"name":"Ocotitlan"},{"country":"MX","id":3522493,"coord":{"lat":22.83333,"lon":-99.333328},"name":"Ocampo"},{"country":"MX","id":3522526,"coord":{"lat":23.16667,"lon":-97.949997},"name":"Nuevo Progreso"},{"country":"MX","id":3522605,"coord":{"lat":15.8,"lon":-92.75},"name":"Nueva Palestina"},{"country":"MX","id":3522645,"coord":{"lat":19.216669,"lon":-97.816673},"name":"Nopalucan de la Granja"},{"country":"MX","id":3522728,"coord":{"lat":16.566669,"lon":-94.616669},"name":"Niltepec"},{"country":"MX","id":3522742,"coord":{"lat":18.450001,"lon":-88.916672},"name":"Nicolas Bravo"},{"country":"MX","id":3522959,"coord":{"lat":18.73333,"lon":-97.416672},"name":"Morelos Canada"},{"country":"MX","id":3523040,"coord":{"lat":18.966669,"lon":-97.01667},"name":"Monte Blanco"},{"country":"MX","id":3523212,"coord":{"lat":17.26667,"lon":-91.150002},"name":"Miguel Hidalgo"},{"country":"MX","id":3523296,"coord":{"lat":20.73333,"lon":-97.849998},"name":"Metlaltoyuca"},{"country":"MX","id":3523418,"coord":{"lat":14.86667,"lon":-92.449997},"name":"Mazatan"},{"country":"MX","id":3523436,"coord":{"lat":20.58333,"lon":-89.98333},"name":"Maxcanu"},{"country":"MX","id":3523608,"coord":{"lat":22.73333,"lon":-98.300003},"name":"Manuel"},{"country":"MX","id":3523616,"coord":{"lat":19.1,"lon":-96.333328},"name":"Manlio Fabio Altamirano"},{"country":"MX","id":3523663,"coord":{"lat":20.48333,"lon":-89.366669},"name":"Mama"},{"country":"MX","id":3523697,"coord":{"lat":18.933331,"lon":-98.300003},"name":"Malacatepec"},{"country":"MX","id":3523905,"coord":{"lat":20.15,"lon":-98.166672},"name":"Los Reyes"},{"country":"MX","id":3524186,"coord":{"lat":21.51667,"lon":-97.76667},"name":"Los Altos"},{"country":"MX","id":3524580,"coord":{"lat":19.633329,"lon":-97.083328},"name":"Las Vigas"},{"country":"MX","id":3524965,"coord":{"lat":16.366671,"lon":-94.616669},"name":"Las Amilpas"},{"country":"MX","id":3525067,"coord":{"lat":24.69722,"lon":-99.539169},"name":"La Reforma"},{"country":"MX","id":3525203,"coord":{"lat":18.933331,"lon":-97.133331},"name":"La Perla"},{"country":"MX","id":3525491,"coord":{"lat":14.59111,"lon":-92.193611},"name":"La Libertad"},{"country":"MX","id":3525956,"coord":{"lat":19.68194,"lon":-99.856941},"name":"La Concepcion"},{"country":"MX","id":3526301,"coord":{"lat":20.799999,"lon":-89.033333},"name":"Kantunil"},{"country":"MX","id":3526450,"coord":{"lat":19.049999,"lon":-99.466667},"name":"Joquicingo de Leon Guzman"},{"country":"MX","id":3526499,"coord":{"lat":19.870001,"lon":-99.057777},"name":"San Marcos Jilotzingo"},{"country":"MX","id":3526501,"coord":{"lat":19.95278,"lon":-99.534721},"name":"Jilotepec de Abasolo"},{"country":"MX","id":3526505,"coord":{"lat":19.6,"lon":-96.933327},"name":"Jilotepec"},{"country":"MX","id":3526538,"coord":{"lat":17.433331,"lon":-95.033333},"name":"Jesus Carranza"},{"country":"MX","id":3526613,"coord":{"lat":18.83333,"lon":-97.083328},"name":"Jalapilla"},{"country":"MX","id":3526687,"coord":{"lat":16.799999,"lon":-92.916672},"name":"Ixtapa"},{"country":"MX","id":3526715,"coord":{"lat":16.356939,"lon":-94.482498},"name":"Ixhuatan"},{"country":"MX","id":3526726,"coord":{"lat":21.200001,"lon":-97.949997},"name":"Ixcatepec"},{"country":"MX","id":3526756,"coord":{"lat":21.23114,"lon":-86.731049},"name":"Isla Mujeres"},{"country":"MX","id":3526766,"coord":{"lat":18.783331,"lon":-91.466667},"name":"Isla de Aguada"},{"country":"MX","id":3526916,"coord":{"lat":18.75,"lon":-97.316673},"name":"Huiloapan"},{"country":"MX","id":3526924,"coord":{"lat":20.716669,"lon":-89.166672},"name":"Huhi"},{"country":"MX","id":3526927,"coord":{"lat":19.950001,"lon":-97.26667},"name":"Hueytamalco"},{"country":"MX","id":3526929,"coord":{"lat":19.48333,"lon":-98.349998},"name":"Hueyotlipan"},{"country":"MX","id":3526932,"coord":{"lat":18.144791,"lon":-95.148727},"name":"Hueyapan de Ocampo"},{"country":"MX","id":3526987,"coord":{"lat":18.1315,"lon":-96.840881},"name":"Huautla de Jimenez"},{"country":"MX","id":3527080,"coord":{"lat":20.73333,"lon":-89.283333},"name":"Homun"},{"country":"MX","id":3527094,"coord":{"lat":20.816669,"lon":-89.25},"name":"Hocaba"},{"country":"MX","id":3527113,"coord":{"lat":17.783331,"lon":-94.633331},"name":"Hidalgotitlan"},{"country":"MX","id":3527117,"coord":{"lat":26.049999,"lon":-98.199997},"name":"Hidalgo"},{"country":"MX","id":3527121,"coord":{"lat":19.966669,"lon":-96.866669},"name":"Santa Cruz Hidalgo"},{"country":"MX","id":3527186,"coord":{"lat":20.450001,"lon":-97.083328},"name":"Gutierrez Zamora"},{"country":"MX","id":3527413,"coord":{"lat":23.91667,"lon":-99.283333},"name":"Graciano Sanchez"},{"country":"MX","id":3527451,"coord":{"lat":25.26667,"lon":-99.683327},"name":"General Teran"},{"country":"MX","id":3527457,"coord":{"lat":25.799999,"lon":-99.166672},"name":"General Bravo"},{"country":"MX","id":3527541,"coord":{"lat":14.78333,"lon":-92.166672},"name":"Frontera Hidalgo"},{"country":"MX","id":3527624,"coord":{"lat":20.200001,"lon":-97.699997},"name":"Filomeno Mata"},{"country":"MX","id":3527720,"coord":{"lat":21.01667,"lon":-88.316673},"name":"Espita"},{"country":"MX","id":3527768,"coord":{"lat":15.33333,"lon":-92.633331},"name":"Escuintla"},{"country":"MX","id":3527869,"coord":{"lat":19.966669,"lon":-96.599998},"name":"Villa Emilio Carranza"},{"country":"MX","id":3527876,"coord":{"lat":19.66667,"lon":-98.533333},"name":"Emiliano Zapata"},{"country":"MX","id":3528046,"coord":{"lat":19.049999,"lon":-96.166672},"name":"El Tejar"},{"country":"MX","id":3528643,"coord":{"lat":21.466669,"lon":-98.599998},"name":"El Naranjo"},{"country":"MX","id":3528788,"coord":{"lat":20.049999,"lon":-99.300003},"name":"El Llano"},{"country":"MX","id":3528975,"coord":{"lat":16.33333,"lon":-94.066673},"name":"El Espinal"},{"country":"MX","id":3529243,"coord":{"lat":19.533331,"lon":-96.849998},"name":"El Castillo"},{"country":"MX","id":3529372,"coord":{"lat":17.066669,"lon":-92.73333},"name":"El Bosque"},{"country":"MX","id":3529652,"coord":{"lat":20.85,"lon":-88.51667},"name":"Dzitas"},{"country":"MX","id":3529730,"coord":{"lat":19.15,"lon":-98.433327},"name":"Domingo Arenas"},{"country":"MX","id":3529863,"coord":{"lat":20.73333,"lon":-89.316673},"name":"Cuzama"},{"country":"MX","id":3529918,"coord":{"lat":18.76667,"lon":-96.866669},"name":"Cuichapa"},{"country":"MX","id":3529983,"coord":{"lat":19.68667,"lon":-99.286942},"name":"Santiago Cuautlalpan"},{"country":"MX","id":3530033,"coord":{"lat":19.299999,"lon":-97.76667},"name":"Cuapiaxtla"},{"country":"MX","id":3530110,"coord":{"lat":20.25,"lon":-97.650002},"name":"Coyutla"},{"country":"MX","id":3530200,"coord":{"lat":18.114611,"lon":-95.115417},"name":"Corral Nuevo"},{"country":"MX","id":3530482,"coord":{"lat":18.23333,"lon":-99.666672},"name":"Cocula"},{"country":"MX","id":3530506,"coord":{"lat":20.482981,"lon":-87.738876},"name":"Coba"},{"country":"MX","id":3530523,"coord":{"lat":18.716669,"lon":-99.333328},"name":"Coatetelco"},{"country":"MX","id":3530527,"coord":{"lat":18.89492,"lon":-99.721527},"name":"Coatepec Harinas"},{"country":"MX","id":3530532,"coord":{"lat":19.1,"lon":-97.583328},"name":"Coatepec"},{"country":"MX","id":3530588,"coord":{"lat":17.9,"lon":-92.5},"name":"Ciudad Pemex"},{"country":"MX","id":3530598,"coord":{"lat":22.4,"lon":-99.599998},"name":"Ciudad del Maiz"},{"country":"MX","id":3530691,"coord":{"lat":19.549999,"lon":-88.683327},"name":"Chunhuhub"},{"country":"MX","id":3530718,"coord":{"lat":20.433331,"lon":-89.316673},"name":"Chumayel"},{"country":"MX","id":3530749,"coord":{"lat":17.700001,"lon":-93.51667},"name":"Chontalpa"},{"country":"MX","id":3530756,"coord":{"lat":19.26667,"lon":-99.48333},"name":"Cholula"},{"country":"MX","id":3530834,"coord":{"lat":21.366671,"lon":-97.73333},"name":"Chinampa de Gorostiza"},{"country":"MX","id":3530839,"coord":{"lat":25.700001,"lon":-99.23333},"name":"China"},{"country":"MX","id":3530840,"coord":{"lat":19.76667,"lon":-90.5},"name":"China"},{"country":"MX","id":3530852,"coord":{"lat":19.433331,"lon":-99.349998},"name":"Chimalpa"},{"country":"MX","id":3530916,"coord":{"lat":21.133329,"lon":-89.51667},"name":"Chicxulub"},{"country":"MX","id":3530926,"coord":{"lat":20.966669,"lon":-98.166672},"name":"Chicontepec"},{"country":"MX","id":3530955,"coord":{"lat":17.683331,"lon":-99.650002},"name":"Chichihualco"},{"country":"MX","id":3531007,"coord":{"lat":19.533331,"lon":-98.883331},"name":"Chiautla"},{"country":"MX","id":3531221,"coord":{"lat":16.299999,"lon":-94.183327},"name":"Chahuite"},{"country":"MX","id":3531258,"coord":{"lat":18.33333,"lon":-95.833328},"name":"Chacaltianguis"},{"country":"MX","id":3531362,"coord":{"lat":20.966669,"lon":-88.616669},"name":"Cenotillo"},{"country":"MX","id":3531368,"coord":{"lat":20.866671,"lon":-90.400002},"name":"Celestun"},{"country":"MX","id":3531571,"coord":{"lat":20.6,"lon":-99.133331},"name":"Cardonal"},{"country":"MX","id":3531674,"coord":{"lat":16.91667,"lon":-92.48333},"name":"Cancuc"},{"country":"MX","id":3531764,"coord":{"lat":26.25,"lon":-98.833328},"name":"Camargo"},{"country":"MX","id":3531789,"coord":{"lat":20.91667,"lon":-98.583328},"name":"Calnali"},{"country":"MX","id":3531794,"coord":{"lat":19.334169,"lon":-99.691109},"name":"Calixtlahuaca"},{"country":"MX","id":3531816,"coord":{"lat":18.549999,"lon":-88.25},"name":"Calderitas"},{"country":"MX","id":3531863,"coord":{"lat":20.700001,"lon":-99.816673},"name":"Cadereyta de Montes"},{"country":"MX","id":3531875,"coord":{"lat":17.133329,"lon":-96.800003},"name":"Cacaotepec"},{"country":"MX","id":3531888,"coord":{"lat":18.783331,"lon":-98.48333},"name":"Cacalosuchil"},{"country":"MX","id":3531972,"coord":{"lat":18.450001,"lon":-99.416672},"name":"Buenavista de Cuellar"},{"country":"MX","id":3532053,"coord":{"lat":17.91667,"lon":-92.533333},"name":"Buenavista"},{"country":"MX","id":3532089,"coord":{"lat":21.200001,"lon":-88.783333},"name":"Buctzotz"},{"country":"MX","id":3532188,"coord":{"lat":19.85,"lon":-99.099998},"name":"Bocanegra"},{"country":"MX","id":3532276,"coord":{"lat":20.9,"lon":-98.199997},"name":"Benito Juarez"},{"country":"MX","id":3532278,"coord":{"lat":19.83333,"lon":-97.75},"name":"Benito Juarez"},{"country":"MX","id":3532279,"coord":{"lat":19.366671,"lon":-97.916672},"name":"Benito Juarez"},{"country":"MX","id":3532310,"coord":{"lat":17.799999,"lon":-92.616669},"name":"Belen"},{"country":"MX","id":3532443,"coord":{"lat":17.799999,"lon":-91.533333},"name":"Balancan de Dominguez"},{"country":"MX","id":3532446,"coord":{"lat":16.950001,"lon":-99.966667},"name":"Bajos del Ejido"},{"country":"MX","id":3532467,"coord":{"lat":21.1,"lon":-89.416672},"name":"Baca"},{"country":"MX","id":3532490,"coord":{"lat":16.716669,"lon":-98.73333},"name":"Azoyu"},{"country":"MX","id":3532499,"coord":{"lat":16.9,"lon":-99.216667},"name":"Ayutla de los Libres"},{"country":"MX","id":3532506,"coord":{"lat":18.549999,"lon":-98.5},"name":"Ayutla"},{"country":"MX","id":3532510,"coord":{"lat":17.66667,"lon":-96.133331},"name":"Ayotzintepec"},{"country":"MX","id":3532513,"coord":{"lat":18.75,"lon":-99.816673},"name":"Ayotusco"},{"country":"MX","id":3532521,"coord":{"lat":19.200001,"lon":-98.199997},"name":"Ayometitla"},{"country":"MX","id":3532601,"coord":{"lat":19.01667,"lon":-98.783333},"name":"Atlautla"},{"country":"MX","id":3532604,"coord":{"lat":19.06694,"lon":-99.61306},"name":"Atlatlahuaca"},{"country":"MX","id":3532625,"coord":{"lat":19.25,"lon":-99.550003},"name":"Atizapan"},{"country":"MX","id":3532634,"coord":{"lat":20.16667,"lon":-99.333328},"name":"Atengo"},{"country":"MX","id":3532802,"coord":{"lat":18.15,"lon":-99.866669},"name":"Apaxtla de Castrejon"},{"country":"MX","id":3532808,"coord":{"lat":18.783331,"lon":-98.949997},"name":"Apatlaco"},{"country":"MX","id":3532852,"coord":{"lat":18.58333,"lon":-95.433327},"name":"Angel R. Cabada"},{"country":"MX","id":3532858,"coord":{"lat":18.76667,"lon":-98.98333},"name":"Anenecuilco"},{"country":"MX","id":3532870,"coord":{"lat":22.200001,"lon":-97.866669},"name":"Anahuac"},{"country":"MX","id":3532878,"coord":{"lat":16.65,"lon":-98.099998},"name":"San Pedro Amuzgos"},{"country":"MX","id":3532895,"coord":{"lat":19.316669,"lon":-99.466667},"name":"Ameyalco"},{"country":"MX","id":3532903,"coord":{"lat":18.700001,"lon":-98.76667},"name":"Amayuca"},{"country":"MX","id":3532909,"coord":{"lat":18.83333,"lon":-96.916672},"name":"Amatlan de los Reyes"},{"country":"MX","id":3532958,"coord":{"lat":14.93333,"lon":-92.416672},"name":"Alvaro Obregon"},{"country":"MX","id":3532996,"coord":{"lat":16.883329,"lon":-92.150002},"name":"Altamirano"},{"country":"MX","id":3533022,"coord":{"lat":17.66667,"lon":-98.51667},"name":"Alpoyeca"},{"country":"MX","id":3533047,"coord":{"lat":19.23333,"lon":-99.416672},"name":"Almaya"},{"country":"MX","id":3533067,"coord":{"lat":21.466669,"lon":-98.849998},"name":"Alfredo M. Terrazas"},{"country":"MX","id":3533117,"coord":{"lat":20.25,"lon":-89.349998},"name":"Akil"},{"country":"MX","id":3533143,"coord":{"lat":18.680241,"lon":-99.308342},"name":"Ahuehuetzingo"},{"country":"MX","id":3533268,"coord":{"lat":20.366671,"lon":-97.283333},"name":"Agua Dulce"},{"country":"MX","id":3533390,"coord":{"lat":19.5,"lon":-96.616669},"name":"Actopan"},{"country":"MX","id":3533422,"coord":{"lat":19.26667,"lon":-99.433327},"name":"Acazulco"},{"country":"MX","id":3533439,"coord":{"lat":18.533331,"lon":-96.616669},"name":"Acatlan de Perez Figueroa"},{"country":"MX","id":3533472,"coord":{"lat":20.816669,"lon":-89.449997},"name":"Acanceh"},{"country":"MX","id":3533473,"coord":{"lat":18.566669,"lon":-99.583328},"name":"Acamixtla"},{"country":"MX","id":3533490,"coord":{"lat":19.276939,"lon":-99.775558},"name":"San Antonio Acahualco"},{"country":"MX","id":3533505,"coord":{"lat":24.066669,"lon":-98.366669},"name":"Abasolo"},{"country":"MX","id":3761194,"coord":{"lat":19.216669,"lon":-98.808327},"name":"San Mateo Tezoquipan"},{"country":"MX","id":3762210,"coord":{"lat":19.22389,"lon":-99.674438},"name":"Santiago Tlacotepec"},{"country":"MX","id":3800500,"coord":{"lat":16.109171,"lon":-97.156113},"name":"Santos Reyes Nopala"},{"country":"MX","id":3801045,"coord":{"lat":17.680559,"lon":-97.568893},"name":"Tamazulapan del Progreso"},{"country":"MX","id":3801145,"coord":{"lat":18.131941,"lon":-97.076668},"name":"Teotitlan de Flores Magon"},{"country":"MX","id":3801262,"coord":{"lat":18.21167,"lon":-96.483887},"name":"Isla Soyaltepec"},{"country":"MX","id":3801635,"coord":{"lat":16.97694,"lon":-96.699173},"name":"Santa Maria Coyotepec"},{"country":"MX","id":3802196,"coord":{"lat":18.1,"lon":-94.050003},"name":"Villa La Venta"},{"country":"MX","id":3802287,"coord":{"lat":18.158331,"lon":-93.349998},"name":"El Tular"},{"country":"MX","id":3802710,"coord":{"lat":17.91667,"lon":-92.916672},"name":"Parrilla"},{"country":"MX","id":3803064,"coord":{"lat":17.725,"lon":-92.808327},"name":"Jalapa"},{"country":"MX","id":3815359,"coord":{"lat":19.262501,"lon":-98.165283},"name":"Tetlanohcan"},{"country":"MX","id":3815375,"coord":{"lat":19.275,"lon":-98.193062},"name":"Tlaltelulco"},{"country":"MX","id":3815405,"coord":{"lat":19.24028,"lon":-98.306938},"name":"Teacalco"},{"country":"MX","id":3815459,"coord":{"lat":19.440281,"lon":-98.076393},"name":"Guadalupe Texcalac"},{"country":"MX","id":3815479,"coord":{"lat":17.65,"lon":-93.150002},"name":"Pueblo Juarez"},{"country":"MX","id":3815723,"coord":{"lat":17.133329,"lon":-92.48333},"name":"Pueblo Nuevo Sitala"},{"country":"MX","id":3816362,"coord":{"lat":16.51667,"lon":-90.64389},"name":"Benemerito de las Americas"},{"country":"MX","id":3817584,"coord":{"lat":19.183331,"lon":-99.816673},"name":"Cerro La Calera"},{"country":"MX","id":3817745,"coord":{"lat":19.625,"lon":-98.916672},"name":"Acolman"},{"country":"MX","id":3818846,"coord":{"lat":18.95833,"lon":-97.80278},"name":"Actipan"},{"country":"MX","id":3818912,"coord":{"lat":18.566669,"lon":-98.449997},"name":"Raboso"},{"country":"MX","id":3818940,"coord":{"lat":18.433331,"lon":-98.699997},"name":"Tlancualpican"},{"country":"MX","id":3819040,"coord":{"lat":18.29583,"lon":-97.166672},"name":"Caipan"},{"country":"MX","id":3819050,"coord":{"lat":18.325001,"lon":-98.841667},"name":"Jolalpan"},{"country":"MX","id":3822167,"coord":{"lat":16.816669,"lon":-98.73333},"name":"San Luis Acatlan"},{"country":"MX","id":3822723,"coord":{"lat":21.08333,"lon":-86.849998},"name":"Alfredo V. Bonfil"},{"country":"MX","id":3824081,"coord":{"lat":17.933331,"lon":-94.675003},"name":"Coacotla"},{"country":"MX","id":3824674,"coord":{"lat":20.216669,"lon":-97.666672},"name":"Mecatlan"},{"country":"MX","id":3827000,"coord":{"lat":19.633329,"lon":-99.925827},"name":"San Agustin Mextepec"},{"country":"MX","id":3827022,"coord":{"lat":19.781389,"lon":-99.929169},"name":"Santiago Citendeje"},{"country":"MX","id":3827030,"coord":{"lat":19.81583,"lon":-99.911392},"name":"San Lorenzo Tlacotepec"},{"country":"MX","id":3827038,"coord":{"lat":19.755831,"lon":-99.823059},"name":"San Antonio Enchisi"},{"country":"MX","id":3827229,"coord":{"lat":19.479441,"lon":-99.580559},"name":"San Pedro de Abajo"},{"country":"MX","id":3827252,"coord":{"lat":19.324169,"lon":-99.679443},"name":"Yachihuacaltepec"},{"country":"MX","id":3827267,"coord":{"lat":19.264999,"lon":-99.513893},"name":"San Pedro Tultepec"},{"country":"MX","id":3827273,"coord":{"lat":19.22611,"lon":-99.634438},"name":"San Bartolome Tlaltelulco"},{"country":"MX","id":3827278,"coord":{"lat":19.194719,"lon":-99.503609},"name":"San Pedro Tlaltizapan"},{"country":"MX","id":3827283,"coord":{"lat":19.191111,"lon":-99.58667},"name":"San Andres Ocotlan"},{"country":"MX","id":3827299,"coord":{"lat":19.03389,"lon":-99.580833},"name":"San Pedro Zictepec"},{"country":"MX","id":3827304,"coord":{"lat":19.111389,"lon":-99.540001},"name":"Santa Maria Jajalpa"},{"country":"MX","id":3827335,"coord":{"lat":19.185829,"lon":-99.423332},"name":"Santiago Tilapa"},{"country":"MX","id":3827368,"coord":{"lat":19.32056,"lon":-99.460564},"name":"San Mateo Atarasquillo"},{"country":"MX","id":3827418,"coord":{"lat":19.39472,"lon":-99.313057},"name":"San Bartolome Coatepec"},{"country":"MX","id":3827597,"coord":{"lat":19.685829,"lon":-99.056671},"name":"Santa Maria Tonatitla"},{"country":"MX","id":3827600,"coord":{"lat":19.64056,"lon":-99.008331},"name":"Santo Tomas Chiconautla"},{"country":"MX","id":3970558,"coord":{"lat":27.41667,"lon":-110.23333},"name":"Rio Muerto"},{"country":"MX","id":3970634,"coord":{"lat":27.633329,"lon":-110.283333},"name":"Vicam"},{"country":"MX","id":3972429,"coord":{"lat":22.66667,"lon":-102.116669},"name":"General Panfilo Natera"},{"country":"MX","id":3972702,"coord":{"lat":23,"lon":-102.741669},"name":"General Enrique Estrada"},{"country":"MX","id":3973756,"coord":{"lat":22.33333,"lon":-100.26667},"name":"Villa Juarez"},{"country":"MX","id":3974149,"coord":{"lat":22.950001,"lon":-102.050003},"name":"Los Zacatones"},{"country":"MX","id":3974329,"coord":{"lat":23,"lon":-102.166672},"name":"Dulce Grande"},{"country":"MX","id":3974771,"coord":{"lat":31.366671,"lon":-106.01667},"name":"Praxedis Guerrero"},{"country":"MX","id":3976161,"coord":{"lat":28.466669,"lon":-107.300003},"name":"Adolfo Lopez Mateos"},{"country":"MX","id":3976232,"coord":{"lat":22.73333,"lon":-105.849998},"name":"Isla del Bosque"},{"country":"MX","id":3979430,"coord":{"lat":32.220001,"lon":-116.917221},"name":"Primo Tapia"},{"country":"MX","id":3979439,"coord":{"lat":32.580002,"lon":-115.583893},"name":"Progreso"},{"country":"MX","id":3979494,"coord":{"lat":32.19389,"lon":-115.001671},"name":"Estacion Coahuila"},{"country":"MX","id":3979497,"coord":{"lat":32.227501,"lon":-115.169724},"name":"Alberto Oviedo Mota"},{"country":"MX","id":3979647,"coord":{"lat":18.450001,"lon":-100.98333},"name":"Zirandaro"},{"country":"MX","id":3979665,"coord":{"lat":19.866671,"lon":-100.816673},"name":"Zinapecuaro"},{"country":"MX","id":3979714,"coord":{"lat":22.033331,"lon":-100.73333},"name":"Zaragoza"},{"country":"MX","id":3979755,"coord":{"lat":21.066669,"lon":-102.800003},"name":"Zapote"},{"country":"MX","id":3979821,"coord":{"lat":17.08333,"lon":-100.333328},"name":"Zacualpan"},{"country":"MX","id":3979962,"coord":{"lat":26.700001,"lon":-109.51667},"name":"Yavaros"},{"country":"MX","id":3979982,"coord":{"lat":21.133329,"lon":-102.849998},"name":"Yahualica"},{"country":"MX","id":3980037,"coord":{"lat":20.26667,"lon":-102.48333},"name":"Vistahermosa de Negrete"},{"country":"MX","id":3980135,"coord":{"lat":26.450001,"lon":-105.51667},"name":"Villa Ocampo"},{"country":"MX","id":3980140,"coord":{"lat":22.35,"lon":-102.883331},"name":"Villanueva"},{"country":"MX","id":3980167,"coord":{"lat":22.35,"lon":-101.699997},"name":"Villa Hidalgo"},{"country":"MX","id":3980168,"coord":{"lat":21.73333,"lon":-105.23333},"name":"Villa Hidalgo"},{"country":"MX","id":3980177,"coord":{"lat":22.16667,"lon":-101.949997},"name":"Villa Garcia"},{"country":"MX","id":3980184,"coord":{"lat":19.4,"lon":-101.650002},"name":"Villa Escalante"},{"country":"MX","id":3980207,"coord":{"lat":30.616671,"lon":-106.51667},"name":"Villa Ahumada"},{"country":"MX","id":3980230,"coord":{"lat":25.35,"lon":-102.800003},"name":"Viesca"},{"country":"MX","id":3980387,"coord":{"lat":25.35,"lon":-102.949997},"name":"Venustiano Carranza"},{"country":"MX","id":3980580,"coord":{"lat":20.533331,"lon":-101.133331},"name":"Valtierrilla"},{"country":"MX","id":3980586,"coord":{"lat":22.76667,"lon":-103.566673},"name":"Valparaiso"},{"country":"MX","id":3980614,"coord":{"lat":19.933331,"lon":-102.933327},"name":"Valle de Juarez"},{"country":"MX","id":3980617,"coord":{"lat":21,"lon":-102.616669},"name":"Valle de Guadalupe"},{"country":"MX","id":3980627,"coord":{"lat":26.933331,"lon":-105.400002},"name":"Valle de Ignacio Allende"},{"country":"MX","id":3980683,"coord":{"lat":28.216669,"lon":-106.583328},"name":"Valentin Gomez Farias"},{"country":"MX","id":3980799,"coord":{"lat":21.1,"lon":-101.966667},"name":"Union de San Antonio"},{"country":"MX","id":3980843,"coord":{"lat":19.566669,"lon":-100.466667},"name":"Tuxpan"},{"country":"MX","id":3981069,"coord":{"lat":18.183331,"lon":-101.616669},"name":"Tres Palos"},{"country":"MX","id":3981455,"coord":{"lat":19.966669,"lon":-102.066673},"name":"Tlazazalca"},{"country":"MX","id":3981469,"coord":{"lat":26.116671,"lon":-103.449997},"name":"Tlahualilo de Zaragoza"},{"country":"MX","id":3981491,"coord":{"lat":20.16667,"lon":-103.066673},"name":"Tizapan el Alto"},{"country":"MX","id":3981725,"coord":{"lat":21.466669,"lon":-103.48333},"name":"Teul de Gonzalez Ortega"},{"country":"MX","id":3981727,"coord":{"lat":20.683331,"lon":-103.866669},"name":"Teuchitlan"},{"country":"MX","id":3982051,"coord":{"lat":20.58333,"lon":-100.76667},"name":"Teneria"},{"country":"MX","id":3982170,"coord":{"lat":17.25,"lon":-100.683327},"name":"Tecpan de Galeana"},{"country":"MX","id":3982215,"coord":{"lat":32.566669,"lon":-114.98333},"name":"Tecolots"},{"country":"MX","id":3982287,"coord":{"lat":22.549999,"lon":-105.75},"name":"Teacapan"},{"country":"MX","id":3982292,"coord":{"lat":24.08333,"lon":-105.933327},"name":"Tayoltita"},{"country":"MX","id":3982542,"coord":{"lat":20.283331,"lon":-102.333328},"name":"Tanhuato de Guerrero"},{"country":"MX","id":3982589,"coord":{"lat":20.383329,"lon":-104.816673},"name":"Talpa de Allende"},{"country":"MX","id":3982668,"coord":{"lat":22.816669,"lon":-102.416672},"name":"Tacualeche"},{"country":"MX","id":3982766,"coord":{"lat":19.366671,"lon":-103.716667},"name":"Suchitlan"},{"country":"MX","id":3983032,"coord":{"lat":25.83333,"lon":-108.23333},"name":"Sinaloa de Leyva"},{"country":"MX","id":3983481,"coord":{"lat":21.950001,"lon":-105.300003},"name":"San Vicente"},{"country":"MX","id":3984078,"coord":{"lat":25.933331,"lon":-105.366669},"name":"Santa Maria del Oro"},{"country":"MX","id":3984558,"coord":{"lat":24.475,"lon":-103.356941},"name":"Santa Clara"},{"country":"MX","id":3984629,"coord":{"lat":26.799999,"lon":-105.816673},"name":"Santa Barbara"},{"country":"MX","id":3984679,"coord":{"lat":20.549999,"lon":-103.466667},"name":"Santa Anita"},{"country":"MX","id":3984691,"coord":{"lat":20,"lon":-101.01667},"name":"Santa Ana Maya"},{"country":"MX","id":3984771,"coord":{"lat":19.299999,"lon":-100.083328},"name":"San Simon de la Laguna"},{"country":"MX","id":3984832,"coord":{"lat":20.966669,"lon":-101.849998},"name":"San Roque"},{"country":"MX","id":3985008,"coord":{"lat":22.450001,"lon":-102.349998},"name":"San Pedro Piedra Gorda"},{"country":"MX","id":3985024,"coord":{"lat":20.33333,"lon":-102.949997},"name":"San Pedro Itzican"},{"country":"MX","id":3985031,"coord":{"lat":20.25,"lon":-100.98333},"name":"San Pedro de los Naranjos"},{"country":"MX","id":3985301,"coord":{"lat":25.933331,"lon":-109.050003},"name":"San Miguel Zapotitlan"},{"country":"MX","id":3985307,"coord":{"lat":20.566669,"lon":-100.73333},"name":"San Miguel Octopan"},{"country":"MX","id":3985504,"coord":{"lat":20.435381,"lon":-103.92878},"name":"San Martin Hidalgo"},{"country":"MX","id":3985665,"coord":{"lat":28.433331,"lon":-113.75},"name":"San Luis"},{"country":"MX","id":3985716,"coord":{"lat":18.566669,"lon":-100.783333},"name":"San Lucas"},{"country":"MX","id":3985797,"coord":{"lat":21.01667,"lon":-102.166672},"name":"San Julian"},{"country":"MX","id":3986228,"coord":{"lat":20.66667,"lon":-102.583328},"name":"San Jose de Gracia"},{"country":"MX","id":3986553,"coord":{"lat":17.133329,"lon":-100.466667},"name":"San Jeronimo de Juarez"},{"country":"MX","id":3986600,"coord":{"lat":17.549999,"lon":-101.333328},"name":"San Jeronimito"},{"country":"MX","id":3986954,"coord":{"lat":21.01667,"lon":-103.033333},"name":"San Gabriel"},{"country":"MX","id":3986970,"coord":{"lat":19.566669,"lon":-101.800003},"name":"San Francisco Pichataro"},{"country":"MX","id":3986985,"coord":{"lat":22.08333,"lon":-102.26667},"name":"San Francisco de los Romos"},{"country":"MX","id":3987383,"coord":{"lat":20.65,"lon":-101.466667},"name":"San Cristobal"},{"country":"MX","id":3987402,"coord":{"lat":21.783331,"lon":-103.316673},"name":"Sanchez Roman"},{"country":"MX","id":3987619,"coord":{"lat":19.183331,"lon":-100.050003},"name":"San Bartolo"},{"country":"MX","id":3988153,"coord":{"lat":22.85,"lon":-102.083328},"name":"Salitral de Carreras"},{"country":"MX","id":3988169,"coord":{"lat":22.633329,"lon":-101.716667},"name":"Salinas de Hidalgo"},{"country":"MX","id":3988430,"coord":{"lat":28.200001,"lon":-105.550003},"name":"Rosales"},{"country":"MX","id":3988515,"coord":{"lat":25.183331,"lon":-104.550003},"name":"Rodeo"},{"country":"MX","id":3991169,"coord":{"lat":19.866671,"lon":-100.916672},"name":"Querendaro"},{"country":"MX","id":3991253,"coord":{"lat":19.91667,"lon":-102.01667},"name":"Purepero"},{"country":"MX","id":3991323,"coord":{"lat":21.58333,"lon":-104.816673},"name":"Puga"},{"country":"MX","id":3991622,"coord":{"lat":28.716669,"lon":-111.583328},"name":"Providencia"},{"country":"MX","id":3992278,"coord":{"lat":25.76667,"lon":-103.616669},"name":"Poanas"},{"country":"MX","id":3992485,"coord":{"lat":22.299999,"lon":-101.566673},"name":"Pinos"},{"country":"MX","id":3992919,"coord":{"lat":19.51667,"lon":-102.416672},"name":"Periban de Ramos"},{"country":"MX","id":3992967,"coord":{"lat":24.789721,"lon":-104.036942},"name":"Penon Blanco"},{"country":"MX","id":3992987,"coord":{"lat":20.1,"lon":-101.900002},"name":"Penjamillo de Degollado"},{"country":"MX","id":3993492,"coord":{"lat":24.533331,"lon":-104.333328},"name":"Panuco de Coronado"},{"country":"MX","id":3993763,"coord":{"lat":21.91667,"lon":-101.966667},"name":"Palo Alto"},{"country":"MX","id":3993984,"coord":{"lat":22.16667,"lon":-102.349998},"name":"Pabellon de Hidalgo"},{"country":"MX","id":3994534,"coord":{"lat":27.316669,"lon":-102.400002},"name":"Ocampo"},{"country":"MX","id":3994536,"coord":{"lat":19.58333,"lon":-100.333328},"name":"Ocampo"},{"country":"MX","id":3994581,"coord":{"lat":20.25,"lon":-101.933327},"name":"Numaran"},{"country":"MX","id":3994594,"coord":{"lat":19.4,"lon":-102.133331},"name":"Nuevo San Juan Parangaricutiro"},{"country":"MX","id":3994614,"coord":{"lat":18.616671,"lon":-101.633331},"name":"Nuevo Churumuco"},{"country":"MX","id":3994911,"coord":{"lat":19.049999,"lon":-101.150002},"name":"Nocupetaro"},{"country":"MX","id":3995005,"coord":{"lat":25.23333,"lon":-104.133331},"name":"Nazas"},{"country":"MX","id":3995171,"coord":{"lat":31.334721,"lon":-109.948334},"name":"Naco"},{"country":"MX","id":3995236,"coord":{"lat":26.883329,"lon":-111.98333},"name":"Mulege"},{"country":"MX","id":3995398,"coord":{"lat":22.883329,"lon":-102.616669},"name":"Morelos"},{"country":"MX","id":3995671,"coord":{"lat":25.933331,"lon":-108.933327},"name":"Mochicahui"},{"country":"MX","id":3995794,"coord":{"lat":19.366671,"lon":-104.066673},"name":"Minatitlan"},{"country":"MX","id":3995847,"coord":{"lat":26.001101,"lon":-100.529877},"name":"Mina"},{"country":"MX","id":3996038,"coord":{"lat":20.933331,"lon":-102.75},"name":"Mezcala"},{"country":"MX","id":3996047,"coord":{"lat":21.265381,"lon":-102.779846},"name":"Mexticacan"},{"country":"MX","id":3996299,"coord":{"lat":21.15,"lon":-101.616669},"name":"Medina"},{"country":"MX","id":3996548,"coord":{"lat":25.866671,"lon":-100.050003},"name":"Marin"},{"country":"MX","id":3996933,"coord":{"lat":19.08333,"lon":-103.866669},"name":"Madrid"},{"country":"MX","id":3997000,"coord":{"lat":18.91667,"lon":-100.400002},"name":"Luvianos"},{"country":"MX","id":3997017,"coord":{"lat":22.432369,"lon":-102.248642},"name":"Luis Moya"},{"country":"MX","id":3998214,"coord":{"lat":32.700001,"lon":-114.73333},"name":"Los Algodones"},{"country":"MX","id":3998318,"coord":{"lat":19.15,"lon":-102.033333},"name":"Lombardia"},{"country":"MX","id":3998473,"coord":{"lat":19.616671,"lon":-104.583328},"name":"Lo Arado"},{"country":"MX","id":3998913,"coord":{"lat":26.816669,"lon":-109.599998},"name":"La Union"},{"country":"MX","id":3998919,"coord":{"lat":17.966669,"lon":-101.816673},"name":"La Union"},{"country":"MX","id":3998956,"coord":{"lat":25.73333,"lon":-108.48333},"name":"La Trinidad"},{"country":"MX","id":3999741,"coord":{"lat":19.41667,"lon":-104.699997},"name":"Las Juntas"},{"country":"MX","id":4000811,"coord":{"lat":22.049999,"lon":-100.866669},"name":"La Pila"},{"country":"MX","id":4001325,"coord":{"lat":18.683331,"lon":-102.283333},"name":"La Mira Tumbiscatio"},{"country":"MX","id":4001882,"coord":{"lat":21.91667,"lon":-105.033333},"name":"La Jarretadera"},{"country":"MX","id":4003574,"coord":{"lat":20.566669,"lon":-103.150002},"name":"Puente Grande"},{"country":"MX","id":4003737,"coord":{"lat":20.08333,"lon":-104.116669},"name":"Juchitlan"},{"country":"MX","id":4003739,"coord":{"lat":21.41667,"lon":-103.116669},"name":"Juchipila"},{"country":"MX","id":4003804,"coord":{"lat":24.290831,"lon":-103.39444},"name":"Juan Aldama"},{"country":"MX","id":4004271,"coord":{"lat":20.183331,"lon":-102.400002},"name":"Ixtlan"},{"country":"MX","id":4004294,"coord":{"lat":17.66782,"lon":-101.641647},"name":"Ixtapa"},{"country":"MX","id":4004419,"coord":{"lat":28.383329,"lon":-107.216667},"name":"Ignacio Zaragoza"},{"country":"MX","id":4004616,"coord":{"lat":22.6,"lon":-103.866669},"name":"Huejuquilla el Alto"},{"country":"MX","id":4004949,"coord":{"lat":23.08333,"lon":-102.683327},"name":"Hacienda Toribio"},{"country":"MX","id":4005370,"coord":{"lat":26.1,"lon":-106.966667},"name":"Guadalupe y Calvo"},{"country":"MX","id":4005380,"coord":{"lat":24.44972,"lon":-104.122498},"name":"Guadalupe Victoria"},{"country":"MX","id":4006387,"coord":{"lat":26.76667,"lon":-109.666672},"name":"Etchoropo"},{"country":"MX","id":4006677,"coord":{"lat":22.133329,"lon":-101.066673},"name":"Escalerillas"},{"country":"MX","id":4006971,"coord":{"lat":20.549999,"lon":-103.26667},"name":"El Verde"},{"country":"MX","id":4007210,"coord":{"lat":27.366671,"lon":-109.883331},"name":"El Tobarito"},{"country":"MX","id":4007503,"coord":{"lat":31.9,"lon":-116.683327},"name":"El Sauzal"},{"country":"MX","id":4007812,"coord":{"lat":24.25556,"lon":-107.182777},"name":"El Rosario"},{"country":"MX","id":4008224,"coord":{"lat":20.533331,"lon":-103.283333},"name":"El Quince"},{"country":"MX","id":4009788,"coord":{"lat":26.41889,"lon":-108.619438},"name":"El Fuerte"},{"country":"MX","id":4010155,"coord":{"lat":25.700001,"lon":-103.26667},"name":"El Coyote"},{"country":"MX","id":4010260,"coord":{"lat":20.566669,"lon":-100.25},"name":"El Colorado"},{"country":"MX","id":4010589,"coord":{"lat":24.02611,"lon":-106.881393},"name":"El Carrizo"},{"country":"MX","id":4011469,"coord":{"lat":32.564442,"lon":-115.353333},"name":"Puebla"},{"country":"MX","id":4011574,"coord":{"lat":25.262501,"lon":-111.775284},"name":"Villa Insurgentes"},{"country":"MX","id":4011587,"coord":{"lat":32.510281,"lon":-114.923332},"name":"Hermosillo"},{"country":"MX","id":4011631,"coord":{"lat":29.683331,"lon":-108.26667},"name":"Ejido El Largo"},{"country":"MX","id":4012080,"coord":{"lat":20.41667,"lon":-103.400002},"name":"San Miguel Cuyutlan"},{"country":"MX","id":4012085,"coord":{"lat":18.466669,"lon":-100.566673},"name":"Cutzamala de Pinzon"},{"country":"MX","id":4012196,"coord":{"lat":20.33333,"lon":-102.783333},"name":"Cuitzeo"},{"country":"MX","id":4012202,"coord":{"lat":19.616671,"lon":-100.599998},"name":"Cuitareo"},{"country":"MX","id":4012408,"coord":{"lat":19.33333,"lon":-103.599998},"name":"Cuauhtemoc"},{"country":"MX","id":4012559,"coord":{"lat":20.383169,"lon":-103.861313},"name":"El Crucero de Santa Maria"},{"country":"MX","id":4012606,"coord":{"lat":20.633329,"lon":-103.199997},"name":"Coyula"},{"country":"MX","id":4012608,"coord":{"lat":17.033331,"lon":-100.066673},"name":"Coyuca de Benitez"},{"country":"MX","id":4012917,"coord":{"lat":19.883329,"lon":-101.216667},"name":"Copandaro de Galeana"},{"country":"MX","id":4012966,"coord":{"lat":24.223061,"lon":-107.186943},"name":"Constancia"},{"country":"MX","id":4013024,"coord":{"lat":25.783331,"lon":-103.116669},"name":"Concordia"},{"country":"MX","id":4013039,"coord":{"lat":24.633329,"lon":-101.416672},"name":"Concepcion del Oro"},{"country":"MX","id":4013141,"coord":{"lat":19.200001,"lon":-100.166672},"name":"Colorines"},{"country":"MX","id":4013292,"coord":{"lat":30.75,"lon":-116},"name":"Colonia Vicente Guerrero"},{"country":"MX","id":4013377,"coord":{"lat":28.383329,"lon":-105.616669},"name":"Colonia Lazaro Cardenas"},{"country":"MX","id":4013522,"coord":{"lat":20.116671,"lon":-102.833328},"name":"Cojumatlan de Regules"},{"country":"MX","id":4013567,"coord":{"lat":19.433331,"lon":-103.550003},"name":"Cofradia"},{"country":"MX","id":4013679,"coord":{"lat":18.73333,"lon":-103.683327},"name":"Coahuayana"},{"country":"MX","id":4013705,"coord":{"lat":20.73333,"lon":-101.933327},"name":"Ciudad Manuel Doblado"},{"country":"MX","id":4013892,"coord":{"lat":25.950001,"lon":-100.183327},"name":"Cienega de Flores"},{"country":"MX","id":4014178,"coord":{"lat":20.200001,"lon":-103.816673},"name":"Chiquilistlan"},{"country":"MX","id":4014508,"coord":{"lat":19.66667,"lon":-102.23333},"name":"Charapan"},{"country":"MX","id":4014795,"coord":{"lat":22.433331,"lon":-100.283333},"name":"Cerritos"},{"country":"MX","id":4015471,"coord":{"lat":19.010559,"lon":-101.126389},"name":"Caracuaro"},{"country":"MX","id":4015520,"coord":{"lat":19.700001,"lon":-101.800003},"name":"Capula"},{"country":"MX","id":4015633,"coord":{"lat":23.6,"lon":-102.716667},"name":"Canitas de Felipe Pescador"},{"country":"MX","id":4015683,"coord":{"lat":24.51667,"lon":-104.783333},"name":"Canatlan"},{"country":"MX","id":4015842,"coord":{"lat":27.450001,"lon":-110.099998},"name":"Campo Sesenta"},{"country":"MX","id":4016272,"coord":{"lat":20.433331,"lon":-103.316673},"name":"Cajititlan"},{"country":"MX","id":4016589,"coord":{"lat":19.066669,"lon":-102.166672},"name":"Buenos Aires"},{"country":"MX","id":4016599,"coord":{"lat":19.200001,"lon":-102.599998},"name":"Buenavista Tomatlan"},{"country":"MX","id":4016734,"coord":{"lat":20.75,"lon":-105.333328},"name":"Bucerias"},{"country":"MX","id":4016756,"coord":{"lat":20.26667,"lon":-102.566673},"name":"Brisenas"},{"country":"MX","id":4017154,"coord":{"lat":29.75,"lon":-107.933327},"name":"Benito Juarez"},{"country":"MX","id":4017164,"coord":{"lat":19.23333,"lon":-100.466667},"name":"Benito Juarez"},{"country":"MX","id":4017546,"coord":{"lat":23.183331,"lon":-102.48333},"name":"Gonzales Ortega"},{"country":"MX","id":4017739,"coord":{"lat":25.866671,"lon":-109.116669},"name":"Bagojo"},{"country":"MX","id":4018027,"coord":{"lat":20.4,"lon":-103.133331},"name":"Atequiza"},{"country":"MX","id":4018254,"coord":{"lat":19.200001,"lon":-101.716667},"name":"Ario de Rosales"},{"country":"MX","id":4018255,"coord":{"lat":20.033331,"lon":-102.349998},"name":"Ario de Rayon"},{"country":"MX","id":4018435,"coord":{"lat":20.799999,"lon":-104.01667},"name":"Antonio Escobedo"},{"country":"MX","id":4018499,"coord":{"lat":25.366671,"lon":-108.183327},"name":"Angostura"},{"country":"MX","id":4018518,"coord":{"lat":20.16667,"lon":-101.683327},"name":"Angamacutiro de la Union"},{"country":"MX","id":4018519,"coord":{"lat":19.549999,"lon":-102.183327},"name":"Angahuan"},{"country":"MX","id":4018592,"coord":{"lat":20.799999,"lon":-104.400002},"name":"Amatlan de Canas"},{"country":"MX","id":4018601,"coord":{"lat":20.700001,"lon":-100.26667},"name":"Amascala"},{"country":"MX","id":4018625,"coord":{"lat":19.316669,"lon":-100.01667},"name":"Amanalco de Becerra"},{"country":"MX","id":4018737,"coord":{"lat":18.950001,"lon":-100.116669},"name":"Almoloya"},{"country":"MX","id":4019082,"coord":{"lat":20.70137,"lon":-103.974609},"name":"Ahualulco de Mercado"},{"country":"MX","id":4019757,"coord":{"lat":19.48333,"lon":-101.333328},"name":"Acuitzio del Canje"},{"country":"MX","id":4020386,"coord":{"lat":24.82056,"lon":-104.027496},"name":"Juarez"},{"country":"MX","id":4020480,"coord":{"lat":22.343889,"lon":-105.392502},"name":"La Presa"},{"country":"MX","id":4021223,"coord":{"lat":22.15,"lon":-102.416672},"name":"San Jose de Gracia"},{"country":"MX","id":4022970,"coord":{"lat":21.210831,"lon":-100.211937},"name":"Victoria"},{"country":"MX","id":4022983,"coord":{"lat":21.14167,"lon":-100.3125},"name":"Doctor Mora"},{"country":"MX","id":4023835,"coord":{"lat":20.206671,"lon":-100.960281},"name":"Maravatio del Encinal"},{"country":"MX","id":4024597,"coord":{"lat":20.983061,"lon":-101.484169},"name":"Nuevo Mexico"},{"country":"MX","id":4024861,"coord":{"lat":20.413891,"lon":-101.993607},"name":"La Ermita"},{"country":"MX","id":4025093,"coord":{"lat":19.700001,"lon":-100.479172},"name":"Irimbo"},{"country":"MX","id":6618821,"coord":{"lat":19.1371,"lon":-102.439293},"name":"San Juan De Los Platanos"},{"country":"MX","id":6620235,"coord":{"lat":18.844061,"lon":-97.76442},"name":"francisco villa"},{"country":"MX","id":6690612,"coord":{"lat":17.92285,"lon":-92.910896},"name":"Huapinol"},{"country":"MX","id":7280712,"coord":{"lat":19.378929,"lon":-99.265869},"name":"Col. Bosques de las Lomas"},{"country":"MX","id":8199578,"coord":{"lat":20.580721,"lon":-100.492973},"name":"El Castillo"},{"country":"MY","id":1732884,"coord":{"lat":2.249,"lon":103.047997},"name":"Chaah"},{"country":"MY","id":1734802,"coord":{"lat":2.8733,"lon":101.869698},"name":"Beranang"},{"country":"MY","id":1734879,"coord":{"lat":2.5536,"lon":102.764},"name":"Buloh Kasap"},{"country":"MY","id":1735133,"coord":{"lat":3.35,"lon":101.816673},"name":"Kampung Bukit Tinggi"},{"country":"MY","id":1735262,"coord":{"lat":4.475,"lon":101.370399},"name":"Tanah Rata"},{"country":"MY","id":1735535,"coord":{"lat":5.95701,"lon":102.248169},"name":"Ketereh"},{"country":"MY","id":1735543,"coord":{"lat":5.87133,"lon":102.231773},"name":"Pulai Chondong"},{"country":"MY","id":1736292,"coord":{"lat":6.4,"lon":100.133331},"name":"Kuala Perlis"},{"country":"MY","id":1736356,"coord":{"lat":6.19776,"lon":102.170982},"name":"Tumpat"},{"country":"MY","id":1736405,"coord":{"lat":5.7336,"lon":102.4897},"name":"Jertih"},{"country":"MY","id":1736660,"coord":{"lat":6.351,"lon":116.430496},"name":"Kota Belud"},{"country":"MY","id":1742667,"coord":{"lat":2.65,"lon":101.699997},"name":"Sungai Pelek New Village"},{"country":"MY","id":1749659,"coord":{"lat":2.455,"lon":102.232903},"name":"Pulau Sebang"},{"country":"MY","id":1759513,"coord":{"lat":2.3594,"lon":102.035301},"name":"Kuala Sungai Baru"},{"country":"MY","id":1761293,"coord":{"lat":1.6698,"lon":103.5327},"name":"Kelapa Sawit"},{"country":"MY","id":1772148,"coord":{"lat":5.31201,"lon":100.442291},"name":"Juru"},{"country":"MY","id":1779926,"coord":{"lat":2.2684,"lon":102.374603},"name":"Bemban"},{"country":"MY","id":7068135,"coord":{"lat":6.03021,"lon":102.141258},"name":"Kampung Lemal"},{"country":"NA","id":3352263,"coord":{"lat":-28.450001,"lon":18.73333},"name":"Warmbad"},{"country":"NA","id":3352461,"coord":{"lat":-22,"lon":15.6},"name":"Usakos"},{"country":"NA","id":3353871,"coord":{"lat":-22.35,"lon":16.133329},"name":"Otjimbingwe"},{"country":"NA","id":3353934,"coord":{"lat":-19.65,"lon":17.33333},"name":"Otavi"},{"country":"NA","id":3354077,"coord":{"lat":-18.06068,"lon":13.83998},"name":"Opuwo"},{"country":"NA","id":3354147,"coord":{"lat":-17.783331,"lon":15.76667},"name":"Ongwediva"},{"country":"NA","id":3354178,"coord":{"lat":-17.883329,"lon":15.06667},"name":"Ongandjera"},{"country":"NA","id":3354540,"coord":{"lat":-21.433331,"lon":15.93333},"name":"Omaruru"},{"country":"NA","id":3354876,"coord":{"lat":-20.58333,"lon":17.433331},"name":"Okakarara"},{"country":"NA","id":3355624,"coord":{"lat":-24.83333,"lon":16.98333},"name":"Maltahohe"},{"country":"NA","id":3356213,"coord":{"lat":-20.366671,"lon":14.96667},"name":"Khorixas"},{"country":"NA","id":3356332,"coord":{"lat":-21.933331,"lon":15.83333},"name":"Karibib"},{"country":"NA","id":3356343,"coord":{"lat":-28.01667,"lon":18.75},"name":"Karasburg"},{"country":"NA","id":3356832,"coord":{"lat":-22.116671,"lon":14.28333},"name":"Hentiesbaai"},{"country":"NA","id":3357804,"coord":{"lat":-17.466669,"lon":16.33333},"name":"Eenhana"},{"country":"NA","id":3358416,"coord":{"lat":-26.48333,"lon":17.15},"name":"Bethanie"},{"country":"NA","id":3358666,"coord":{"lat":-24.133329,"lon":19.116671},"name":"Aranos"},{"country":"NA","id":3358670,"coord":{"lat":-22.41667,"lon":14.96667},"name":"Arandis"},{"country":"NC","id":2137644,"coord":{"lat":-22.15,"lon":166.883331},"name":"Yate-Barrage"},{"country":"NC","id":2137690,"coord":{"lat":-20.91687,"lon":167.264603},"name":"We"},{"country":"NC","id":2137748,"coord":{"lat":-20.966669,"lon":164.699997},"name":"Voh"},{"country":"NC","id":2137773,"coord":{"lat":-22.66667,"lon":167.483337},"name":"Vao"},{"country":"NC","id":2138285,"coord":{"lat":-21.549999,"lon":167.883331},"name":"Tadine"},{"country":"NC","id":2138555,"coord":{"lat":-20.23333,"lon":164.016663},"name":"Poum"},{"country":"NC","id":2138607,"coord":{"lat":-20.4,"lon":164.566666},"name":"Pouebo"},{"country":"NC","id":2138717,"coord":{"lat":-20.933331,"lon":165.333328},"name":"Poindimie"},{"country":"NC","id":2138981,"coord":{"lat":-22.133329,"lon":166.366669},"name":"Paita"},{"country":"NC","id":2139259,"coord":{"lat":-20.35,"lon":164.433334},"name":"Ouegoa"},{"country":"NC","id":2140466,"coord":{"lat":-21.710791,"lon":165.827637},"name":"La Foa"},{"country":"NC","id":2141050,"coord":{"lat":-20.683331,"lon":164.933334},"name":"Hienghene"},{"country":"NC","id":2141305,"coord":{"lat":-20.65,"lon":166.533325},"name":"Fayaoue"},{"country":"NC","id":2141658,"coord":{"lat":-21.533331,"lon":165.949997},"name":"Canala"},{"country":"NC","id":2141714,"coord":{"lat":-21.566669,"lon":165.483337},"name":"Bourail"},{"country":"NE","id":2438974,"coord":{"lat":15.8969,"lon":5.7985},"name":"Tchin Tabaraden"},{"country":"NE","id":2439812,"coord":{"lat":13.1007,"lon":2.3689},"name":"Say"},{"country":"NE","id":2440371,"coord":{"lat":14.3188,"lon":2.0866},"name":"Ouallam"},{"country":"NE","id":2441447,"coord":{"lat":13.21139,"lon":12.0241},"name":"Maine-Soroa"},{"country":"NE","id":2441526,"coord":{"lat":13.30867,"lon":7.15602},"name":"Madarounfa"},{"country":"NE","id":2442248,"coord":{"lat":13.3043,"lon":2.339},"name":"Kollo"},{"country":"NE","id":2442478,"coord":{"lat":14.7551,"lon":5.7749},"name":"Keita"},{"country":"NE","id":2444219,"coord":{"lat":13.9835,"lon":10.27035},"name":"Goure"},{"country":"NE","id":2444995,"coord":{"lat":14.3521,"lon":3.3168},"name":"Filingue"},{"country":"NE","id":2446466,"coord":{"lat":14.42293,"lon":6.04278},"name":"Bouza"},{"country":"NE","id":2448024,"coord":{"lat":13.50601,"lon":7.77863},"name":"Aguie"},{"country":"NE","id":2448245,"coord":{"lat":15.4509,"lon":6.2793},"name":"Abalak"},{"country":"NG","id":2317818,"coord":{"lat":13.05151,"lon":8.48765},"name":"Zango"},{"country":"NG","id":2317887,"coord":{"lat":10.61432,"lon":10.17647},"name":"Zalanga"},{"country":"NG","id":2317899,"coord":{"lat":7.51667,"lon":9.61667},"name":"Zaki Biam"},{"country":"NG","id":2317936,"coord":{"lat":11.4496,"lon":10.3672},"name":"Zadawa"},{"country":"NG","id":2317982,"coord":{"lat":9.69889,"lon":10.27444},"name":"Yuli"},{"country":"NG","id":2318166,"coord":{"lat":8.83333,"lon":9.63333},"name":"Yelwa"},{"country":"NG","id":2318238,"coord":{"lat":9.76667,"lon":3.4},"name":"Yashikera"},{"country":"NG","id":2318374,"coord":{"lat":7.36667,"lon":9.05},"name":"Yandev"},{"country":"NG","id":2318383,"coord":{"lat":11.5071,"lon":10.7459},"name":"Yanda Bayo"},{"country":"NG","id":2318399,"coord":{"lat":10.11161,"lon":9.82604},"name":"Yamrat"},{"country":"NG","id":2318480,"coord":{"lat":11.38385,"lon":12.7236},"name":"Yajiwa"},{"country":"NG","id":2318534,"coord":{"lat":10.38522,"lon":11.69678},"name":"Wuyo"},{"country":"NG","id":2318858,"coord":{"lat":13.28777,"lon":5.42326},"name":"Wurno"},{"country":"NG","id":2319078,"coord":{"lat":9.90222,"lon":4.41917},"name":"Wawa"},{"country":"NG","id":2319123,"coord":{"lat":11.3764,"lon":5.79536},"name":"Wasagu"},{"country":"NG","id":2319345,"coord":{"lat":12.68781,"lon":7.19579},"name":"Wagini"},{"country":"NG","id":2319407,"coord":{"lat":9.73333,"lon":8.78333},"name":"Vom"},{"country":"NG","id":2319480,"coord":{"lat":5.03333,"lon":7.92657},"name":"Uyo"},{"country":"NG","id":2319642,"coord":{"lat":5.90016,"lon":6.84312},"name":"Uruobo-Okija"},{"country":"NG","id":2320417,"coord":{"lat":6.26374,"lon":6.31161},"name":"Umunede"},{"country":"NG","id":2320746,"coord":{"lat":10.83122,"lon":5.82494},"name":"Ukata"},{"country":"NG","id":2320966,"coord":{"lat":6.3144,"lon":7.4258},"name":"Udi"},{"country":"NG","id":2321057,"coord":{"lat":10.45306,"lon":13.22139},"name":"Uba"},{"country":"NG","id":2321926,"coord":{"lat":8.11667,"lon":12.05},"name":"Toungo"},{"country":"NG","id":2322021,"coord":{"lat":11.22713,"lon":13.48581},"name":"Tokombere"},{"country":"NG","id":2322592,"coord":{"lat":11.58333,"lon":9.11667},"name":"Takai"},{"country":"NG","id":2322722,"coord":{"lat":9.46667,"lon":3.18333},"name":"Suya"},{"country":"NG","id":2323011,"coord":{"lat":6.53858,"lon":5.1609},"name":"Siluko"},{"country":"NG","id":2323146,"coord":{"lat":13.07534,"lon":6.51046},"name":"Shinkafe"},{"country":"NG","id":2323344,"coord":{"lat":10.21617,"lon":12.06198},"name":"Shani"},{"country":"NG","id":2323349,"coord":{"lat":11.21062,"lon":4.57878},"name":"Shanga"},{"country":"NG","id":2323418,"coord":{"lat":10.50673,"lon":12.33315},"name":"Shaffa"},{"country":"NG","id":2323579,"coord":{"lat":11.72655,"lon":6.78374},"name":"Sauri"},{"country":"NG","id":2323858,"coord":{"lat":11.34873,"lon":9.63989},"name":"Samamiya"},{"country":"NG","id":2324024,"coord":{"lat":11.3595,"lon":10.6732},"name":"Sade"},{"country":"NG","id":2324281,"coord":{"lat":12.44788,"lon":7.30918},"name":"Runka"},{"country":"NG","id":2324325,"coord":{"lat":12.8626,"lon":7.23469},"name":"Ruma"},{"country":"NG","id":2324439,"coord":{"lat":7.91667,"lon":9.61667},"name":"Riti"},{"country":"NG","id":2324460,"coord":{"lat":12.15482,"lon":9.16192},"name":"Ringim"},{"country":"NG","id":2324623,"coord":{"lat":10.41403,"lon":8.68279},"name":"Rahama"},{"country":"NG","id":2324706,"coord":{"lat":13.12133,"lon":5.50741},"name":"Rabah"},{"country":"NG","id":2324962,"coord":{"lat":5.22724,"lon":6.19238},"name":"Patani"},{"country":"NG","id":2325032,"coord":{"lat":9.41667,"lon":9.21667},"name":"Panyam"},{"country":"NG","id":2325307,"coord":{"lat":6.94864,"lon":3.50511},"name":"Owode"},{"country":"NG","id":2325713,"coord":{"lat":5.61667,"lon":7.03333},"name":"Orodo"},