[{"country":"DE","id":6553549,"coord":{"lat":49.75,"lon":7.9},"name":"Tiefenthal"},{"country":"DE","id":2822320,"coord":{"lat":49.75,"lon":7.9},"name":"Tiefenthal"},{"country":"DE","id":6554922,"coord":{"lat":49.538601,"lon":8.10389},"name":"Tiefenthal"},{"country":"DE","id":2822323,"coord":{"lat":49.538609,"lon":8.10389},"name":"Tiefenthal"},{"country":"DE","id":6553973,"coord":{"lat":49.950001,"lon":7.55},"name":"Tiefenbach"},{"country":"DE","id":2822432,"coord":{"lat":49.950001,"lon":7.55},"name":"Tiefenbach"},{"country":"DE","id":6551289,"coord":{"lat":49.4333,"lon":12.5833},"name":"Tiefenbach"},{"country":"DE","id":2822434,"coord":{"lat":49.433331,"lon":12.58333},"name":"Tiefenbach"},{"country":"DE","id":2822436,"coord":{"lat":49.183331,"lon":12.33333},"name":"Tiefenbach"},{"country":"DE","id":6556536,"coord":{"lat":48.616699,"lon":13.4},"name":"Tiefenbach"},{"country":"DE","id":2822442,"coord":{"lat":48.616669,"lon":13.4},"name":"Tiefenbach"},{"country":"DE","id":6556514,"coord":{"lat":48.5,"lon":12.1},"name":"Tiefenbach"},{"country":"DE","id":2822443,"coord":{"lat":48.5,"lon":12.1},"name":"Tiefenbach"},{"country":"DE","id":6556030,"coord":{"lat":48.083302,"lon":9.65},"name":"Tiefenbach"},{"country":"DE","id":2822447,"coord":{"lat":48.083328,"lon":9.65},"name":"Tiefenbach"},{"country":"DE","id":2822522,"coord":{"lat":50.01667,"lon":11.38333},"name":"Thurnau"},{"country":"DE","id":2822531,"coord":{"lat":48.76667,"lon":13.31667},"name":"Thurmannsbang"},{"country":"DE","id":6547908,"coord":{"lat":53.833302,"lon":12.5667},"name":"Th\u00fcrkow"},{"country":"DE","id":2822536,"coord":{"lat":53.833328,"lon":12.56667},"name":"Thurkow"},{"country":"DE","id":6549986,"coord":{"lat":51.266701,"lon":10.8},"name":"Th\u00fcringenhausen"},{"country":"DE","id":2822541,"coord":{"lat":51.26667,"lon":10.8},"name":"Thuringenhausen"},{"country":"DE","id":2822571,"coord":{"lat":50.200001,"lon":10.31667},"name":"Thundorf in Unterfranken"},{"country":"DE","id":2822595,"coord":{"lat":50.683331,"lon":12.96667},"name":"Thum"},{"country":"DE","id":6547802,"coord":{"lat":54.099998,"lon":12.3},"name":"Thulendorf"},{"country":"DE","id":2822599,"coord":{"lat":54.099998,"lon":12.3},"name":"Thulendorf"},{"country":"DE","id":6553972,"coord":{"lat":50.133301,"lon":7.53333},"name":"Th\u00f6rlingen"},{"country":"DE","id":2822637,"coord":{"lat":50.133331,"lon":7.53333},"name":"Thorlingen"},{"country":"DE","id":6550558,"coord":{"lat":50.833302,"lon":12.3256},"name":"Thonhausen"},{"country":"DE","id":2822660,"coord":{"lat":50.833328,"lon":12.31667},"name":"Thonhausen"},{"country":"DE","id":6547538,"coord":{"lat":49.483299,"lon":7.03333},"name":"Tholey"},{"country":"DE","id":2822713,"coord":{"lat":49.483742,"lon":7.03691},"name":"Tholey"},{"country":"DE","id":6548437,"coord":{"lat":54.266701,"lon":13.7167},"name":"Thiessow"},{"country":"DE","id":2822725,"coord":{"lat":54.277248,"lon":13.71574},"name":"Thiessow"},{"country":"DE","id":2822737,"coord":{"lat":50.083328,"lon":12.13333},"name":"Thiersheim"},{"country":"DE","id":2914428,"coord":{"lat":51.366669,"lon":14.06667},"name":"Gr\u00fcnberg"},{"country":"DE","id":6548663,"coord":{"lat":51.291599,"lon":13.7432},"name":"Thiendorf"},{"country":"DE","id":2822786,"coord":{"lat":51.293751,"lon":13.74124},"name":"Thiendorf"},{"country":"DE","id":6548436,"coord":{"lat":54.450001,"lon":13.3833},"name":"Thesenvitz"},{"country":"DE","id":2822837,"coord":{"lat":54.450001,"lon":13.38333},"name":"Thesenvitz"},{"country":"DE","id":7602419,"coord":{"lat":50.616669,"lon":13.05},"name":"Thermalbad Wiesenbad"},{"country":"DE","id":2822840,"coord":{"lat":50.616669,"lon":13.05},"name":"Thermalbad Wiesenbad"},{"country":"DE","id":2822881,"coord":{"lat":51.083328,"lon":12.1},"name":"Theissen"},{"country":"DE","id":6556667,"coord":{"lat":49.700001,"lon":12.2333},"name":"Theisseil"},{"country":"DE","id":2822883,"coord":{"lat":49.700001,"lon":12.23333},"name":"Theisseil"},{"country":"DE","id":6556710,"coord":{"lat":49.379688,"lon":12.46965},"name":"Thanstein"},{"country":"DE","id":2822941,"coord":{"lat":49.383331,"lon":12.46667},"name":"Thanstein"},{"country":"DE","id":6549821,"coord":{"lat":51.349998,"lon":10.05},"name":"Thalwenden"},{"country":"DE","id":2823034,"coord":{"lat":51.349998,"lon":10.05},"name":"Thalwenden"},{"country":"DE","id":2823044,"coord":{"lat":49.088058,"lon":11.22306},"name":"Thalmassing"},{"country":"DE","id":2823245,"coord":{"lat":50.383331,"lon":11.38333},"name":"Teuschnitz"},{"country":"DE","id":6556534,"coord":{"lat":48.4333,"lon":13.2667},"name":"Tettenweis"},{"country":"DE","id":2823372,"coord":{"lat":48.44281,"lon":13.26955},"name":"Tettenweis"},{"country":"DE","id":6547638,"coord":{"lat":51.4333,"lon":13.7333},"name":"Tettau"},{"country":"DE","id":2823393,"coord":{"lat":51.433331,"lon":13.73333},"name":"Tettau"},{"country":"DE","id":2823395,"coord":{"lat":50.466671,"lon":11.25},"name":"Tettau"},{"country":"DE","id":6548224,"coord":{"lat":53.783298,"lon":11.2667},"name":"Testorf-Steinfort"},{"country":"DE","id":2823407,"coord":{"lat":53.783329,"lon":11.26667},"name":"Testorf-Steinfort"},{"country":"DE","id":2823418,"coord":{"lat":54.027641,"lon":12.46519},"name":"Tessin"},{"country":"DE","id":7602484,"coord":{"lat":53.562851,"lon":11.02461},"name":"Wittend\u00f6rp"},{"country":"DE","id":2823420,"coord":{"lat":53.562851,"lon":11.02461},"name":"Wittendoerp"},{"country":"DE","id":2823497,"coord":{"lat":48.190411,"lon":8.35176},"name":"Tennenbronn"},{"country":"DE","id":2823515,"coord":{"lat":47.821281,"lon":8.66117},"name":"Tengen"},{"country":"DE","id":2823611,"coord":{"lat":47.849998,"lon":12.81667},"name":"Teisendorf"},{"country":"DE","id":6550523,"coord":{"lat":50.75,"lon":12.0833},"name":"Teichwitz"},{"country":"DE","id":2823626,"coord":{"lat":50.75,"lon":12.08333},"name":"Teichwitz"},{"country":"DE","id":2823679,"coord":{"lat":47.709671,"lon":11.75271},"name":"Tegernsee"},{"country":"DE","id":6548389,"coord":{"lat":53.583302,"lon":11.9833},"name":"Techentin"},{"country":"DE","id":2823737,"coord":{"lat":53.587311,"lon":11.9878},"name":"Techentin"},{"country":"DE","id":6550413,"coord":{"lat":50.9333,"lon":11.9167},"name":"Tautenhain"},{"country":"DE","id":2823764,"coord":{"lat":50.933331,"lon":11.91667},"name":"Tautenhain"},{"country":"DE","id":6550412,"coord":{"lat":50.8167,"lon":11.9},"name":"Tautendorf"},{"country":"DE","id":2823768,"coord":{"lat":50.816669,"lon":11.9},"name":"Tautendorf"},{"country":"DE","id":6548662,"coord":{"lat":51.266701,"lon":13.8},"name":"Tauscha"},{"country":"DE","id":2823788,"coord":{"lat":51.26667,"lon":13.8},"name":"Tauscha"},{"country":"DE","id":2823810,"coord":{"lat":48.349998,"lon":12.13333},"name":"Taufkirchen"},{"country":"DE","id":6556304,"coord":{"lat":48.150002,"lon":12.45},"name":"Taufkirchen"},{"country":"DE","id":2823811,"coord":{"lat":48.150002,"lon":12.45},"name":"Taufkirchen"},{"country":"DE","id":6551105,"coord":{"lat":52.1292,"lon":14.1306},"name":"Tauche"},{"country":"DE","id":2823835,"coord":{"lat":52.150002,"lon":14.16667},"name":"Tauche"},{"country":"DE","id":6551615,"coord":{"lat":54.333302,"lon":8.71667},"name":"Tating"},{"country":"DE","id":2823936,"coord":{"lat":54.333328,"lon":8.71667},"name":"Tating"},{"country":"DE","id":6549820,"coord":{"lat":51.466702,"lon":10.3167},"name":"Tastungen"},{"country":"DE","id":2823951,"coord":{"lat":51.469189,"lon":10.30964},"name":"Tastungen"},{"country":"DE","id":6547907,"coord":{"lat":53.783298,"lon":12.0167},"name":"Tarnow"},{"country":"DE","id":2823981,"coord":{"lat":53.783329,"lon":12.01667},"name":"Tarnow"},{"country":"DE","id":6547750,"coord":{"lat":53.266701,"lon":14.35},"name":"Tantow"},{"country":"DE","id":2824020,"coord":{"lat":53.271629,"lon":14.35098},"name":"Tantow"},{"country":"DE","id":6555600,"coord":{"lat":48.978001,"lon":10.3581},"name":"Tannhausen"},{"country":"DE","id":2824055,"coord":{"lat":48.966671,"lon":10.35},"name":"Tannhausen"},{"country":"DE","id":2824148,"coord":{"lat":50.433331,"lon":12.46667},"name":"Tannenbergsthal"},{"country":"DE","id":2824230,"coord":{"lat":48.314629,"lon":12.89301},"name":"Tann"},{"country":"DE","id":6552289,"coord":{"lat":53.748798,"lon":10.0645},"name":"Tangstedt"},{"country":"DE","id":2824245,"coord":{"lat":53.73333,"lon":10.08333},"name":"Tangstedt"},{"country":"DE","id":2824254,"coord":{"lat":52.544628,"lon":11.97647},"name":"Tangermunde"},{"country":"DE","id":6551510,"coord":{"lat":53.5667,"lon":10.5667},"name":"Talkau"},{"country":"DE","id":2824303,"coord":{"lat":53.566669,"lon":10.56667},"name":"Talkau"},{"country":"DE","id":6555533,"coord":{"lat":49.083302,"lon":9.19306},"name":"Talheim"},{"country":"DE","id":2824316,"coord":{"lat":49.083328,"lon":9.19306},"name":"Talheim"},{"country":"DE","id":6555852,"coord":{"lat":48.016701,"lon":8.66667},"name":"Talheim"},{"country":"DE","id":2824319,"coord":{"lat":48.01667,"lon":8.66667},"name":"Talheim"},{"country":"DE","id":2824419,"coord":{"lat":47.966671,"lon":12.73333},"name":"Taching am See"},{"country":"DE","id":6554796,"coord":{"lat":49.549999,"lon":6.58333},"name":"Taben-Rodt"},{"country":"DE","id":2824431,"coord":{"lat":49.549999,"lon":6.58333},"name":"Taben-Rodt"},{"country":"DE","id":6552002,"coord":{"lat":54.5667,"lon":9.68333},"name":"Taarstedt"},{"country":"DE","id":2824441,"coord":{"lat":54.566669,"lon":9.68333},"name":"Taarstedt"},{"country":"DE","id":6548543,"coord":{"lat":50.533298,"lon":12.0833},"name":"Syrau"},{"country":"DE","id":2824448,"coord":{"lat":50.533329,"lon":12.08333},"name":"Syrau"},{"country":"DE","id":6552921,"coord":{"lat":52.950001,"lon":7.51667},"name":"Surwold"},{"country":"DE","id":2824572,"coord":{"lat":52.978001,"lon":7.51534},"name":"Surwold"},{"country":"DE","id":6549943,"coord":{"lat":51.166698,"lon":10.7167},"name":"Sundhausen"},{"country":"DE","id":2824642,"coord":{"lat":51.166672,"lon":10.71667},"name":"Sundhausen"},{"country":"DE","id":6554876,"coord":{"lat":49.843102,"lon":8.09167},"name":"Sulzheim"},{"country":"DE","id":2824730,"coord":{"lat":49.84306,"lon":8.09167},"name":"Sulzheim"},{"country":"DE","id":2824738,"coord":{"lat":49.70694,"lon":10.13248},"name":"Sulzfeld am Main"},{"country":"DE","id":6550044,"coord":{"lat":50.522701,"lon":10.3624},"name":"S\u00fclzfeld"},{"country":"DE","id":2824739,"coord":{"lat":50.533329,"lon":10.36667},"name":"Sulzfeld"},{"country":"DE","id":6556989,"coord":{"lat":50.259331,"lon":10.40689},"name":"Sulzfeld"},{"country":"DE","id":2824741,"coord":{"lat":50.25972,"lon":10.40525},"name":"Sulzfeld"},{"country":"DE","id":6555614,"coord":{"lat":49.104401,"lon":8.8597},"name":"Sulzfeld"},{"country":"DE","id":2824742,"coord":{"lat":49.104721,"lon":8.85583},"name":"Sulzfeld"},{"country":"DE","id":2824770,"coord":{"lat":49.650002,"lon":9.9},"name":"Sulzdorf"},{"country":"DE","id":2824776,"coord":{"lat":47.84116,"lon":7.70777},"name":"Sulzburg"},{"country":"DE","id":2824787,"coord":{"lat":47.666672,"lon":10.35},"name":"Sulzberg"},{"country":"DE","id":6554104,"coord":{"lat":50.299999,"lon":7.75},"name":"Sulzbach"},{"country":"DE","id":2824835,"coord":{"lat":50.299999,"lon":7.75},"name":"Sulzbach"},{"country":"DE","id":6553647,"coord":{"lat":49.833302,"lon":7.33333},"name":"Sulzbach"},{"country":"DE","id":2824838,"coord":{"lat":49.833328,"lon":7.33333},"name":"Sulzbach"},{"country":"DE","id":2824855,"coord":{"lat":48.362411,"lon":8.63309},"name":"Sulz am Neckar"},{"country":"DE","id":6548388,"coord":{"lat":53.549999,"lon":11.5667},"name":"Sukow"},{"country":"DE","id":2824926,"coord":{"lat":53.549999,"lon":11.56667},"name":"Sukow"},{"country":"DE","id":6551612,"coord":{"lat":54.383301,"lon":9.23333},"name":"S\u00fcderh\u00f6ft"},{"country":"DE","id":2825130,"coord":{"lat":54.383331,"lon":9.23333},"name":"Suderhoft"},{"country":"DE","id":6551611,"coord":{"lat":54.716702,"lon":8.43333},"name":"S\u00fcderende"},{"country":"DE","id":2825158,"coord":{"lat":54.726109,"lon":8.43853},"name":"Suderende"},{"country":"DE","id":6551380,"coord":{"lat":54.200001,"lon":8.91667},"name":"S\u00fcderdeich"},{"country":"DE","id":2825173,"coord":{"lat":54.200001,"lon":8.91667},"name":"Suderdeich"},{"country":"DE","id":6551999,"coord":{"lat":54.635551,"lon":9.77475},"name":"S\u00fcderbrarup"},{"country":"DE","id":2825186,"coord":{"lat":54.633331,"lon":9.78333},"name":"Suderbrarup"},{"country":"DE","id":6548387,"coord":{"lat":53.3167,"lon":11.9667},"name":"Suckow"},{"country":"DE","id":2825248,"coord":{"lat":53.30965,"lon":11.97081},"name":"Suckow"},{"country":"DE","id":6548593,"coord":{"lat":50.533298,"lon":12.5333},"name":"St\u00fctzengr\u00fcn"},{"country":"DE","id":2825275,"coord":{"lat":50.533329,"lon":12.53333},"name":"Stutzengrun"},{"country":"DE","id":6553449,"coord":{"lat":50.650002,"lon":7.61667},"name":"St\u00fcrzelbach"},{"country":"DE","id":2825333,"coord":{"lat":50.650002,"lon":7.61667},"name":"Sturzelbach"},{"country":"DE","id":6552615,"coord":{"lat":53.400002,"lon":8.78333},"name":"Stubben"},{"country":"DE","id":2825559,"coord":{"lat":53.409019,"lon":8.78391},"name":"Stubben"},{"country":"DE","id":6554103,"coord":{"lat":50.133301,"lon":7.88333},"name":"Str\u00fcth"},{"country":"DE","id":2825602,"coord":{"lat":50.133331,"lon":7.88333},"name":"Struth"},{"country":"DE","id":6554669,"coord":{"lat":50.099998,"lon":6.95},"name":"Strotzb\u00fcsch"},{"country":"DE","id":2825683,"coord":{"lat":50.099998,"lon":6.95},"name":"Strotzbusch"},{"country":"DE","id":2825715,"coord":{"lat":50.450001,"lon":7.6},"name":"Stromberg"},{"country":"DE","id":6554607,"coord":{"lat":50.133301,"lon":6.31667},"name":"Strickscheid"},{"country":"DE","id":2825849,"coord":{"lat":50.133331,"lon":6.31667},"name":"Strickscheid"},{"country":"DE","id":2826033,"coord":{"lat":51.349998,"lon":13.23333},"name":"Strehla"},{"country":"DE","id":6547575,"coord":{"lat":51.900002,"lon":14.1167},"name":"Straupitz"},{"country":"DE","id":2826088,"coord":{"lat":51.900002,"lon":14.11667},"name":"Straupitz"},{"country":"DE","id":6556600,"coord":{"lat":48.833302,"lon":12.7167},"name":"Stra\u00dfkirchen"},{"country":"DE","id":2826120,"coord":{"lat":48.833328,"lon":12.71667},"name":"Strasskirchen"},{"country":"DE","id":6555957,"coord":{"lat":48.166698,"lon":9.1},"name":"Stra\u00dfberg"},{"country":"DE","id":2826187,"coord":{"lat":48.178051,"lon":9.09059},"name":"Strassberg"},{"country":"DE","id":6547975,"coord":{"lat":53.583302,"lon":11.3},"name":"Stralendorf"},{"country":"DE","id":2826290,"coord":{"lat":53.574982,"lon":11.30356},"name":"Stralendorf"},{"country":"DE","id":2826341,"coord":{"lat":47.73333,"lon":10.68333},"name":"Stotten am Auerberg"},{"country":"DE","id":2826359,"coord":{"lat":50.782478,"lon":7.25126},"name":"Stossdorf"},{"country":"DE","id":6552059,"coord":{"lat":54.700001,"lon":9.88333},"name":"Stolteb\u00fcll"},{"country":"DE","id":2826516,"coord":{"lat":54.700001,"lon":9.88333},"name":"Stoltebull"},{"country":"DE","id":6548322,"coord":{"lat":53.866699,"lon":13.5667},"name":"Stolpe"},{"country":"DE","id":2826538,"coord":{"lat":53.872471,"lon":13.56056},"name":"Stolpe"},{"country":"DE","id":6548386,"coord":{"lat":53.349998,"lon":11.7333},"name":"Stolpe"},{"country":"DE","id":2826540,"coord":{"lat":53.359058,"lon":11.73855},"name":"Stolpe"},{"country":"DE","id":6555598,"coord":{"lat":49,"lon":10.3},"name":"St\u00f6dtlen"},{"country":"DE","id":2826637,"coord":{"lat":49,"lon":10.3},"name":"Stodtlen"},{"country":"DE","id":6556987,"coord":{"lat":50.450001,"lon":10.2833},"name":"Stockheim"},{"country":"DE","id":2826741,"coord":{"lat":50.450001,"lon":10.28333},"name":"Stockheim"},{"country":"DE","id":6556811,"coord":{"lat":50.299999,"lon":11.2667},"name":"Stockheim"},{"country":"DE","id":2826743,"coord":{"lat":50.299999,"lon":11.26667},"name":"Stockheim"},{"country":"DE","id":6554272,"coord":{"lat":50.650002,"lon":7.98333},"name":"Stockhausen-Illfurth"},{"country":"DE","id":2826755,"coord":{"lat":50.650002,"lon":7.98333},"name":"Stockhausen-Illfurth"},{"country":"DE","id":6549819,"coord":{"lat":51.533298,"lon":10.5},"name":"St\u00f6ckey"},{"country":"DE","id":2826789,"coord":{"lat":51.533329,"lon":10.5},"name":"Stockey"},{"country":"DE","id":6554507,"coord":{"lat":49.9333,"lon":6.38333},"name":"Stockem"},{"country":"DE","id":2826859,"coord":{"lat":49.933331,"lon":6.38333},"name":"Stockem"},{"country":"DE","id":6552138,"coord":{"lat":53.950001,"lon":10.3333},"name":"Stipsdorf"},{"country":"DE","id":2826974,"coord":{"lat":53.950001,"lon":10.33333},"name":"Stipsdorf"},{"country":"DE","id":6552614,"coord":{"lat":53.666698,"lon":8.96667},"name":"Stinstedt"},{"country":"DE","id":2826985,"coord":{"lat":53.666672,"lon":8.96667},"name":"Stinstedt"},{"country":"DE","id":6555561,"coord":{"lat":49.06152,"lon":10.0924},"name":"Stimpfach"},{"country":"DE","id":2826997,"coord":{"lat":49.061352,"lon":10.09274},"name":"Stimpfach"},{"country":"DE","id":2827216,"coord":{"lat":48.124191,"lon":9.07775},"name":"Stetten am Kalten Markt"},{"country":"DE","id":6554990,"coord":{"lat":49.669399,"lon":8.09194},"name":"Stetten"},{"country":"DE","id":2827223,"coord":{"lat":49.669441,"lon":8.09194},"name":"Stetten"},{"country":"DE","id":6557260,"coord":{"lat":48.033298,"lon":10.4333},"name":"Stetten"},{"country":"DE","id":2827240,"coord":{"lat":48.033329,"lon":10.43333},"name":"Stetten"},{"country":"DE","id":6556051,"coord":{"lat":47.6833,"lon":9.3},"name":"Stetten"},{"country":"DE","id":2827246,"coord":{"lat":47.690121,"lon":9.29855},"name":"Stetten"},{"country":"DE","id":6556383,"coord":{"lat":47.859501,"lon":12.1528},"name":"Stephanskirchen"},{"country":"DE","id":2827406,"coord":{"lat":47.853889,"lon":12.1856},"name":"Stephanskirchen"},{"country":"DE","id":6552754,"coord":{"lat":53.216702,"lon":9.55},"name":"Stemmen"},{"country":"DE","id":2827501,"coord":{"lat":53.224232,"lon":9.55313},"name":"Stemmen"},{"country":"DE","id":6551378,"coord":{"lat":54.266701,"lon":9.05},"name":"Stelle-Wittenwurth"},{"country":"DE","id":2827559,"coord":{"lat":54.26667,"lon":9.05},"name":"Stelle-Wittenwurth"},{"country":"DE","id":6555061,"coord":{"lat":49.450001,"lon":7.53333},"name":"Steinwenden"},{"country":"DE","id":2827613,"coord":{"lat":49.450001,"lon":7.53333},"name":"Steinwenden"},{"country":"DE","id":6556854,"coord":{"lat":49.416698,"lon":10.2167},"name":"Steinsfeld"},{"country":"DE","id":2827664,"coord":{"lat":49.416672,"lon":10.21667},"name":"Steinsfeld"},{"country":"DE","id":6550522,"coord":{"lat":50.75,"lon":12.05},"name":"Steinsdorf"},{"country":"DE","id":2827677,"coord":{"lat":50.75,"lon":12.05},"name":"Steinsdorf"},{"country":"DE","id":6549818,"coord":{"lat":51.5,"lon":10.4833},"name":"Steinrode"},{"country":"DE","id":2827702,"coord":{"lat":51.5,"lon":10.48333},"name":"Steinrode"},{"country":"DE","id":6556193,"coord":{"lat":48.383301,"lon":12.0833},"name":"Steinkirchen"},{"country":"DE","id":2827870,"coord":{"lat":48.383331,"lon":12.08333},"name":"Steinkirchen"},{"country":"DE","id":6549728,"coord":{"lat":52.833302,"lon":11.1167},"name":"Steinitz"},{"country":"DE","id":2827896,"coord":{"lat":52.833328,"lon":11.11667},"name":"Steinitz"},{"country":"DE","id":6554667,"coord":{"lat":50.1833,"lon":6.91667},"name":"Steiningen"},{"country":"DE","id":2827900,"coord":{"lat":50.183331,"lon":6.91667},"name":"Steiningen"},{"country":"DE","id":6551507,"coord":{"lat":53.716702,"lon":10.4833},"name":"Steinhorst"},{"country":"DE","id":2827950,"coord":{"lat":53.716671,"lon":10.48333},"name":"Steinhorst"},{"country":"DE","id":6551103,"coord":{"lat":52.426399,"lon":14.1375},"name":"Steinh\u00f6fel"},{"country":"DE","id":2827965,"coord":{"lat":52.400002,"lon":14.16667},"name":"Steinhofel"},{"country":"DE","id":6549817,"coord":{"lat":51.383301,"lon":10.0667},"name":"Steinheuterode"},{"country":"DE","id":2827983,"coord":{"lat":51.383331,"lon":10.06667},"name":"Steinheuterode"},{"country":"DE","id":6555573,"coord":{"lat":48.692699,"lon":10.0412},"name":"Steinheim am Albuch"},{"country":"DE","id":2827989,"coord":{"lat":48.690899,"lon":10.06382},"name":"Steinheim am Albuch"},{"country":"DE","id":6556028,"coord":{"lat":48.016701,"lon":9.96667},"name":"Steinhausen an der Rottum"},{"country":"DE","id":2828007,"coord":{"lat":48.01667,"lon":9.96667},"name":"Steinhausen an der Rottum"},{"country":"DE","id":2828016,"coord":{"lat":48.033329,"lon":9.7},"name":"Steinhausen"},{"country":"DE","id":6548143,"coord":{"lat":54.216702,"lon":12.9833},"name":"Steinhagen"},{"country":"DE","id":2828045,"coord":{"lat":54.226158,"lon":12.98867},"name":"Steinhagen"},{"country":"DE","id":6547906,"coord":{"lat":53.849998,"lon":11.9333},"name":"Steinhagen"},{"country":"DE","id":2828048,"coord":{"lat":53.849998,"lon":11.93333},"name":"Steinhagen"},{"country":"DE","id":6556446,"coord":{"lat":47.700001,"lon":10.8667},"name":"Steingaden"},{"country":"DE","id":2828089,"coord":{"lat":47.700001,"lon":10.86667},"name":"Steingaden"},{"country":"DE","id":6551996,"coord":{"lat":54.599998,"lon":9.75},"name":"Steinfeld"},{"country":"DE","id":2828129,"coord":{"lat":54.599998,"lon":9.75},"name":"Steinfeld"},{"country":"DE","id":6547799,"coord":{"lat":54.099998,"lon":12.3167},"name":"Steinfeld"},{"country":"DE","id":2828131,"coord":{"lat":54.108131,"lon":12.30975},"name":"Steinfeld"},{"country":"DE","id":2828136,"coord":{"lat":52.599998,"lon":8.21667},"name":"Steinfeld"},{"country":"DE","id":6557050,"coord":{"lat":49.952801,"lon":9.66944},"name":"Steinfeld"},{"country":"DE","id":2828140,"coord":{"lat":49.952782,"lon":9.66944},"name":"Steinfeld"},{"country":"DE","id":6554179,"coord":{"lat":50.583302,"lon":7.8},"name":"Steinen"},{"country":"DE","id":2828227,"coord":{"lat":50.583328,"lon":7.8},"name":"Steinen"},{"country":"DE","id":6554178,"coord":{"lat":50.466702,"lon":7.93333},"name":"Steinefrenz"},{"country":"DE","id":2828241,"coord":{"lat":50.466671,"lon":7.93333},"name":"Steinefrenz"},{"country":"DE","id":6554666,"coord":{"lat":50.1833,"lon":6.91667},"name":"Steineberg"},{"country":"DE","id":2828249,"coord":{"lat":50.183331,"lon":6.91667},"name":"Steineberg"},{"country":"DE","id":6554606,"coord":{"lat":50.0667,"lon":6.63333},"name":"Steinborn"},{"country":"DE","id":2828384,"coord":{"lat":50.066669,"lon":6.63333},"name":"Steinborn"},{"country":"DE","id":6552057,"coord":{"lat":54.7719,"lon":9.7545},"name":"Steinbergkirche"},{"country":"DE","id":2828396,"coord":{"lat":54.75,"lon":9.76667},"name":"Steinbergkirche"},{"country":"DE","id":6556707,"coord":{"lat":49.283298,"lon":12.1833},"name":"Steinberg"},{"country":"DE","id":2828443,"coord":{"lat":49.283329,"lon":12.18333},"name":"Steinberg"},{"country":"DE","id":2828685,"coord":{"lat":49.416672,"lon":11.01667},"name":"Stein bei Nurnberg"},{"country":"DE","id":2828723,"coord":{"lat":50.700001,"lon":10.56667},"name":"Kurort Steinbach-Hallenberg"},{"country":"DE","id":6554989,"coord":{"lat":49.599998,"lon":7.95},"name":"Steinbach am Donnersberg"},{"country":"DE","id":2828738,"coord":{"lat":49.599998,"lon":7.95},"name":"Steinbach am Donnersberg"},{"country":"DE","id":6549816,"coord":{"lat":51.416698,"lon":10.2167},"name":"Steinbach"},{"country":"DE","id":2828788,"coord":{"lat":51.422119,"lon":10.21866},"name":"Steinbach"},{"country":"DE","id":6549896,"coord":{"lat":50.833302,"lon":10.3667},"name":"Steinbach"},{"country":"DE","id":2828795,"coord":{"lat":50.833328,"lon":10.36667},"name":"Steinbach"},{"country":"DE","id":2828805,"coord":{"lat":50.150002,"lon":11.65},"name":"Steinbach"},{"country":"DE","id":6553971,"coord":{"lat":50.033298,"lon":7.6},"name":"Steinbach"},{"country":"DE","id":2828806,"coord":{"lat":50.033329,"lon":7.6},"name":"Steinbach"},{"country":"DE","id":6552613,"coord":{"lat":53.6833,"lon":8.88333},"name":"Steinau"},{"country":"DE","id":2828869,"coord":{"lat":53.683331,"lon":8.88333},"name":"Steinau"},{"country":"DE","id":6556599,"coord":{"lat":48.950001,"lon":12.6167},"name":"Steinach"},{"country":"DE","id":2828911,"coord":{"lat":48.950001,"lon":12.61667},"name":"Steinach"},{"country":"DE","id":6555805,"coord":{"lat":48.299999,"lon":8.05},"name":"Steinach"},{"country":"DE","id":2828913,"coord":{"lat":48.299999,"lon":8.05},"name":"Steinach"},{"country":"DE","id":6548733,"coord":{"lat":51.200001,"lon":14.05},"name":"Steina"},{"country":"DE","id":2828923,"coord":{"lat":51.200001,"lon":14.05},"name":"Steina"},{"country":"DE","id":6551778,"coord":{"lat":54.416698,"lon":10.2667},"name":"Stein"},{"country":"DE","id":2828929,"coord":{"lat":54.416672,"lon":10.26667},"name":"Stein"},{"country":"DE","id":6557202,"coord":{"lat":47.599998,"lon":10},"name":"Stiefenhofen"},{"country":"DE","id":2829080,"coord":{"lat":47.593201,"lon":10.00365},"name":"Stiefenhofen"},{"country":"DE","id":6555761,"coord":{"lat":47.983299,"lon":7.96667},"name":"Stegen"},{"country":"DE","id":2829130,"coord":{"lat":47.98333,"lon":7.96667},"name":"Stegen"},{"country":"DE","id":6556747,"coord":{"lat":49.866699,"lon":10.8333},"name":"Stegaurach"},{"country":"DE","id":2829145,"coord":{"lat":49.865429,"lon":10.84385},"name":"Stegaurach"},{"country":"DE","id":6547798,"coord":{"lat":54.099998,"lon":11.8333},"name":"Steffenshagen"},{"country":"DE","id":2829154,"coord":{"lat":54.099998,"lon":11.83333},"name":"Steffenshagen"},{"country":"DE","id":6547974,"coord":{"lat":53.166698,"lon":11.5333},"name":"Steesow"},{"country":"DE","id":2829168,"coord":{"lat":53.15881,"lon":11.54406},"name":"Steesow"},{"country":"DE","id":2829210,"coord":{"lat":51.433331,"lon":11.68333},"name":"Stedten"},{"country":"DE","id":6553016,"coord":{"lat":53.625401,"lon":7.66418},"name":"Stedesdorf"},{"country":"DE","id":2829218,"coord":{"lat":53.633331,"lon":7.66667},"name":"Stedesdorf"},{"country":"DE","id":6548022,"coord":{"lat":53.633301,"lon":13.4},"name":"Staven"},{"country":"DE","id":2829291,"coord":{"lat":53.633331,"lon":13.4},"name":"Staven"},{"country":"DE","id":2829322,"coord":{"lat":50.666672,"lon":8.71667},"name":"Staufenberg"},{"country":"DE","id":2829333,"coord":{"lat":47.75,"lon":8.21667},"name":"Staufen"},{"country":"DE","id":6556176,"coord":{"lat":48.849998,"lon":11.4667},"name":"Stammham"},{"country":"DE","id":2829580,"coord":{"lat":48.849998,"lon":11.46667},"name":"Stammham"},{"country":"DE","id":2829581,"coord":{"lat":48.29604,"lon":11.86961},"name":"Stammham"},{"country":"DE","id":6556598,"coord":{"lat":49.049999,"lon":12.6667},"name":"Stallwang"},{"country":"DE","id":2829602,"coord":{"lat":49.049999,"lon":12.66667},"name":"Stallwang"},{"country":"DE","id":6556000,"coord":{"lat":48.299999,"lon":9.98333},"name":"Staig"},{"country":"DE","id":2829644,"coord":{"lat":48.29998,"lon":9.99138},"name":"Staig"},{"country":"DE","id":3220852,"coord":{"lat":50.121941,"lon":11.1175},"name":"Landkreis Lichtenfels"},{"country":"DE","id":2829701,"coord":{"lat":50.10199,"lon":11.00128},"name":"Bad Staffelstein"},{"country":"DE","id":2829742,"coord":{"lat":50.166672,"lon":11.5},"name":"Stadtsteinach"},{"country":"DE","id":2829750,"coord":{"lat":50.849998,"lon":11.73333},"name":"Stadtroda"},{"country":"DE","id":6556706,"coord":{"lat":49.5,"lon":12.6167},"name":"Stadlern"},{"country":"DE","id":2829825,"coord":{"lat":49.5,"lon":12.61667},"name":"Stadlern"},{"country":"DE","id":6556746,"coord":{"lat":50.003151,"lon":11.19759},"name":"Stadelhofen"},{"country":"DE","id":2829876,"coord":{"lat":50.00317,"lon":11.19757},"name":"Stadelhofen"},{"country":"DE","id":6547522,"coord":{"lat":49.3167,"lon":7.13333},"name":"Spiesen-Elversberg"},{"country":"DE","id":2830452,"coord":{"lat":49.316669,"lon":7.13333},"name":"Spiesen-Elversberg"},{"country":"DE","id":6547430,"coord":{"lat":50.049999,"lon":7.45},"name":"Spesenroth"},{"country":"DE","id":2830593,"coord":{"lat":50.049999,"lon":7.45},"name":"Spesenroth"},{"country":"DE","id":6556249,"coord":{"lat":47.716702,"lon":11.2},"name":"Spatzenhausen"},{"country":"DE","id":2830768,"coord":{"lat":47.716671,"lon":11.2},"name":"Spatzenhausen"},{"country":"DE","id":6556874,"coord":{"lat":49.616699,"lon":11.05},"name":"Spardorf"},{"country":"DE","id":2830803,"coord":{"lat":49.60854,"lon":11.05585},"name":"Spardorf"},{"country":"DE","id":6554605,"coord":{"lat":49.983299,"lon":6.68333},"name":"Spangdahlem"},{"country":"DE","id":2830832,"coord":{"lat":49.98333,"lon":6.68333},"name":"Spangdahlem"},{"country":"DE","id":2830849,"coord":{"lat":49.175529,"lon":10.92453},"name":"Spalt"},{"country":"DE","id":6553545,"coord":{"lat":49.900002,"lon":7.71667},"name":"Spabr\u00fccken"},{"country":"DE","id":2830869,"coord":{"lat":49.900002,"lon":7.71667},"name":"Spabrucken"},{"country":"DE","id":6556382,"coord":{"lat":48.116699,"lon":12.2},"name":"Soyen"},{"country":"DE","id":2830873,"coord":{"lat":48.116669,"lon":12.2},"name":"Soyen"},{"country":"DE","id":6552753,"coord":{"lat":53.115501,"lon":9.2614},"name":"Sottrum"},{"country":"DE","id":2830880,"coord":{"lat":53.116669,"lon":9.23333},"name":"Sottrum"},{"country":"DE","id":6549256,"coord":{"lat":51.216702,"lon":12.1},"name":"S\u00f6ssen"},{"country":"DE","id":2830899,"coord":{"lat":51.216671,"lon":12.1},"name":"Sossen"},{"country":"DE","id":6551921,"coord":{"lat":54.283298,"lon":9.46667},"name":"Sophienhamm"},{"country":"DE","id":2831058,"coord":{"lat":54.283329,"lon":9.46667},"name":"Sophienhamm"},{"country":"DE","id":6557259,"coord":{"lat":48,"lon":10.35},"name":"Sontheim"},{"country":"DE","id":2831097,"coord":{"lat":48,"lon":10.35},"name":"Sontheim"},{"country":"DE","id":6553645,"coord":{"lat":49.8167,"lon":7.38333},"name":"Sonnschied"},{"country":"DE","id":2831109,"coord":{"lat":49.816669,"lon":7.38333},"name":"Sonnschied"},{"country":"DE","id":2831121,"coord":{"lat":51.683331,"lon":13.65},"name":"Sonnewalde"},{"country":"DE","id":6553644,"coord":{"lat":49.666698,"lon":7.28333},"name":"Sonnenberg-Winnenberg"},{"country":"DE","id":2831183,"coord":{"lat":49.666672,"lon":7.28333},"name":"Sonnenberg-Winnenberg"},{"country":"DE","id":6556533,"coord":{"lat":48.6833,"lon":13.7167},"name":"Sonnen"},{"country":"DE","id":2831236,"coord":{"lat":48.683331,"lon":13.71667},"name":"Sonnen"},{"country":"DE","id":6550101,"coord":{"lat":51,"lon":10.5833},"name":"Sonneborn"},{"country":"DE","id":2831242,"coord":{"lat":51,"lon":10.58333},"name":"Sonneborn"},{"country":"DE","id":2831269,"coord":{"lat":50.466671,"lon":10.16667},"name":"Sondheim vor der Rhoen"},{"country":"DE","id":6547854,"coord":{"lat":53.799999,"lon":12.9},"name":"Sommersdorf"},{"country":"DE","id":2831342,"coord":{"lat":53.799999,"lon":12.9},"name":"Sommersdorf"},{"country":"DE","id":6553544,"coord":{"lat":49.883301,"lon":7.76667},"name":"Sommerloch"},{"country":"DE","id":2831366,"coord":{"lat":49.87727,"lon":7.75995},"name":"Sommerloch"},{"country":"DE","id":6552245,"coord":{"lat":53.8036,"lon":9.53749},"name":"Sommerland"},{"country":"DE","id":2831369,"coord":{"lat":53.8036,"lon":9.53748},"name":"Sommerland"},{"country":"DE","id":6556958,"coord":{"lat":50.0667,"lon":9.26667},"name":"Sommerkahl"},{"country":"DE","id":2831377,"coord":{"lat":50.066669,"lon":9.26667},"name":"Sommerkahl"},{"country":"DE","id":6552831,"coord":{"lat":52.866699,"lon":10.7667},"name":"Soltendieck"},{"country":"DE","id":2831479,"coord":{"lat":52.873692,"lon":10.76162},"name":"Soltendieck"},{"country":"DE","id":2831497,"coord":{"lat":50.76667,"lon":9.6},"name":"Solms"},{"country":"DE","id":7602474,"coord":{"lat":51.416672,"lon":10.53333},"name":"Sollstedt"},{"country":"DE","id":2831501,"coord":{"lat":51.416672,"lon":10.53333},"name":"Sollstedt"},{"country":"DE","id":6552054,"coord":{"lat":54.583302,"lon":9.31667},"name":"Sollerup"},{"country":"DE","id":2831532,"coord":{"lat":54.583328,"lon":9.31667},"name":"Sollerup"},{"country":"DE","id":6550474,"coord":{"lat":50.700001,"lon":11.6667},"name":"Solkwitz"},{"country":"DE","id":2831571,"coord":{"lat":50.700001,"lon":11.66667},"name":"Solkwitz"},{"country":"DE","id":6555760,"coord":{"lat":47.9333,"lon":7.81667},"name":"S\u00f6lden"},{"country":"DE","id":2831594,"coord":{"lat":47.933331,"lon":7.81667},"name":"Solden"},{"country":"DE","id":2831684,"coord":{"lat":51.116669,"lon":14.78333},"name":"Sohland am Rotstein"},{"country":"DE","id":6550336,"coord":{"lat":50.633301,"lon":11.1333},"name":"Sitzendorf"},{"country":"DE","id":2831787,"coord":{"lat":50.631821,"lon":11.17215},"name":"Sitzendorf"},{"country":"DE","id":6556691,"coord":{"lat":49,"lon":12.0333},"name":"Sinzing"},{"country":"DE","id":2831847,"coord":{"lat":49,"lon":12.03333},"name":"Sinzing"},{"country":"DE","id":6555635,"coord":{"lat":48.763748,"lon":8.16655},"name":"Sinzheim"},{"country":"DE","id":2831853,"coord":{"lat":48.76667,"lon":8.16667},"name":"Sinzheim"},{"country":"DE","id":2831888,"coord":{"lat":51.024448,"lon":6.81787},"name":"Sinnersdorf"},{"country":"DE","id":6551604,"coord":{"lat":54.433552,"lon":8.97693},"name":"Simonsberg"},{"country":"DE","id":2831985,"coord":{"lat":54.433552,"lon":8.97692},"name":"Simonsberg"},{"country":"DE","id":6554175,"coord":{"lat":50.400002,"lon":7.66667},"name":"Simmern"},{"country":"DE","id":2832012,"coord":{"lat":50.400002,"lon":7.66667},"name":"Simmern"},{"country":"DE","id":6553543,"coord":{"lat":49.8167,"lon":7.51667},"name":"Simmertal"},{"country":"DE","id":2832014,"coord":{"lat":49.816669,"lon":7.51667},"name":"Simmertal"},{"country":"DE","id":6556896,"coord":{"lat":49.597359,"lon":11.34047},"name":"Simmelsdorf"},{"country":"DE","id":2832025,"coord":{"lat":49.597752,"lon":11.33901},"name":"Simmelsdorf"},{"country":"DE","id":2832045,"coord":{"lat":48.566669,"lon":12.75},"name":"Simbach"},{"country":"DE","id":2832078,"coord":{"lat":53.574371,"lon":7.985},"name":"Sillenstede"},{"country":"DE","id":6557201,"coord":{"lat":47.583302,"lon":9.76667},"name":"Sigmarszell"},{"country":"DE","id":2832228,"coord":{"lat":47.583328,"lon":9.76667},"name":"Sigmarszell"},{"country":"DE","id":6552243,"coord":{"lat":54.052521,"lon":9.44741},"name":"Siezb\u00fcttel"},{"country":"DE","id":2832271,"coord":{"lat":54.052448,"lon":9.44758},"name":"Siezbuttel"},{"country":"DE","id":7602417,"coord":{"lat":53.433331,"lon":12.58333},"name":"Sietow"},{"country":"DE","id":2832312,"coord":{"lat":53.450001,"lon":12.55},"name":"Sietow"},{"country":"DE","id":6553340,"coord":{"lat":50.450001,"lon":6.91667},"name":"Sierscheid"},{"country":"DE","id":2832335,"coord":{"lat":50.457069,"lon":6.91744},"name":"Sierscheid"},{"country":"DE","id":6551663,"coord":{"lat":54.0667,"lon":10.7667},"name":"Sierksdorf"},{"country":"DE","id":2832338,"coord":{"lat":54.066669,"lon":10.76667},"name":"Sierksdorf"},{"country":"DE","id":6553642,"coord":{"lat":49.700001,"lon":7.48333},"name":"Sienhachenbach"},{"country":"DE","id":2832357,"coord":{"lat":49.700001,"lon":7.48333},"name":"Sienhachenbach"},{"country":"DE","id":6553641,"coord":{"lat":49.700001,"lon":7.5},"name":"Sien"},{"country":"DE","id":2832363,"coord":{"lat":49.700001,"lon":7.5},"name":"Sien"},{"country":"DE","id":2832423,"coord":{"lat":47.933331,"lon":12.3},"name":"Siegsdorf"},{"country":"DE","id":6551504,"coord":{"lat":53.516701,"lon":10.6167},"name":"Siebeneichen"},{"country":"DE","id":2832714,"coord":{"lat":53.510921,"lon":10.61811},"name":"Siebeneichen"},{"country":"DE","id":6553783,"coord":{"lat":50.383301,"lon":7.03333},"name":"Siebenbach"},{"country":"DE","id":2832736,"coord":{"lat":50.383331,"lon":7.03333},"name":"Siebenbach"},{"country":"DE","id":6549813,"coord":{"lat":51.25,"lon":10.1167},"name":"Sickerode"},{"country":"DE","id":2832772,"coord":{"lat":51.25,"lon":10.11667},"name":"Sickerode"},{"country":"DE","id":2832778,"coord":{"lat":48.53252,"lon":9.18114},"name":"Sickenhausen"},{"country":"DE","id":6549723,"coord":{"lat":52.516701,"lon":11.2167},"name":"Sichau"},{"country":"DE","id":2832803,"coord":{"lat":52.51371,"lon":11.22734},"name":"Sichau"},{"country":"DE","id":6548383,"coord":{"lat":53.5,"lon":11.7667},"name":"Severin"},{"country":"DE","id":2832851,"coord":{"lat":53.503471,"lon":11.77185},"name":"Severin"},{"country":"DE","id":6552349,"coord":{"lat":51.549999,"lon":10.1667},"name":"Seulingen"},{"country":"DE","id":2832867,"coord":{"lat":51.549999,"lon":10.16667},"name":"Seulingen"},{"country":"DE","id":6554794,"coord":{"lat":49.57505,"lon":6.57497},"name":"Serrig"},{"country":"DE","id":2832940,"coord":{"lat":49.575191,"lon":6.57454},"name":"Serrig"},{"country":"DE","id":6550407,"coord":{"lat":50.950001,"lon":11.8167},"name":"Serba"},{"country":"DE","id":2832968,"coord":{"lat":50.950001,"lon":11.81667},"name":"Serba"},{"country":"DE","id":6553640,"coord":{"lat":49.775391,"lon":7.19725},"name":"Sensweiler"},{"country":"DE","id":2832986,"coord":{"lat":49.775391,"lon":7.1969},"name":"Sensweiler"},{"country":"DE","id":6554603,"coord":{"lat":50.116699,"lon":6.21667},"name":"Sengerich"},{"country":"DE","id":2833047,"coord":{"lat":50.116669,"lon":6.21667},"name":"Sengerich"},{"country":"DE","id":6555070,"coord":{"lat":49.516701,"lon":7.85},"name":"Sembach"},{"country":"DE","id":2833126,"coord":{"lat":49.51667,"lon":7.85},"name":"Sembach"},{"country":"DE","id":2833138,"coord":{"lat":50.533329,"lon":7.76667},"name":"Selters"},{"country":"DE","id":2833139,"coord":{"lat":50.516811,"lon":8.28953},"name":"Selters"},{"country":"DE","id":6547796,"coord":{"lat":54,"lon":12.5},"name":"Selpin"},{"country":"DE","id":2833160,"coord":{"lat":53.991119,"lon":12.49575},"name":"Selpin"},{"country":"DE","id":2833184,"coord":{"lat":53.883331,"lon":11.6},"name":"Sellin"},{"country":"DE","id":6554602,"coord":{"lat":50.233299,"lon":6.36667},"name":"Sellerich"},{"country":"DE","id":2833196,"coord":{"lat":50.23333,"lon":6.36667},"name":"Sellerich"},{"country":"DE","id":6551994,"coord":{"lat":54.466702,"lon":9.56667},"name":"Selk"},{"country":"DE","id":2833228,"coord":{"lat":54.466671,"lon":9.56667},"name":"Selk"},{"country":"DE","id":6551776,"coord":{"lat":54.290401,"lon":10.4276},"name":"Selent"},{"country":"DE","id":2833259,"coord":{"lat":54.299999,"lon":10.43333},"name":"Selent"},{"country":"DE","id":6550406,"coord":{"lat":50.799999,"lon":11.6167},"name":"Seitenroda"},{"country":"DE","id":2833313,"coord":{"lat":50.799999,"lon":11.61667},"name":"Seitenroda"},{"country":"DE","id":6553446,"coord":{"lat":50.633301,"lon":7.56667},"name":"Seifen"},{"country":"DE","id":2833398,"coord":{"lat":50.683331,"lon":7.51667},"name":"Seifen"},{"country":"DE","id":2833399,"coord":{"lat":50.633331,"lon":7.56667},"name":"Seifen"},{"country":"DE","id":6552424,"coord":{"lat":52.049999,"lon":10.2667},"name":"Sehlde"},{"country":"DE","id":2833495,"coord":{"lat":52.038872,"lon":10.26569},"name":"Sehlde"},{"country":"DE","id":6558458,"coord":{"lat":52.302299,"lon":9.09427},"name":"Seggebruch"},{"country":"DE","id":2833521,"coord":{"lat":52.300499,"lon":9.09462},"name":"Seggebruch"},{"country":"DE","id":6549722,"coord":{"lat":52.583302,"lon":11.5667},"name":"Seethen"},{"country":"DE","id":2833570,"coord":{"lat":52.583328,"lon":11.56667},"name":"Seethen"},{"country":"DE","id":6551707,"coord":{"lat":53.733299,"lon":9.71667},"name":"Seeth-Ekholt"},{"country":"DE","id":2833571,"coord":{"lat":53.741299,"lon":9.73002},"name":"Seeth-Ekholt"},{"country":"DE","id":6551603,"coord":{"lat":54.366699,"lon":9.16667},"name":"Seeth"},{"country":"DE","id":2833575,"coord":{"lat":54.366669,"lon":9.16667},"name":"Seeth"},{"country":"DE","id":6551706,"coord":{"lat":53.700001,"lon":9.56667},"name":"Seesterm\u00fche"},{"country":"DE","id":2833582,"coord":{"lat":53.700001,"lon":9.56667},"name":"Seestermuhe"},{"country":"DE","id":6551697,"coord":{"lat":53.717831,"lon":9.59798},"name":"Seester"},{"country":"DE","id":2833585,"coord":{"lat":53.717831,"lon":9.59798},"name":"Seester"},{"country":"DE","id":6556444,"coord":{"lat":47.833302,"lon":11.3},"name":"Seeshaupt"},{"country":"DE","id":2833590,"coord":{"lat":47.82468,"lon":11.30219},"name":"Seeshaupt"},{"country":"DE","id":6553541,"coord":{"lat":49.849998,"lon":7.55},"name":"Seesbach"},{"country":"DE","id":2833600,"coord":{"lat":49.849998,"lon":7.55},"name":"Seesbach"},{"country":"DE","id":2833651,"coord":{"lat":52.53392,"lon":14.38128},"name":"Seelow"},{"country":"DE","id":6548569,"coord":{"lat":51.033298,"lon":12.8167},"name":"Seelitz"},{"country":"DE","id":2833654,"coord":{"lat":51.033329,"lon":12.81667},"name":"Seelitz"},{"country":"DE","id":6554100,"coord":{"lat":50.3167,"lon":7.86667},"name":"Seelbach"},{"country":"DE","id":2833702,"coord":{"lat":50.316669,"lon":7.86667},"name":"Seelbach"},{"country":"DE","id":6555804,"coord":{"lat":48.3167,"lon":7.95},"name":"Seelbach"},{"country":"DE","id":2833704,"coord":{"lat":48.316669,"lon":7.95},"name":"Seelbach"},{"country":"DE","id":6548222,"coord":{"lat":53.69249,"lon":11.43256},"name":"Seehof"},{"country":"DE","id":2833754,"coord":{"lat":53.69249,"lon":11.43256},"name":"Seehof"},{"country":"DE","id":2833800,"coord":{"lat":52.883331,"lon":11.75},"name":"Seehausen"},{"country":"DE","id":2833801,"coord":{"lat":52.099998,"lon":11.3},"name":"Seehausen"},{"country":"DE","id":6557230,"coord":{"lat":47.654301,"lon":10.6085},"name":"Seeg"},{"country":"DE","id":2833849,"coord":{"lat":47.650002,"lon":10.6},"name":"Seeg"},{"country":"DE","id":6556390,"coord":{"lat":48.033298,"lon":11.2},"name":"Seefeld"},{"country":"DE","id":2833866,"coord":{"lat":48.035049,"lon":11.21395},"name":"Seefeld"},{"country":"DE","id":6552135,"coord":{"lat":54.049999,"lon":10.4167},"name":"Seedorf"},{"country":"DE","id":2833878,"coord":{"lat":54.049999,"lon":10.41667},"name":"Seedorf"},{"country":"DE","id":6551502,"coord":{"lat":53.61964,"lon":10.86601},"name":"Seedorf"},{"country":"DE","id":2833883,"coord":{"lat":53.619701,"lon":10.86599},"name":"Seedorf"},{"country":"DE","id":6552750,"coord":{"lat":53.349998,"lon":9.23333},"name":"Seedorf"},{"country":"DE","id":2833884,"coord":{"lat":53.349998,"lon":9.23333},"name":"Seedorf"},{"country":"DE","id":2833893,"coord":{"lat":48.249081,"lon":8.48993},"name":"Seedorf"},{"country":"DE","id":6552348,"coord":{"lat":51.5667,"lon":10.15},"name":"Seeburg"},{"country":"DE","id":2833903,"coord":{"lat":51.566669,"lon":10.15},"name":"Seeburg"},{"country":"DE","id":2833988,"coord":{"lat":53.966671,"lon":14.16667},"name":"Seebad Heringsdorf"},{"country":"DE","id":2833989,"coord":{"lat":53.966671,"lon":14.15},"name":"Seebad Bansin"},{"country":"DE","id":2834020,"coord":{"lat":51.166672,"lon":10.51667},"name":"Seebach"},{"country":"DE","id":6549895,"coord":{"lat":50.907101,"lon":10.4335},"name":"Seebach"},{"country":"DE","id":2834021,"coord":{"lat":50.916672,"lon":10.41667},"name":"Seebach"},{"country":"DE","id":2834102,"coord":{"lat":50.975399,"lon":14.27579},"name":"Sebnitz"},{"country":"DE","id":6549812,"coord":{"lat":51.283298,"lon":10.1},"name":"Schwobfeld"},{"country":"DE","id":2834146,"coord":{"lat":51.283329,"lon":10.1},"name":"Schwobfeld"},{"country":"DE","id":6556303,"coord":{"lat":48.266701,"lon":12.25},"name":"Schwindegg"},{"country":"DE","id":2834183,"coord":{"lat":48.26667,"lon":12.25},"name":"Schwindegg"},{"country":"DE","id":6550154,"coord":{"lat":51.150002,"lon":10.9167},"name":"Schwerstedt"},{"country":"DE","id":2834266,"coord":{"lat":51.150002,"lon":10.91667},"name":"Schwerstedt"},{"country":"DE","id":6547574,"coord":{"lat":52.150002,"lon":13.6333},"name":"Schwerin"},{"country":"DE","id":2834284,"coord":{"lat":52.150002,"lon":13.63333},"name":"Schwerin"},{"country":"DE","id":6553638,"coord":{"lat":49.900002,"lon":7.35},"name":"Schwerbach"},{"country":"DE","id":2834291,"coord":{"lat":49.900002,"lon":7.35},"name":"Schwerbach"},{"country":"DE","id":6557167,"coord":{"lat":48.650002,"lon":10.65},"name":"Schwenningen"},{"country":"DE","id":2834312,"coord":{"lat":48.650002,"lon":10.65},"name":"Schwenningen"},{"country":"DE","id":6556026,"coord":{"lat":48.1833,"lon":9.96667},"name":"Schwendi"},{"country":"DE","id":2834334,"coord":{"lat":48.183331,"lon":9.96667},"name":"Schwendi"},{"country":"DE","id":6554984,"coord":{"lat":49.583302,"lon":7.81667},"name":"Schweisweiler"},{"country":"DE","id":2834417,"coord":{"lat":49.583328,"lon":7.81667},"name":"Schweisweiler"},{"country":"DE","id":6553014,"coord":{"lat":53.600201,"lon":7.47311},"name":"Schweindorf"},{"country":"DE","id":2834519,"coord":{"lat":53.599998,"lon":7.46667},"name":"Schweindorf"},{"country":"DE","id":6554099,"coord":{"lat":50.283298,"lon":7.75},"name":"Schweighausen"},{"country":"DE","id":2834569,"coord":{"lat":50.283329,"lon":7.75},"name":"Schweighausen"},{"country":"DE","id":6555060,"coord":{"lat":49.5,"lon":7.6},"name":"Schwedelbach"},{"country":"DE","id":2834646,"coord":{"lat":49.5,"lon":7.6},"name":"Schwedelbach"},{"country":"DE","id":6557069,"coord":{"lat":49.983299,"lon":10.25},"name":"Schwebheim"},{"country":"DE","id":2834651,"coord":{"lat":49.98333,"lon":10.25},"name":"Schwebheim"},{"country":"DE","id":6559260,"coord":{"lat":53.872478,"lon":12.58877},"name":"Schwasdorf"},{"country":"DE","id":2834669,"coord":{"lat":53.900002,"lon":12.63333},"name":"Schwasdorf"},{"country":"DE","id":6553567,"coord":{"lat":49.849998,"lon":7.51667},"name":"Schwarzerden"},{"country":"DE","id":2834843,"coord":{"lat":49.849998,"lon":7.51667},"name":"Schwarzerden"},{"country":"DE","id":2834963,"coord":{"lat":50.916672,"lon":9.45},"name":"Schwarzenborn"},{"country":"DE","id":6554373,"coord":{"lat":50.033298,"lon":6.71667},"name":"Schwarzenborn"},{"country":"DE","id":2834966,"coord":{"lat":50.033329,"lon":6.71667},"name":"Schwarzenborn"},{"country":"DE","id":2835034,"coord":{"lat":49.83876,"lon":12.38005},"name":"Schwarzenbach"},{"country":"DE","id":6556664,"coord":{"lat":49.733299,"lon":12},"name":"Schwarzenbach"},{"country":"DE","id":2835035,"coord":{"lat":49.73333,"lon":12},"name":"Schwarzenbach"},{"country":"DE","id":6550518,"coord":{"lat":50.799999,"lon":11.8833},"name":"Schwarzbach"},{"country":"DE","id":2835152,"coord":{"lat":50.799999,"lon":11.88333},"name":"Schwarzbach"},{"country":"DE","id":6556485,"coord":{"lat":48.931301,"lon":13.3643},"name":"Spiegelau"},{"country":"DE","id":2835164,"coord":{"lat":48.915169,"lon":13.36229},"name":"Spiegelau"},{"country":"DE","id":2835184,"coord":{"lat":48.916672,"lon":12.81667},"name":"Schwarzach"},{"country":"DE","id":2835185,"coord":{"lat":48.75,"lon":8.05},"name":"Schwarzach"},{"country":"DE","id":2835193,"coord":{"lat":50.853859,"lon":11.32433},"name":"Schwarza"},{"country":"DE","id":6548093,"coord":{"lat":53.216702,"lon":12.7833},"name":"Schwarz"},{"country":"DE","id":2835196,"coord":{"lat":53.224121,"lon":12.78465},"name":"Schwarz"},{"country":"DE","id":6552778,"coord":{"lat":52.68,"lon":9.6254},"name":"Schwarmstedt"},{"country":"DE","id":2835220,"coord":{"lat":52.67794,"lon":9.61767},"name":"Schwarmstedt"},{"country":"DE","id":6555354,"coord":{"lat":49.166698,"lon":7.88333},"name":"Schwanheim"},{"country":"DE","id":2835248,"coord":{"lat":49.166672,"lon":7.88333},"name":"Schwanheim"},{"country":"DE","id":6557229,"coord":{"lat":47.560398,"lon":10.7721},"name":"Schwangau"},{"country":"DE","id":2835255,"coord":{"lat":47.583328,"lon":10.73333},"name":"Schwangau"},{"country":"DE","id":6553239,"coord":{"lat":50.6833,"lon":9.3},"name":"Schwalmtal"},{"country":"DE","id":2835343,"coord":{"lat":50.683331,"lon":9.21667},"name":"Schwalmtal"},{"country":"DE","id":6553967,"coord":{"lat":50.150002,"lon":7.55},"name":"Schwall"},{"country":"DE","id":2835356,"coord":{"lat":50.150002,"lon":7.55},"name":"Schwall"},{"country":"DE","id":2835380,"coord":{"lat":50.496719,"lon":8.46943},"name":"Schwalbach"},{"country":"DE","id":2835381,"coord":{"lat":50.150002,"lon":8.53333},"name":"Schwalbach am Taunus"},{"country":"DE","id":6556443,"coord":{"lat":47.833302,"lon":10.8333},"name":"Schwabsoien"},{"country":"DE","id":2835470,"coord":{"lat":47.833328,"lon":10.83333},"name":"Schwabsoien"},{"country":"DE","id":6556141,"coord":{"lat":48.299999,"lon":11.35},"name":"Schwabhausen"},{"country":"DE","id":2835491,"coord":{"lat":48.303181,"lon":11.35574},"name":"Schwabhausen"},{"country":"DE","id":6550099,"coord":{"lat":50.883301,"lon":10.7333},"name":"Schwabhausen"},{"country":"DE","id":2835494,"coord":{"lat":50.883331,"lon":10.73333},"name":"Schwabhausen"},{"country":"DE","id":2835512,"coord":{"lat":49.932781,"lon":8.09417},"name":"Schwabenheim"},{"country":"DE","id":6550517,"coord":{"lat":50.900002,"lon":12.1333},"name":"Schwaara"},{"country":"DE","id":2835540,"coord":{"lat":50.900002,"lon":12.13333},"name":"Schwaara"},{"country":"DE","id":6548967,"coord":{"lat":51.783298,"lon":12.8333},"name":"Sch\u00fctzberg"},{"country":"DE","id":2835581,"coord":{"lat":51.790249,"lon":12.82413},"name":"Schutzberg"},{"country":"DE","id":6555801,"coord":{"lat":48.233299,"lon":7.95},"name":"Schuttertal"},{"country":"DE","id":2835597,"coord":{"lat":48.26667,"lon":7.95},"name":"Schuttertal"},{"country":"DE","id":6551500,"coord":{"lat":53.766701,"lon":10.4833},"name":"Sch\u00fcrens\u00f6hlen"},{"country":"DE","id":2835674,"coord":{"lat":53.76667,"lon":10.48333},"name":"Schurensohlen"},{"country":"DE","id":2835944,"coord":{"lat":54.26667,"lon":9.63333},"name":"Schulp"},{"country":"DE","id":6551377,"coord":{"lat":54.25,"lon":8.93333},"name":"Sch\u00fclp"},{"country":"DE","id":2835945,"coord":{"lat":54.25,"lon":8.93333},"name":"Schulp"},{"country":"DE","id":6551501,"coord":{"lat":53.466702,"lon":10.5667},"name":"Schulendorf"},{"country":"DE","id":2835972,"coord":{"lat":53.473228,"lon":10.56104},"name":"Schulendorf"},{"country":"DE","id":6551993,"coord":{"lat":54.516701,"lon":9.48333},"name":"Schuby"},{"country":"DE","id":2836031,"coord":{"lat":54.51667,"lon":9.48333},"name":"Schuby"},{"country":"DE","id":6551376,"coord":{"lat":54.1833,"lon":9.25},"name":"Schrum"},{"country":"DE","id":2836039,"coord":{"lat":54.183331,"lon":9.25},"name":"Schrum"},{"country":"DE","id":6556640,"coord":{"lat":49.166698,"lon":12.6},"name":"Schorndorf"},{"country":"DE","id":2836319,"coord":{"lat":49.166672,"lon":12.6},"name":"Schorndorf"},{"country":"DE","id":6550405,"coord":{"lat":50.833302,"lon":11.6},"name":"Sch\u00f6ps"},{"country":"DE","id":2836387,"coord":{"lat":50.833328,"lon":11.6},"name":"Schops"},{"country":"DE","id":6555725,"coord":{"lat":48.454708,"lon":8.55133},"name":"Schopfloch"},{"country":"DE","id":2836409,"coord":{"lat":48.454769,"lon":8.55131},"name":"Schopfloch"},{"country":"DE","id":6548479,"coord":{"lat":53.533298,"lon":13.9},"name":"Sch\u00f6nwalde"},{"country":"DE","id":2836442,"coord":{"lat":53.533329,"lon":13.9},"name":"Schonwalde"},{"country":"DE","id":2836450,"coord":{"lat":50.200001,"lon":12.1},"name":"Schonwald"},{"country":"DE","id":2836451,"coord":{"lat":48.099998,"lon":8.2},"name":"Schonwald im Schwarzwald"},{"country":"DE","id":6556639,"coord":{"lat":49.349998,"lon":12.6},"name":"Sch\u00f6nthal"},{"country":"DE","id":2836460,"coord":{"lat":49.349998,"lon":12.6},"name":"Schonthal"},{"country":"DE","id":2836480,"coord":{"lat":49.51667,"lon":12.55},"name":"Schonsee"},{"country":"DE","id":2836543,"coord":{"lat":52.13802,"lon":10.96745},"name":"Schoningen"},{"country":"DE","id":6548591,"coord":{"lat":50.5037,"lon":12.5057},"name":"Sch\u00f6nheide"},{"country":"DE","id":2836581,"coord":{"lat":50.504581,"lon":12.52158},"name":"Schoenheide"},{"country":"DE","id":6548021,"coord":{"lat":53.549999,"lon":13.7},"name":"Sch\u00f6nhausen"},{"country":"DE","id":2836586,"coord":{"lat":53.549999,"lon":13.7},"name":"Schonhausen"},{"country":"DE","id":6549811,"coord":{"lat":51.333302,"lon":10.0167},"name":"Sch\u00f6nhagen"},{"country":"DE","id":2836605,"coord":{"lat":51.333328,"lon":10.01667},"name":"Schonhagen"},{"country":"DE","id":6550404,"coord":{"lat":50.916698,"lon":11.7333},"name":"Sch\u00f6ngleina"},{"country":"DE","id":2836614,"coord":{"lat":50.916672,"lon":11.73333},"name":"Schongleina"},{"country":"DE","id":6547852,"coord":{"lat":53.849998,"lon":12.9667},"name":"Sch\u00f6nfeld"},{"country":"DE","id":2836648,"coord":{"lat":53.849998,"lon":12.96667},"name":"Schonfeld"},{"country":"DE","id":6547749,"coord":{"lat":53.416698,"lon":13.9833},"name":"Sch\u00f6nfeld"},{"country":"DE","id":2836650,"coord":{"lat":53.416672,"lon":13.98333},"name":"Schonfeld"},{"country":"DE","id":6548660,"coord":{"lat":51.299999,"lon":13.7},"name":"Sch\u00f6nfeld"},{"country":"DE","id":2836658,"coord":{"lat":51.299999,"lon":13.7},"name":"Schonfeld"},{"country":"DE","id":6547622,"coord":{"lat":53,"lon":13.1167},"name":"Sch\u00f6nermark"},{"country":"DE","id":2836697,"coord":{"lat":53.006989,"lon":13.12016},"name":"Schonermark"},{"country":"DE","id":6555892,"coord":{"lat":47.783298,"lon":7.88333},"name":"Sch\u00f6nenberg"},{"country":"DE","id":2836725,"coord":{"lat":47.793781,"lon":7.88248},"name":"Schonenberg"},{"country":"DE","id":2836772,"coord":{"lat":50.383331,"lon":12.31667},"name":"Schoneck"},{"country":"DE","id":6547748,"coord":{"lat":53,"lon":14.1333},"name":"Sch\u00f6neberg"},{"country":"DE","id":2836791,"coord":{"lat":53.00853,"lon":14.14258},"name":"Schoneberg"},{"country":"DE","id":6553443,"coord":{"lat":50.666698,"lon":7.6},"name":"Sch\u00f6neberg"},{"country":"DE","id":2836793,"coord":{"lat":50.666672,"lon":7.6},"name":"Schoneberg"},{"country":"DE","id":6553538,"coord":{"lat":49.916698,"lon":7.75},"name":"Sch\u00f6neberg"},{"country":"DE","id":2836795,"coord":{"lat":49.916672,"lon":7.75},"name":"Schoneberg"},{"country":"DE","id":6550472,"coord":{"lat":50.616699,"lon":11.7},"name":"Sch\u00f6ndorf"},{"country":"DE","id":2836820,"coord":{"lat":50.617451,"lon":11.69477},"name":"Schondorf"},{"country":"DE","id":6554098,"coord":{"lat":50.299999,"lon":7.98333},"name":"Sch\u00f6nborn"},{"country":"DE","id":2836913,"coord":{"lat":50.299999,"lon":7.98333},"name":"Schonborn"},{"country":"DE","id":6548509,"coord":{"lat":50.866699,"lon":12.5},"name":"Sch\u00f6nberg"},{"country":"DE","id":2836952,"coord":{"lat":50.866669,"lon":12.5},"name":"Schonberg"},{"country":"DE","id":6554372,"coord":{"lat":49.766701,"lon":6.91667},"name":"Sch\u00f6nberg"},{"country":"DE","id":2836958,"coord":{"lat":49.76667,"lon":6.91667},"name":"Schonberg"},{"country":"DE","id":6556302,"coord":{"lat":48.333302,"lon":12.4333},"name":"Sch\u00f6nberg"},{"country":"DE","id":2836968,"coord":{"lat":48.333328,"lon":12.43333},"name":"Schonberg"},{"country":"DE","id":6548688,"coord":{"lat":51.0667,"lon":14.5667},"name":"Sch\u00f6nbach"},{"country":"DE","id":2837022,"coord":{"lat":51.066669,"lon":14.56667},"name":"Schonbach"},{"country":"DE","id":2837041,"coord":{"lat":51.066669,"lon":14.9},"name":"Schonau-Berzdorf"},{"country":"DE","id":2837062,"coord":{"lat":50.083328,"lon":9.71667},"name":"Schonau"},{"country":"DE","id":2837064,"coord":{"lat":49.435558,"lon":8.80917},"name":"Schonau"},{"country":"DE","id":2837034,"coord":{"lat":48.48333,"lon":12.88333},"name":"Sch\u00f6nau"},{"country":"DE","id":2837072,"coord":{"lat":48.48333,"lon":12.85},"name":"Schonau"},{"country":"DE","id":2837085,"coord":{"lat":47.600552,"lon":12.98704},"name":"Schoenau am Koenigssee"},{"country":"DE","id":6550516,"coord":{"lat":50.766701,"lon":12.0167},"name":"Sch\u00f6mberg"},{"country":"DE","id":2837114,"coord":{"lat":50.76667,"lon":12.01667},"name":"Schomberg"},{"country":"DE","id":2837117,"coord":{"lat":48.209969,"lon":8.75949},"name":"Schomberg"},{"country":"DE","id":2837134,"coord":{"lat":48.75,"lon":13.18333},"name":"Schollnach"},{"country":"DE","id":2837136,"coord":{"lat":50.066669,"lon":9.23333},"name":"Schollkrippen"},{"country":"DE","id":6549547,"coord":{"lat":52.6833,"lon":12.2167},"name":"Schollene"},{"country":"DE","id":2837155,"coord":{"lat":52.676949,"lon":12.21869},"name":"Schollene"},{"country":"DE","id":6557049,"coord":{"lat":49.834999,"lon":9.46389},"name":"Schollbrunn"},{"country":"DE","id":2837159,"coord":{"lat":49.834999,"lon":9.46389},"name":"Schollbrunn"},{"country":"DE","id":2837225,"coord":{"lat":51.533329,"lon":11.75},"name":"Schochwitz"},{"country":"DE","id":2837236,"coord":{"lat":54.5,"lon":9.01667},"name":"Schobull"},{"country":"DE","id":6555991,"coord":{"lat":48.266701,"lon":10},"name":"Schn\u00fcrpflingen"},{"country":"DE","id":2837250,"coord":{"lat":48.2728,"lon":9.99292},"name":"Schnurpflingen"},{"country":"DE","id":6556853,"coord":{"lat":49.170502,"lon":10.2321},"name":"Schnelldorf"},{"country":"DE","id":2837368,"coord":{"lat":49.200001,"lon":10.18333},"name":"Schnelldorf"},{"country":"DE","id":6556115,"coord":{"lat":47.6833,"lon":12.8},"name":"Schneizlreuth"},{"country":"DE","id":2837375,"coord":{"lat":47.683331,"lon":12.8},"name":"Schneizlreuth"},{"country":"DE","id":6556810,"coord":{"lat":50.216702,"lon":11.2},"name":"Schneckenlohe"},{"country":"DE","id":2837507,"coord":{"lat":50.211842,"lon":11.19395},"name":"Schneckenlohe"},{"country":"DE","id":2837569,"coord":{"lat":49.549999,"lon":12.01667},"name":"Schnaittenbach"},{"country":"DE","id":6550471,"coord":{"lat":50.644131,"lon":11.58637},"name":"Schmorda"},{"country":"DE","id":2837638,"coord":{"lat":50.644779,"lon":11.58646},"name":"Schmorda"},{"country":"DE","id":6553181,"coord":{"lat":50.2868,"lon":8.4608},"name":"Schmitten"},{"country":"DE","id":2837706,"coord":{"lat":50.26667,"lon":8.45},"name":"Schmitten"},{"country":"DE","id":7602411,"coord":{"lat":49.666672,"lon":7.2},"name":"Schmi\u00dfberg"},{"country":"DE","id":2837724,"coord":{"lat":49.666672,"lon":7.2},"name":"Schmissberg"},{"country":"DE","id":6550220,"coord":{"lat":50.616699,"lon":10.8333},"name":"Schmiedefeld am Rennsteig"},{"country":"DE","id":2837777,"coord":{"lat":50.616669,"lon":10.83333},"name":"Schmiedefeld am Rennsteig"},{"country":"DE","id":6548710,"coord":{"lat":50.849998,"lon":13.6833},"name":"Schmiedeberg"},{"country":"DE","id":2837788,"coord":{"lat":50.836441,"lon":13.67622},"name":"Schmiedeberg"},{"country":"DE","id":6552133,"coord":{"lat":53.883301,"lon":9.96667},"name":"Schmalfeld"},{"country":"DE","id":2838075,"coord":{"lat":53.883331,"lon":9.96667},"name":"Schmalfeld"},{"country":"DE","id":6553536,"coord":{"lat":49.799999,"lon":7.75},"name":"Schlo\u00dfb\u00f6ckelheim"},{"country":"DE","id":2838316,"coord":{"lat":49.799999,"lon":7.75},"name":"Schlossbockelheim"},{"country":"DE","id":6548092,"coord":{"lat":53.549999,"lon":12.8167},"name":"Schloen"},{"country":"DE","id":2838442,"coord":{"lat":53.549999,"lon":12.81667},"name":"Schloen"},{"country":"DE","id":6550403,"coord":{"lat":50.900002,"lon":11.7},"name":"Schl\u00f6ben"},{"country":"DE","id":2838453,"coord":{"lat":50.900002,"lon":11.7},"name":"Schloben"},{"country":"DE","id":2838502,"coord":{"lat":47.73333,"lon":11.86667},"name":"Schliersee"},{"country":"DE","id":6556071,"coord":{"lat":47.771801,"lon":9.6669},"name":"Schlier"},{"country":"DE","id":2838531,"coord":{"lat":47.76667,"lon":9.66667},"name":"Schlier"},{"country":"DE","id":6548141,"coord":{"lat":54.222439,"lon":12.68281},"name":"Schlemmin"},{"country":"DE","id":2838665,"coord":{"lat":54.222351,"lon":12.68277},"name":"Schlemmin"},{"country":"DE","id":6548648,"coord":{"lat":51.533298,"lon":14.5333},"name":"Schleife"},{"country":"DE","id":2838725,"coord":{"lat":51.533329,"lon":14.53333},"name":"Schleife"},{"country":"DE","id":2838744,"coord":{"lat":50.529469,"lon":6.47696},"name":"Schleiden"},{"country":"DE","id":6549893,"coord":{"lat":50.700001,"lon":9.96667},"name":"Schleid"},{"country":"DE","id":2838749,"coord":{"lat":50.700001,"lon":9.96667},"name":"Schleid"},{"country":"DE","id":6554502,"coord":{"lat":50.0667,"lon":6.48333},"name":"Schleid"},{"country":"DE","id":2838750,"coord":{"lat":50.066669,"lon":6.48333},"name":"Schleid"},{"country":"DE","id":2838793,"coord":{"lat":50.98333,"lon":14.88333},"name":"Schlegel"},{"country":"DE","id":6556411,"coord":{"lat":47.716702,"lon":12.4},"name":"Schleching"},{"country":"DE","id":2838842,"coord":{"lat":47.716671,"lon":12.4},"name":"Schleching"},{"country":"DE","id":6553202,"coord":{"lat":50.099998,"lon":8.1},"name":"Schlangenbad"},{"country":"DE","id":2838918,"coord":{"lat":50.099998,"lon":8.1},"name":"Schlangenbad"},{"country":"DE","id":6556663,"coord":{"lat":49.799999,"lon":11.7333},"name":"Schlammersdorf"},{"country":"DE","id":2838924,"coord":{"lat":49.799999,"lon":11.73333},"name":"Schlammersdorf"},{"country":"DE","id":2838938,"coord":{"lat":51.666672,"lon":12.43333},"name":"Schlaitz"},{"country":"DE","id":2839049,"coord":{"lat":51.033329,"lon":11.81667},"name":"Schkolen"},{"country":"DE","id":2839090,"coord":{"lat":51.066669,"lon":14.43333},"name":"Schirgiswalde"},{"country":"DE","id":6551084,"coord":{"lat":51.545551,"lon":13.91208},"name":"Schipkau"},{"country":"DE","id":2839101,"coord":{"lat":51.51667,"lon":13.88333},"name":"Schipkau"},{"country":"DE","id":6555352,"coord":{"lat":49.14183,"lon":7.82233},"name":"Schindhard"},{"country":"DE","id":2839124,"coord":{"lat":49.14183,"lon":7.82214},"name":"Schindhard"},{"country":"DE","id":6557121,"coord":{"lat":48.466702,"lon":11.2333},"name":"Schiltberg"},{"country":"DE","id":2839194,"coord":{"lat":48.462929,"lon":11.24876},"name":"Schiltberg"},{"country":"DE","id":6551771,"coord":{"lat":54.116699,"lon":10.1333},"name":"Schillsdorf"},{"country":"DE","id":2839203,"coord":{"lat":54.116669,"lon":10.13333},"name":"Schillsdorf"},{"country":"DE","id":6550152,"coord":{"lat":51.233299,"lon":11.2},"name":"Schillingstedt"},{"country":"DE","id":2839207,"coord":{"lat":51.23333,"lon":11.2},"name":"Schillingstedt"},{"country":"DE","id":2839212,"coord":{"lat":49.283329,"lon":10.26667},"name":"Schillingsfurst"},{"country":"DE","id":2839303,"coord":{"lat":51.450001,"lon":12.93333},"name":"Schildau"},{"country":"DE","id":6554097,"coord":{"lat":50.283298,"lon":8.06667},"name":"Schiesheim"},{"country":"DE","id":2839377,"coord":{"lat":50.283329,"lon":8.06667},"name":"Schiesheim"},{"country":"DE","id":6556354,"coord":{"lat":48.5,"lon":11.4667},"name":"Scheyern"},{"country":"DE","id":2839527,"coord":{"lat":48.5,"lon":11.46667},"name":"Scheyern"},{"country":"DE","id":6554501,"coord":{"lat":50.016701,"lon":6.3},"name":"Scheuern"},{"country":"DE","id":2839560,"coord":{"lat":50.01667,"lon":6.3},"name":"Scheuern"},{"country":"DE","id":6553261,"coord":{"lat":50.8167,"lon":9.85},"name":"Schenklengsfeld"},{"country":"DE","id":2839726,"coord":{"lat":50.816669,"lon":9.85},"name":"Schenklengsfeld"},{"country":"DE","id":6547495,"coord":{"lat":48.299999,"lon":8.36667},"name":"Schenkenzell"},{"country":"DE","id":2839732,"coord":{"lat":48.299999,"lon":8.36667},"name":"Schenkenzell"},{"country":"DE","id":6547747,"coord":{"lat":53.366699,"lon":13.95},"name":"Schenkenberg"},{"country":"DE","id":2839751,"coord":{"lat":53.366669,"lon":13.95},"name":"Schenkenberg"},{"country":"DE","id":6552241,"coord":{"lat":54.049999,"lon":9.48333},"name":"Schenefeld"},{"country":"DE","id":2839763,"coord":{"lat":54.049999,"lon":9.48333},"name":"Schenefeld"},{"country":"DE","id":6551770,"coord":{"lat":54.229568,"lon":10.29505},"name":"Schellhorn"},{"country":"DE","id":2839812,"coord":{"lat":54.229519,"lon":10.29402},"name":"Schellhorn"},{"country":"DE","id":6554500,"coord":{"lat":50.016701,"lon":6.2},"name":"Scheitenkorb"},{"country":"DE","id":2839912,"coord":{"lat":50.01667,"lon":6.2},"name":"Scheitenkorb"},{"country":"DE","id":2839980,"coord":{"lat":47.583328,"lon":9.85},"name":"Scheidegg"},{"country":"DE","id":6554712,"coord":{"lat":50.349998,"lon":6.41667},"name":"Scheid"},{"country":"DE","id":2839997,"coord":{"lat":50.349998,"lon":6.41667},"name":"Scheid"},{"country":"DE","id":6555020,"coord":{"lat":48.983299,"lon":8.13333},"name":"Scheibenhardt"},{"country":"DE","id":2840016,"coord":{"lat":48.981171,"lon":8.13993},"name":"Scheibenhardt"},{"country":"DE","id":6555596,"coord":{"lat":48.873451,"lon":9.91726},"name":"Schechingen"},{"country":"DE","id":2840116,"coord":{"lat":48.873409,"lon":9.91744},"name":"Schechingen"},{"country":"DE","id":6556368,"coord":{"lat":47.9333,"lon":12.1333},"name":"Schechen"},{"country":"DE","id":2840117,"coord":{"lat":47.929111,"lon":12.12393},"name":"Schechen"},{"country":"DE","id":6553723,"coord":{"lat":50.016701,"lon":7.26667},"name":"Schauren"},{"country":"DE","id":2840129,"coord":{"lat":50.01667,"lon":7.26667},"name":"Schauren"},{"country":"DE","id":6553636,"coord":{"lat":49.80719,"lon":7.23776},"name":"Schauren"},{"country":"DE","id":2840130,"coord":{"lat":49.80719,"lon":7.23724},"name":"Schauren"},{"country":"DE","id":6552565,"coord":{"lat":52.716702,"lon":10.2833},"name":"Scharnhorst"},{"country":"DE","id":2840289,"coord":{"lat":52.716671,"lon":10.28333},"name":"Scharnhorst"},{"country":"DE","id":6548433,"coord":{"lat":54.516701,"lon":13.1667},"name":"Schaprode"},{"country":"DE","id":2840403,"coord":{"lat":54.51667,"lon":13.16667},"name":"Schaprode"},{"country":"DE","id":6552917,"coord":{"lat":52.400002,"lon":7.56667},"name":"Schapen"},{"country":"DE","id":2840419,"coord":{"lat":52.400002,"lon":7.56667},"name":"Schapen"},{"country":"DE","id":6555758,"coord":{"lat":47.959751,"lon":7.75085},"name":"Schallstadt"},{"country":"DE","id":2840526,"coord":{"lat":47.950001,"lon":7.75},"name":"Schallstadt"},{"country":"DE","id":2803460,"coord":{"lat":51.263889,"lon":7.74167},"name":"M\u00e4rkischer Kreis"},{"country":"DE","id":6553140,"coord":{"lat":51.238899,"lon":7.5549},"name":"Schalksm\u00fchle"},{"country":"DE","id":2840555,"coord":{"lat":51.23333,"lon":7.53333},"name":"Schalksmuhle"},{"country":"DE","id":6551374,"coord":{"lat":54.25,"lon":9.25},"name":"Schalkholz"},{"country":"DE","id":2840566,"coord":{"lat":54.256401,"lon":9.28551},"name":"Schalkholz"},{"country":"DE","id":6556513,"coord":{"lat":48.483299,"lon":12.4167},"name":"Schalkham"},{"country":"DE","id":2840568,"coord":{"lat":48.48333,"lon":12.41667},"name":"Schalkham"},{"country":"DE","id":6556325,"coord":{"lat":47.983299,"lon":11.4667},"name":"Sch\u00e4ftlarn"},{"country":"DE","id":2840634,"coord":{"lat":47.988892,"lon":11.44338},"name":"Schaftlarn"},{"country":"DE","id":6551373,"coord":{"lat":54.083302,"lon":9.3},"name":"Schafstedt"},{"country":"DE","id":2840643,"coord":{"lat":54.083328,"lon":9.3},"name":"Schafstedt"},{"country":"DE","id":6549810,"coord":{"lat":51.400002,"lon":10.05},"name":"Schachtebich"},{"country":"DE","id":2840933,"coord":{"lat":51.400002,"lon":10.05},"name":"Schachtebich"},{"country":"DE","id":6551912,"coord":{"lat":54.313278,"lon":9.71771},"name":"Schacht-Audorf"},{"country":"DE","id":2840936,"coord":{"lat":54.31282,"lon":9.71586},"name":"Schacht-Audorf"},{"country":"DE","id":6548319,"coord":{"lat":54.033298,"lon":13.7833},"name":"Sauzin"},{"country":"DE","id":2841061,"coord":{"lat":54.033329,"lon":13.78333},"name":"Sauzin"},{"country":"DE","id":6555556,"coord":{"lat":49.17009,"lon":10.07867},"name":"Satteldorf"},{"country":"DE","id":2841290,"coord":{"lat":49.169529,"lon":10.07957},"name":"Satteldorf"},{"country":"DE","id":2841321,"coord":{"lat":54,"lon":11.88333},"name":"Satow-Oberhagen"},{"country":"DE","id":6554711,"coord":{"lat":50.266701,"lon":6.96667},"name":"Sassen"},{"country":"DE","id":2841358,"coord":{"lat":50.26667,"lon":6.96667},"name":"Sassen"},{"country":"DE","id":6555799,"coord":{"lat":48.6348,"lon":8.087},"name":"Sasbach"},{"country":"DE","id":2841380,"coord":{"lat":48.639709,"lon":8.09375},"name":"Sasbach"},{"country":"DE","id":6548318,"coord":{"lat":53.75,"lon":13.6333},"name":"Sarnow"},{"country":"DE","id":2841393,"coord":{"lat":53.75,"lon":13.63333},"name":"Sarnow"},{"country":"DE","id":6554661,"coord":{"lat":50.233299,"lon":6.88333},"name":"Sarmersbach"},{"country":"DE","id":2841403,"coord":{"lat":50.23333,"lon":6.88333},"name":"Sarmersbach"},{"country":"DE","id":6556192,"coord":{"lat":48.216702,"lon":12.1333},"name":"Sankt Wolfgang"},{"country":"DE","id":2841457,"coord":{"lat":48.216671,"lon":12.13333},"name":"Sankt Wolfgang"},{"country":"DE","id":6551599,"coord":{"lat":54.299999,"lon":8.63333},"name":"Sankt Peter-Ording"},{"country":"DE","id":2841484,"coord":{"lat":54.299999,"lon":8.63333},"name":"Sankt Peter-Ording"},{"country":"DE","id":6555218,"coord":{"lat":49.300301,"lon":8.10528},"name":"Sankt Martin"},{"country":"DE","id":2841517,"coord":{"lat":49.300282,"lon":8.10528},"name":"Sankt Martin"},{"country":"DE","id":6552239,"coord":{"lat":53.900002,"lon":9.25},"name":"Sankt Margarethen"},{"country":"DE","id":2841523,"coord":{"lat":53.900002,"lon":9.25},"name":"Sankt Margarethen"},{"country":"DE","id":2841546,"coord":{"lat":50.533329,"lon":10.75},"name":"Sankt Kilian"},{"country":"DE","id":6553535,"coord":{"lat":49.866699,"lon":7.76667},"name":"Sankt Katharinen"},{"country":"DE","id":2841547,"coord":{"lat":49.866669,"lon":7.76667},"name":"Sankt Katharinen"},{"country":"DE","id":6553782,"coord":{"lat":50.349998,"lon":7.2},"name":"Sankt Johann"},{"country":"DE","id":2841573,"coord":{"lat":50.349998,"lon":7.2},"name":"Sankt Johann"},{"country":"DE","id":6555297,"coord":{"lat":49.8675,"lon":8.01444},"name":"Sankt Johann"},{"country":"DE","id":2841574,"coord":{"lat":49.8675,"lon":8.01444},"name":"Sankt Johann"},{"country":"DE","id":2841577,"coord":{"lat":48.453972,"lon":9.34396},"name":"Sankt Johann"},{"country":"DE","id":2841631,"coord":{"lat":53.55513,"lon":10.01231},"name":"St. Georg"},{"country":"DE","id":2841636,"coord":{"lat":50.849998,"lon":11.9},"name":"Sankt Gangloff"},{"country":"DE","id":2841639,"coord":{"lat":50.783329,"lon":12.63333},"name":"Sankt Egidien"},{"country":"DE","id":6551370,"coord":{"lat":54.349998,"lon":9.08333},"name":"Sankt Annen"},{"country":"DE","id":2841663,"coord":{"lat":54.349998,"lon":9.08333},"name":"Sankt Annen"},{"country":"DE","id":6547795,"coord":{"lat":54.077499,"lon":12.3661},"name":"Sanitz"},{"country":"DE","id":2841683,"coord":{"lat":54.077572,"lon":12.37558},"name":"Sanitz"},{"country":"DE","id":2841684,"coord":{"lat":53.813629,"lon":13.58786},"name":"Alt-Sanitz"},{"country":"DE","id":2842047,"coord":{"lat":50,"lon":10.6},"name":"Sand"},{"country":"DE","id":6548432,"coord":{"lat":54.362,"lon":13.3001},"name":"Samtens"},{"country":"DE","id":2842059,"coord":{"lat":54.354809,"lon":13.29311},"name":"Samtens"},{"country":"DE","id":6556379,"coord":{"lat":47.763802,"lon":12.1965},"name":"Samerberg"},{"country":"DE","id":2842084,"coord":{"lat":47.776539,"lon":12.19139},"name":"Samerberg"},{"country":"DE","id":6556532,"coord":{"lat":48.616699,"lon":13.4833},"name":"Salzweg"},{"country":"DE","id":2842109,"coord":{"lat":48.616669,"lon":13.48333},"name":"Salzweg"},{"country":"DE","id":2842143,"coord":{"lat":52.067001,"lon":9.5872},"name":"Salzhemmendorf"},{"country":"DE","id":6554266,"coord":{"lat":50.666698,"lon":8.05},"name":"Salzburg"},{"country":"DE","id":2842167,"coord":{"lat":50.666672,"lon":8.05},"name":"Salzburg"},{"country":"DE","id":6551494,"coord":{"lat":53.666698,"lon":10.8333},"name":"Salem"},{"country":"DE","id":2842305,"coord":{"lat":53.666672,"lon":10.83333},"name":"Salem"},{"country":"DE","id":6556481,"coord":{"lat":48.783298,"lon":13.35},"name":"Saldenburg"},{"country":"DE","id":2842311,"coord":{"lat":48.783329,"lon":13.35},"name":"Saldenburg"},{"country":"DE","id":6548431,"coord":{"lat":54.533298,"lon":13.55},"name":"Sagard"},{"country":"DE","id":2842434,"coord":{"lat":54.525558,"lon":13.55387},"name":"Sagard"},{"country":"DE","id":6553111,"coord":{"lat":52.1833,"lon":7.63333},"name":"Saerbeck"},{"country":"DE","id":2842441,"coord":{"lat":52.173721,"lon":7.63395},"name":"Saerbeck"},{"country":"DE","id":2842568,"coord":{"lat":49.299999,"lon":10.65},"name":"Sachsen"},{"country":"DE","id":6549717,"coord":{"lat":52.466702,"lon":11.25},"name":"Sachau"},{"country":"DE","id":2842584,"coord":{"lat":52.474209,"lon":11.26081},"name":"Sachau"},{"country":"DE","id":2842638,"coord":{"lat":49.51585,"lon":6.60742},"name":"Saarhoelzbach"},{"country":"DE","id":6550565,"coord":{"lat":50.9333,"lon":12.4289},"name":"Saara"},{"country":"DE","id":2842656,"coord":{"lat":50.933331,"lon":12.41667},"name":"Saara"},{"country":"DE","id":2842720,"coord":{"lat":50.316669,"lon":10.36667},"name":"Saal an der Saale"},{"country":"DE","id":6548140,"coord":{"lat":54.311321,"lon":12.49798},"name":"Saal"},{"country":"DE","id":2842725,"coord":{"lat":54.310509,"lon":12.49935},"name":"Saal"},{"country":"DE","id":6554095,"coord":{"lat":50.200642,"lon":7.8063},"name":"Ruppertshofen"},{"country":"DE","id":2842972,"coord":{"lat":50.200859,"lon":7.80553},"name":"Ruppertshofen"},{"country":"DE","id":6556638,"coord":{"lat":49.216702,"lon":12.7667},"name":"Runding"},{"country":"DE","id":2843054,"coord":{"lat":49.216671,"lon":12.76667},"name":"Runding"},{"country":"DE","id":6551911,"coord":{"lat":54.242298,"lon":10.0367},"name":"Rumohr"},{"country":"DE","id":2843097,"coord":{"lat":54.25,"lon":10.03333},"name":"Rumohr"},{"country":"DE","id":6555888,"coord":{"lat":47.650002,"lon":7.65},"name":"R\u00fcmmingen"},{"country":"DE","id":2843099,"coord":{"lat":47.650002,"lon":7.65},"name":"Rummingen"},{"country":"DE","id":6559315,"coord":{"lat":49.905762,"lon":7.81029},"name":"R\u00fcmmelsheim"},{"country":"DE","id":2843104,"coord":{"lat":49.933071,"lon":7.85977},"name":"Rummelsheim"},{"country":"DE","id":2843185,"coord":{"lat":48.533329,"lon":12.68333},"name":"Ruhstorf"},{"country":"DE","id":6547699,"coord":{"lat":52.916698,"lon":11.8667},"name":"R\u00fchst\u00e4dt"},{"country":"DE","id":2843190,"coord":{"lat":52.916672,"lon":11.86667},"name":"Ruhstadt"},{"country":"DE","id":6556410,"coord":{"lat":47.7425,"lon":12.63668},"name":"Ruhpolding"},{"country":"DE","id":2843203,"coord":{"lat":47.76667,"lon":12.65},"name":"Ruhpolding"},{"country":"DE","id":6547905,"coord":{"lat":53.8167,"lon":11.9333},"name":"R\u00fchn"},{"country":"DE","id":2843214,"coord":{"lat":53.816669,"lon":11.93333},"name":"Ruhn"},{"country":"DE","id":6556852,"coord":{"lat":49.400002,"lon":10.5833},"name":"R\u00fcgland"},{"country":"DE","id":2843290,"coord":{"lat":49.400002,"lon":10.58333},"name":"Rugland"},{"country":"DE","id":6551987,"coord":{"lat":54.6833,"lon":9.76667},"name":"R\u00fcgge"},{"country":"DE","id":2843302,"coord":{"lat":54.683331,"lon":9.76667},"name":"Rugge"},{"country":"DE","id":6553562,"coord":{"lat":49.849998,"lon":7.81667},"name":"R\u00fcdesheim"},{"country":"DE","id":2843396,"coord":{"lat":49.849998,"lon":7.81667},"name":"Rudesheim"},{"country":"DE","id":6550151,"coord":{"lat":51.099998,"lon":11.45},"name":"Rudersdorf"},{"country":"DE","id":2843409,"coord":{"lat":51.099998,"lon":11.45},"name":"Rudersdorf"},{"country":"DE","id":6556200,"coord":{"lat":48.599998,"lon":11.7667},"name":"Rudelzhausen"},{"country":"DE","id":2843445,"coord":{"lat":48.599998,"lon":11.76667},"name":"Rudelzhausen"},{"country":"DE","id":6551986,"coord":{"lat":54.8167,"lon":9.58333},"name":"R\u00fcde"},{"country":"DE","id":2843458,"coord":{"lat":54.816669,"lon":9.58333},"name":"Rude"},{"country":"DE","id":6557228,"coord":{"lat":47.666698,"lon":10.55},"name":"R\u00fcckholz"},{"country":"DE","id":2843472,"coord":{"lat":47.666672,"lon":10.55},"name":"Ruckholz"},{"country":"DE","id":6550514,"coord":{"lat":50.8167,"lon":12.2167},"name":"R\u00fcckersdorf"},{"country":"DE","id":2843495,"coord":{"lat":50.816669,"lon":12.21667},"name":"Ruckersdorf"},{"country":"DE","id":6556894,"coord":{"lat":49.492199,"lon":11.2374},"name":"R\u00fcckersdorf"},{"country":"DE","id":2843497,"coord":{"lat":49.49757,"lon":11.24751},"name":"Ruckersdorf"},{"country":"DE","id":6548316,"coord":{"lat":54.099998,"lon":13.7},"name":"Rubenow"},{"country":"DE","id":2843553,"coord":{"lat":54.099998,"lon":13.7},"name":"Rubenow"},{"country":"DE","id":2843574,"coord":{"lat":51.75,"lon":10.83333},"name":"Rubeland"},{"country":"DE","id":6553534,"coord":{"lat":49.866699,"lon":7.81667},"name":"Roxheim"},{"country":"DE","id":2843591,"coord":{"lat":49.866669,"lon":7.81667},"name":"Roxheim"},{"country":"DE","id":6547793,"coord":{"lat":54.1833,"lon":12.2333},"name":"R\u00f6vershagen"},{"country":"DE","id":2843603,"coord":{"lat":54.176682,"lon":12.24276},"name":"Rovershagen"},{"country":"DE","id":2843673,"coord":{"lat":49.510281,"lon":9.97111},"name":"Rottingen"},{"country":"DE","id":2843682,"coord":{"lat":48.35825,"lon":13.20162},"name":"Rotthalmunster"},{"country":"DE","id":6557097,"coord":{"lat":49.790401,"lon":10.0247},"name":"Rottendorf"},{"country":"DE","id":2843724,"coord":{"lat":49.799999,"lon":10.03333},"name":"Rottendorf"},{"country":"DE","id":2843728,"coord":{"lat":48.700001,"lon":12.03333},"name":"Rottenburg an der Laaber"},{"country":"DE","id":6556441,"coord":{"lat":47.733299,"lon":10.9667},"name":"Rottenbuch"},{"country":"DE","id":2843731,"coord":{"lat":47.73333,"lon":10.96667},"name":"Rottenbuch"},{"country":"DE","id":6550333,"coord":{"lat":50.6833,"lon":11.1667},"name":"Rottenbach"},{"country":"DE","id":2843738,"coord":{"lat":50.683331,"lon":11.16667},"name":"Rottenbach"},{"country":"DE","id":6556873,"coord":{"lat":49.66507,"lon":10.91835},"name":"R\u00f6ttenbach"},{"country":"DE","id":2843741,"coord":{"lat":49.664291,"lon":10.92607},"name":"Rottenbach"},{"country":"DE","id":6556280,"coord":{"lat":47.700001,"lon":11.7667},"name":"Rottach-Egern"},{"country":"DE","id":2843775,"coord":{"lat":47.689659,"lon":11.77065},"name":"Rottach-Egern"},{"country":"DE","id":6553441,"coord":{"lat":50.633301,"lon":7.51667},"name":"Rott"},{"country":"DE","id":2843798,"coord":{"lat":50.633331,"lon":7.51667},"name":"Rott"},{"country":"DE","id":2843803,"coord":{"lat":47.920078,"lon":12.08771},"name":"Rott"},{"country":"DE","id":6553632,"coord":{"lat":49.716702,"lon":7.26667},"name":"R\u00f6tsweiler-Nockenthal"},{"country":"DE","id":2843810,"coord":{"lat":49.716671,"lon":7.26667},"name":"Rotsweiler-Nockenthal"},{"country":"DE","id":2844042,"coord":{"lat":49.89056,"lon":9.59139},"name":"Rothenfels"},{"country":"DE","id":6549182,"coord":{"lat":51.650002,"lon":11.75},"name":"Rothenburg"},{"country":"DE","id":2844061,"coord":{"lat":51.650002,"lon":11.75},"name":"Rothenburg"},{"country":"DE","id":2844126,"coord":{"lat":49.483009,"lon":11.24116},"name":"Rothenbach an der Pegnitz"},{"country":"DE","id":6554264,"coord":{"lat":50.5667,"lon":7.88333},"name":"Rothenbach"},{"country":"DE","id":2844143,"coord":{"lat":50.566669,"lon":7.88333},"name":"Rothenbach"},{"country":"DE","id":2844148,"coord":{"lat":47.616669,"lon":9.98333},"name":"Rothenbach"},{"country":"DE","id":6553440,"coord":{"lat":50.75,"lon":7.7},"name":"Roth"},{"country":"DE","id":2844249,"coord":{"lat":50.75,"lon":7.7},"name":"Roth"},{"country":"DE","id":6553962,"coord":{"lat":50.083302,"lon":7.45},"name":"Roth"},{"country":"DE","id":2844260,"coord":{"lat":50.083328,"lon":7.45},"name":"Roth"},{"country":"DE","id":6553533,"coord":{"lat":49.9459,"lon":7.80186},"name":"Roth"},{"country":"DE","id":2844262,"coord":{"lat":49.933331,"lon":7.8},"name":"Roth"},{"country":"DE","id":6552318,"coord":{"lat":52.416698,"lon":10.5333},"name":"R\u00f6tgesb\u00fcttel"},{"country":"DE","id":2844274,"coord":{"lat":52.416672,"lon":10.53333},"name":"Rotgesbuttel"},{"country":"DE","id":6556025,"coord":{"lat":48.016701,"lon":10.0333},"name":"Rot an der Rot"},{"country":"DE","id":2844566,"coord":{"lat":48.012951,"lon":10.03026},"name":"Rot an der Rot"},{"country":"DE","id":6555555,"coord":{"lat":49.25,"lon":10.0167},"name":"Rot am See"},{"country":"DE","id":2844567,"coord":{"lat":49.25,"lon":10.01667},"name":"Rot am See"},{"country":"DE","id":2844579,"coord":{"lat":47.916672,"lon":9.1},"name":"Rot"},{"country":"DE","id":7602443,"coord":{"lat":53.474251,"lon":14.1255},"name":"Rossow"},{"country":"DE","id":2844634,"coord":{"lat":53.474251,"lon":14.1255},"name":"Rossow"},{"country":"DE","id":2844654,"coord":{"lat":51.883331,"lon":12.25},"name":"Rosslau"},{"country":"DE","id":2844701,"coord":{"lat":48.429428,"lon":10.46911},"name":"Rosshaupten"},{"country":"DE","id":6550037,"coord":{"lat":50.700001,"lon":10.2167},"name":"Ro\u00dfdorf"},{"country":"DE","id":2844753,"coord":{"lat":50.700001,"lon":10.21667},"name":"Rossdorf"},{"country":"DE","id":2844829,"coord":{"lat":48.583328,"lon":12.95},"name":"Rossbach"},{"country":"DE","id":6554262,"coord":{"lat":50.616699,"lon":7.68333},"name":"Ro\u00dfbach"},{"country":"DE","id":2844836,"coord":{"lat":50.616669,"lon":7.68333},"name":"Rossbach"},{"country":"DE","id":6556568,"coord":{"lat":48.599998,"lon":12.9333},"name":"Ro\u00dfbach"},{"country":"DE","id":2844844,"coord":{"lat":48.599998,"lon":12.93333},"name":"Rossbach"},{"country":"DE","id":6547681,"coord":{"lat":52.466702,"lon":12.7333},"name":"Roskow"},{"country":"DE","id":2844880,"coord":{"lat":52.466671,"lon":12.73333},"name":"Roskow"},{"country":"DE","id":6547850,"coord":{"lat":53.633301,"lon":13.0333},"name":"Rosenow"},{"country":"DE","id":2844947,"coord":{"lat":53.633331,"lon":13.03333},"name":"Rosenow"},{"country":"DE","id":6555385,"coord":{"lat":49.349998,"lon":7.43333},"name":"Rosenkopf"},{"country":"DE","id":2844956,"coord":{"lat":49.349998,"lon":7.43333},"name":"Rosenkopf"},{"country":"DE","id":6555653,"coord":{"lat":49.455799,"lon":9.47306},"name":"Rosenberg"},{"country":"DE","id":2845054,"coord":{"lat":49.45583,"lon":9.47306},"name":"Rosenberg"},{"country":"DE","id":6555594,"coord":{"lat":49.016701,"lon":10.0167},"name":"Rosenberg"},{"country":"DE","id":2845056,"coord":{"lat":49.01667,"lon":10.01667},"name":"Rosenberg"},{"country":"DE","id":6552238,"coord":{"lat":53.97802,"lon":9.72739},"name":"Rosdorf"},{"country":"DE","id":2845130,"coord":{"lat":53.97802,"lon":9.72739},"name":"Rosdorf"},{"country":"DE","id":2845160,"coord":{"lat":50.303322,"lon":8.68976},"name":"Rosbach vor der Hohe"},{"country":"DE","id":6550036,"coord":{"lat":50.716702,"lon":10.25},"name":"Rosa"},{"country":"DE","id":2845171,"coord":{"lat":50.716671,"lon":10.25},"name":"Rosa"},{"country":"DE","id":6553260,"coord":{"lat":50.950001,"lon":9.85},"name":"Ronshausen"},{"country":"DE","id":2845209,"coord":{"lat":50.950001,"lon":9.85},"name":"Ronshausen"},{"country":"DE","id":6552828,"coord":{"lat":53.099998,"lon":10.65},"name":"R\u00f6mstedt"},{"country":"DE","id":2845264,"coord":{"lat":53.099998,"lon":10.65},"name":"Romstedt"},{"country":"DE","id":6551490,"coord":{"lat":53.716702,"lon":10.7667},"name":"R\u00f6mnitz"},{"country":"DE","id":2845270,"coord":{"lat":53.716671,"lon":10.76667},"name":"Romnitz"},{"country":"DE","id":6553039,"coord":{"lat":51.030499,"lon":6.7011},"name":"Rommerskirchen"},{"country":"DE","id":2845273,"coord":{"lat":51.033329,"lon":6.68333},"name":"Rommerskirchen"},{"country":"DE","id":6554596,"coord":{"lat":50.200001,"lon":6.45},"name":"Rommersheim"},{"country":"DE","id":2845275,"coord":{"lat":50.200001,"lon":6.45},"name":"Rommersheim"},{"country":"DE","id":6548382,"coord":{"lat":53.450001,"lon":11.9333},"name":"Rom"},{"country":"DE","id":2845371,"coord":{"lat":53.444721,"lon":11.94866},"name":"Rom"},{"country":"AT","id":7871947,"coord":{"lat":48.026989,"lon":16.488159},"name":"Gramatneusiedl"},{"country":"AT","id":2778131,"coord":{"lat":48.01667,"lon":16.48333},"name":"Gramatneusiedl"},{"country":"AT","id":7873237,"coord":{"lat":48.380482,"lon":14.19004},"name":"Gramastetten"},{"country":"AT","id":2778133,"coord":{"lat":48.38028,"lon":14.19185},"name":"Gramastetten"},{"country":"AT","id":7872615,"coord":{"lat":47.26395,"lon":10.52894},"name":"Gramais"},{"country":"AT","id":2778135,"coord":{"lat":47.26667,"lon":10.53333},"name":"Gramais"},{"country":"AT","id":7871908,"coord":{"lat":48.414169,"lon":15.79075},"name":"Grafenw\u00f6rth"},{"country":"AT","id":2778141,"coord":{"lat":48.400002,"lon":15.78333},"name":"Grafenworth"},{"country":"AT","id":7871632,"coord":{"lat":46.612572,"lon":14.47533},"name":"Grafenstein"},{"country":"AT","id":2778145,"coord":{"lat":46.599998,"lon":14.46667},"name":"Grafenstein"},{"country":"AT","id":7873081,"coord":{"lat":48.49324,"lon":15.16036},"name":"Grafenschlag"},{"country":"AT","id":2778148,"coord":{"lat":48.5,"lon":15.16667},"name":"Grafenschlag"},{"country":"AT","id":7872738,"coord":{"lat":47.367401,"lon":16.06283},"name":"Grafenschachen"},{"country":"AT","id":2778149,"coord":{"lat":47.366669,"lon":16.066669},"name":"Grafenschachen"},{"country":"AT","id":7872912,"coord":{"lat":48.43745,"lon":15.74375},"name":"Grafenegg"},{"country":"AT","id":2778152,"coord":{"lat":48.416672,"lon":15.73333},"name":"Grafenegg"},{"country":"AT","id":7873425,"coord":{"lat":47.346218,"lon":15.98506},"name":"Grafendorf bei Hartberg"},{"country":"AT","id":2778154,"coord":{"lat":47.349998,"lon":16},"name":"Grafendorf bei Hartberg"},{"country":"AT","id":7873374,"coord":{"lat":46.843731,"lon":15.82459},"name":"Grabersdorf"},{"country":"AT","id":2778191,"coord":{"lat":46.84306,"lon":15.82472},"name":"Grabersdorf"},{"country":"AT","id":7872676,"coord":{"lat":47.336929,"lon":9.66319},"name":"G\u00f6tzis"},{"country":"AT","id":2778218,"coord":{"lat":47.333061,"lon":9.63306},"name":"Gotzis"},{"country":"AT","id":7872533,"coord":{"lat":47.223621,"lon":11.32343},"name":"G\u00f6tzens"},{"country":"AT","id":2778220,"coord":{"lat":47.236061,"lon":11.31154},"name":"Gotzens"},{"country":"AT","id":2778221,"coord":{"lat":48.013329,"lon":16.58028},"name":"G\u00f6tzendorf an der Leitha"},{"country":"AT","id":2778224,"coord":{"lat":48.01667,"lon":16.58333},"name":"Gotzendorf an der Leitha"},{"country":"AT","id":7873026,"coord":{"lat":47.775349,"lon":14.95024},"name":"G\u00f6stling an der Ybbs"},{"country":"AT","id":2778252,"coord":{"lat":47.799999,"lon":14.91667},"name":"Gostling an der Ybbs"},{"country":"AT","id":7873399,"coord":{"lat":46.999519,"lon":15.48222},"name":"G\u00f6ssendorf"},{"country":"AT","id":2778270,"coord":{"lat":46.98333,"lon":15.48333},"name":"Gossendorf"},{"country":"AT","id":7873373,"coord":{"lat":46.91357,"lon":15.93084},"name":"Gossendorf"},{"country":"AT","id":2778271,"coord":{"lat":46.916672,"lon":15.91667},"name":"Gossendorf"},{"country":"AT","id":7872438,"coord":{"lat":47.38026,"lon":13.82866},"name":"G\u00f6ssenberg"},{"country":"AT","id":2778272,"coord":{"lat":47.416672,"lon":13.81667},"name":"Gossenberg"},{"country":"AT","id":7873534,"coord":{"lat":46.730518,"lon":15.81389},"name":"Gosdorf"},{"country":"AT","id":2778290,"coord":{"lat":46.727779,"lon":15.7925},"name":"Gosdorf"},{"country":"AT","id":7873080,"coord":{"lat":48.730679,"lon":15.39102},"name":"G\u00f6pfritz an der Wild"},{"country":"AT","id":2778340,"coord":{"lat":48.716671,"lon":15.4},"name":"Gopfritz an der Wild"},{"country":"AT","id":7872716,"coord":{"lat":47.897049,"lon":16.913349},"name":"Gols"},{"country":"AT","id":2778355,"coord":{"lat":47.896889,"lon":16.911131},"name":"Gols"},{"country":"AT","id":7873284,"coord":{"lat":47.561199,"lon":13.12067},"name":"Golling an der Salzach"},{"country":"AT","id":2778361,"coord":{"lat":47.599998,"lon":13.16667},"name":"Golling an der Salzach"},{"country":"AT","id":2778367,"coord":{"lat":48.5,"lon":16.16667},"name":"G\u00f6llersdorf"},{"country":"AT","id":2778368,"coord":{"lat":48.48333,"lon":16.116671},"name":"Gollersdorf"},{"country":"AT","id":7872150,"coord":{"lat":48.326469,"lon":14.10044},"name":"Goldw\u00f6rth"},{"country":"AT","id":2778376,"coord":{"lat":48.326641,"lon":14.10112},"name":"Goldworth"},{"country":"AT","id":7872223,"coord":{"lat":47.323318,"lon":13.07437},"name":"Goldegg"},{"country":"AT","id":2778385,"coord":{"lat":47.318748,"lon":13.09922},"name":"Goldegg"},{"country":"AT","id":7873743,"coord":{"lat":47.239819,"lon":9.63332},"name":"G\u00f6fis"},{"country":"AT","id":2778404,"coord":{"lat":47.233559,"lon":9.63458},"name":"Gofis"},{"country":"AT","id":7872812,"coord":{"lat":46.793739,"lon":13.93802},"name":"Gnesau"},{"country":"AT","id":2778424,"coord":{"lat":46.77544,"lon":13.96251},"name":"Gnesau"},{"country":"AT","id":7872290,"coord":{"lat":46.89045,"lon":15.81334},"name":"Gnas"},{"country":"AT","id":2778427,"coord":{"lat":46.873058,"lon":15.82528},"name":"Gnas"},{"country":"AT","id":7871840,"coord":{"lat":48.60704,"lon":16.38073},"name":"Gnadendorf"},{"country":"AT","id":2778431,"coord":{"lat":48.616669,"lon":16.4},"name":"Gnadendorf"},{"country":"AT","id":7871752,"coord":{"lat":48.78326,"lon":14.98896},"name":"Gm\u00fcnd"},{"country":"AT","id":2778439,"coord":{"lat":48.768299,"lon":14.9808},"name":"Gmund"},{"country":"AT","id":2778441,"coord":{"lat":46.907219,"lon":13.52944},"name":"Gmuend"},{"country":"AT","id":7872289,"coord":{"lat":46.870251,"lon":15.68903},"name":"Glojach"},{"country":"AT","id":2778454,"coord":{"lat":46.866669,"lon":15.66667},"name":"Glojach"},{"country":"AT","id":7872991,"coord":{"lat":47.669991,"lon":15.92462},"name":"Gloggnitz"},{"country":"AT","id":2778455,"coord":{"lat":47.67487,"lon":15.93893},"name":"Gloggnitz"},{"country":"AT","id":7871642,"coord":{"lat":46.91328,"lon":14.08213},"name":"Gl\u00f6dnitz"},{"country":"AT","id":2778456,"coord":{"lat":46.866669,"lon":14.11667},"name":"Glodnitz"},{"country":"AT","id":7871675,"coord":{"lat":46.545311,"lon":14.70562},"name":"Globasnitz"},{"country":"AT","id":2778467,"coord":{"lat":46.556938,"lon":14.70278},"name":"Globasnitz"},{"country":"AT","id":7872861,"coord":{"lat":48.244862,"lon":16.64411},"name":"Glinzendorf"},{"country":"AT","id":2778470,"coord":{"lat":48.246052,"lon":16.6406},"name":"Glinzendorf"},{"country":"AT","id":7873560,"coord":{"lat":47.106079,"lon":15.71269},"name":"Gleisdorf"},{"country":"AT","id":2778478,"coord":{"lat":47.105591,"lon":15.71011},"name":"Gleisdorf"},{"country":"AT","id":7872402,"coord":{"lat":46.74691,"lon":15.36494},"name":"Gleinst\u00e4tten"},{"country":"AT","id":2778483,"coord":{"lat":46.753609,"lon":15.36972},"name":"Gleinstatten"},{"country":"AT","id":7872811,"coord":{"lat":46.721512,"lon":14.21168},"name":"Glanegg"},{"country":"AT","id":2778533,"coord":{"lat":46.713612,"lon":14.20639},"name":"Glanegg"},{"country":"AT","id":7871851,"coord":{"lat":48.09391,"lon":16.2337},"name":"Gie\u00dfh\u00fcbl"},{"country":"AT","id":2778573,"coord":{"lat":48.097801,"lon":16.234791},"name":"Giesshubl"},{"country":"AT","id":7872915,"coord":{"lat":48.509338,"lon":15.48534},"name":"Gf\u00f6hl"},{"country":"AT","id":2778599,"coord":{"lat":48.51667,"lon":15.48333},"name":"Gfohl"},{"country":"AT","id":7873559,"coord":{"lat":47.136292,"lon":15.86931},"name":"Gersdorf an der Feistritz"},{"country":"AT","id":2778636,"coord":{"lat":47.166672,"lon":15.85},"name":"Gersdorf an der Feistritz"},{"country":"AT","id":7871880,"coord":{"lat":48.194901,"lon":15.55375},"name":"Gerersdorf"},{"country":"AT","id":2778682,"coord":{"lat":48.183331,"lon":15.55},"name":"Gerersdorf"},{"country":"AT","id":7871946,"coord":{"lat":48.314281,"lon":16.475571},"name":"Gerasdorf bei Wien"},{"country":"AT","id":2778690,"coord":{"lat":48.294472,"lon":16.467649},"name":"Gerasdorf bei Wien"},{"country":"AT","id":7871776,"coord":{"lat":48.780998,"lon":15.66489},"name":"Geras"},{"country":"AT","id":2778691,"coord":{"lat":48.797249,"lon":15.67268},"name":"Geras"},{"country":"AT","id":7873542,"coord":{"lat":47.163712,"lon":15.15067},"name":"Geistthal"},{"country":"AT","id":2778718,"coord":{"lat":47.166672,"lon":15.16667},"name":"Geistthal"},{"country":"AT","id":7872914,"coord":{"lat":48.41119,"lon":15.69746},"name":"Gedersdorf"},{"country":"AT","id":2778763,"coord":{"lat":48.433189,"lon":15.68865},"name":"Gedersdorf"},{"country":"AT","id":7871839,"coord":{"lat":48.49707,"lon":16.59613},"name":"Gaweinstal"},{"country":"AT","id":2778772,"coord":{"lat":48.466671,"lon":16.58333},"name":"Gaweinstal"},{"country":"AT","id":7872956,"coord":{"lat":48.65955,"lon":16.380079},"name":"Gaubitsch"},{"country":"AT","id":2778785,"coord":{"lat":48.650002,"lon":16.383329},"name":"Gaubitsch"},{"country":"AT","id":7872715,"coord":{"lat":48.009029,"lon":16.983549},"name":"Gattendorf"},{"country":"AT","id":2778794,"coord":{"lat":48.01667,"lon":16.98333},"name":"Gattendorf"},{"country":"AT","id":7873044,"coord":{"lat":48.894138,"lon":15.21793},"name":"Gastern"},{"country":"AT","id":2778805,"coord":{"lat":48.894459,"lon":15.22027},"name":"Gastern"},{"country":"AT","id":7872507,"coord":{"lat":47.38377,"lon":15.57722},"name":"Gasen"},{"country":"AT","id":2778832,"coord":{"lat":47.383331,"lon":15.56667},"name":"Gasen"},{"country":"AT","id":7872142,"coord":{"lat":47.998711,"lon":14.40349},"name":"Garsten"},{"country":"AT","id":2778843,"coord":{"lat":48.0224,"lon":14.40747},"name":"Garsten"},{"country":"AT","id":7871775,"coord":{"lat":48.59462,"lon":15.65692},"name":"Gars am Kamp"},{"country":"AT","id":2778845,"coord":{"lat":48.583328,"lon":15.65},"name":"Gars am Kamp"},{"country":"AT","id":7873350,"coord":{"lat":46.7836,"lon":15.0721},"name":"Garanas"},{"country":"AT","id":2778864,"coord":{"lat":46.76667,"lon":15.11667},"name":"Garanas"},{"country":"AT","id":7873349,"coord":{"lat":46.875641,"lon":15.18144},"name":"Bad Gams"},{"country":"AT","id":2778897,"coord":{"lat":46.871109,"lon":15.22472},"name":"Bad Gams"},{"country":"AT","id":7873492,"coord":{"lat":47.661331,"lon":14.83777},"name":"Gams bei Hieflau"},{"country":"AT","id":2778926,"coord":{"lat":47.666672,"lon":14.78333},"name":"Gams bei Hieflau"},{"country":"AT","id":7873258,"coord":{"lat":47.997478,"lon":13.5526},"name":"Gampern"},{"country":"AT","id":2778929,"coord":{"lat":47.98745,"lon":13.55927},"name":"Gampern"},{"country":"AT","id":7872400,"coord":{"lat":46.710312,"lon":15.52799},"name":"Gamlitz"},{"country":"AT","id":2778945,"coord":{"lat":46.72028,"lon":15.55333},"name":"Gamlitz"},{"country":"AT","id":7872577,"coord":{"lat":46.922279,"lon":10.17996},"name":"Galt\u00fcr"},{"country":"AT","id":2778953,"coord":{"lat":46.966671,"lon":10.18333},"name":"Galtur"},{"country":"AT","id":7872628,"coord":{"lat":47.35548,"lon":11.76925},"name":"Gallzein"},{"country":"AT","id":2778961,"coord":{"lat":47.366669,"lon":11.76667},"name":"Gallzein"},{"country":"AT","id":7873236,"coord":{"lat":48.354309,"lon":14.41269},"name":"Gallneukirchen"},{"country":"AT","id":2778966,"coord":{"lat":48.35363,"lon":14.41604},"name":"Gallneukirchen"},{"country":"AT","id":7873541,"coord":{"lat":47.185169,"lon":15.08686},"name":"Gallmannsegg"},{"country":"AT","id":2778967,"coord":{"lat":47.183331,"lon":15.06667},"name":"Gallmannsegg"},{"country":"AT","id":7871674,"coord":{"lat":46.5471,"lon":14.50446},"name":"Gallizien"},{"country":"AT","id":2778968,"coord":{"lat":46.549999,"lon":14.51667},"name":"Gallizien"},{"country":"AT","id":7872658,"coord":{"lat":47.484741,"lon":9.58646},"name":"Gai\u00dfau"},{"country":"AT","id":2778996,"coord":{"lat":47.466671,"lon":9.6},"name":"Gaissau"},{"country":"AT","id":7872141,"coord":{"lat":47.894192,"lon":14.70496},"name":"Gaflenz"},{"country":"AT","id":2779048,"coord":{"lat":47.883331,"lon":14.71667},"name":"Gaflenz"},{"country":"AT","id":7873069,"coord":{"lat":48.23082,"lon":16.135281},"name":"Gablitz"},{"country":"AT","id":2779061,"coord":{"lat":48.228561,"lon":16.154369},"name":"Gablitz"},{"country":"AT","id":7872399,"coord":{"lat":46.78986,"lon":15.60099},"name":"Gabersdorf"},{"country":"AT","id":2779064,"coord":{"lat":46.777222,"lon":15.58417},"name":"Gabersdorf"},{"country":"AT","id":7873449,"coord":{"lat":47.310219,"lon":14.65726},"name":"Gaal"},{"country":"AT","id":2779073,"coord":{"lat":47.26667,"lon":14.66667},"name":"Gaal"},{"country":"AT","id":7872976,"coord":{"lat":48.052608,"lon":16.218031},"name":"Gaaden"},{"country":"AT","id":2779074,"coord":{"lat":48.053638,"lon":16.200029},"name":"Gaaden"},{"country":"AT","id":7873732,"coord":{"lat":47.488819,"lon":9.65103},"name":"Fu\u00dfach"},{"country":"AT","id":2779082,"coord":{"lat":47.479328,"lon":9.66278},"name":"Fussach"},{"country":"AT","id":7872206,"coord":{"lat":47.7948,"lon":13.30735},"name":"Fuschl am See"},{"country":"AT","id":2779084,"coord":{"lat":47.799999,"lon":13.3},"name":"Fuschl am See"},{"country":"AT","id":7872836,"coord":{"lat":47.971008,"lon":15.95128},"name":"Furth an der Triesting"},{"country":"AT","id":2779094,"coord":{"lat":47.973259,"lon":15.97326},"name":"Furth an der Triesting"},{"country":"AT","id":7873605,"coord":{"lat":47.138988,"lon":11.34691},"name":"Fulpmes"},{"country":"AT","id":2779143,"coord":{"lat":47.166672,"lon":11.35},"name":"Fulpmes"},{"country":"AT","id":7872627,"coord":{"lat":47.347111,"lon":11.85457},"name":"F\u00fcgen"},{"country":"AT","id":2779154,"coord":{"lat":47.349998,"lon":11.85},"name":"Fugen"},{"country":"AT","id":7872328,"coord":{"lat":47.283859,"lon":15.27515},"name":"Frohnleiten"},{"country":"AT","id":2779202,"coord":{"lat":47.26667,"lon":15.31667},"name":"Frohnleiten"},{"country":"AT","id":7873604,"coord":{"lat":47.310051,"lon":11.59547},"name":"Fritzens"},{"country":"AT","id":2779214,"coord":{"lat":47.299999,"lon":11.58333},"name":"Fritzens"},{"country":"AT","id":7872801,"coord":{"lat":46.72345,"lon":13.70847},"name":"Fresach"},{"country":"AT","id":2779271,"coord":{"lat":46.715561,"lon":13.69083},"name":"Fresach"},{"country":"AT","id":7872263,"coord":{"lat":46.852501,"lon":15.14863},"name":"Freiland bei Deutschlandsberg"},{"country":"AT","id":2779288,"coord":{"lat":46.833328,"lon":15.13333},"name":"Freiland bei Deutschlandsberg"},{"country":"AT","id":7873742,"coord":{"lat":47.323952,"lon":9.69947},"name":"Fraxern"},{"country":"AT","id":2779308,"coord":{"lat":47.31498,"lon":9.67391},"name":"Fraxern"},{"country":"AT","id":7871586,"coord":{"lat":47.828732,"lon":16.922239},"name":"Frauenkirchen"},{"country":"AT","id":2779324,"coord":{"lat":47.836781,"lon":16.92581},"name":"Frauenkirchen"},{"country":"AT","id":7872256,"coord":{"lat":47.42728,"lon":15.37091},"name":"Frauenberg"},{"country":"AT","id":2779339,"coord":{"lat":47.428551,"lon":15.34206},"name":"Frauenberg"},{"country":"AT","id":7873370,"coord":{"lat":46.913631,"lon":15.62539},"name":"Frannach"},{"country":"AT","id":2779372,"coord":{"lat":46.913059,"lon":15.63361},"name":"Frannach"},{"country":"AT","id":7873011,"coord":{"lat":47.980148,"lon":15.32267},"name":"Frankenfels"},{"country":"AT","id":2779379,"coord":{"lat":47.982342,"lon":15.32593},"name":"Frankenfels"},{"country":"AT","id":2779380,"coord":{"lat":48.068439,"lon":13.49065},"name":"Frankenburg"},{"country":"AT","id":7873255,"coord":{"lat":48.030701,"lon":13.4166},"name":"Fornach"},{"country":"AT","id":2779424,"coord":{"lat":48.02277,"lon":13.42941},"name":"Fornach"},{"country":"AT","id":7873685,"coord":{"lat":47.414379,"lon":10.60472},"name":"Forchach"},{"country":"AT","id":2779433,"coord":{"lat":47.416672,"lon":10.58333},"name":"Forchach"},{"country":"AT","id":7872378,"coord":{"lat":47.218269,"lon":14.68186},"name":"Fohnsdorf"},{"country":"AT","id":2779450,"coord":{"lat":47.200001,"lon":14.68333},"name":"Fohnsdorf"},{"country":"AT","id":7873558,"coord":{"lat":47.257141,"lon":15.74534},"name":"Floing"},{"country":"AT","id":2779477,"coord":{"lat":47.26667,"lon":15.75},"name":"Floing"},{"country":"AT","id":7873662,"coord":{"lat":47.14109,"lon":10.41488},"name":"Flirsch"},{"country":"AT","id":2779480,"coord":{"lat":47.150002,"lon":10.4},"name":"Flirsch"},{"country":"AT","id":7873603,"coord":{"lat":47.253792,"lon":11.11393},"name":"Flaurling"},{"country":"AT","id":2779499,"coord":{"lat":47.283329,"lon":11.11667},"name":"Flaurling"},{"country":"AT","id":7871652,"coord":{"lat":46.967609,"lon":13.06153},"name":"Flattach"},{"country":"AT","id":2779504,"coord":{"lat":46.93861,"lon":13.13444},"name":"Flattach"},{"country":"AT","id":7872394,"coord":{"lat":47.223801,"lon":14.74563},"name":"Flatschach"},{"country":"AT","id":2779506,"coord":{"lat":47.216671,"lon":14.75},"name":"Flatschach"},{"country":"AT","id":7873369,"coord":{"lat":46.996738,"lon":15.79368},"name":"Fladnitz im Raabtal"},{"country":"AT","id":2779514,"coord":{"lat":46.991669,"lon":15.78528},"name":"Fladnitz im Raabtal"},{"country":"AT","id":7873310,"coord":{"lat":47.292042,"lon":13.39906},"name":"Flachau"},{"country":"AT","id":2779522,"coord":{"lat":47.344059,"lon":13.39148},"name":"Flachau"},{"country":"AT","id":7872575,"coord":{"lat":47.075489,"lon":10.58841},"name":"Fiss"},{"country":"AT","id":2779525,"coord":{"lat":47.049999,"lon":10.61667},"name":"Fiss"},{"country":"AT","id":7873557,"coord":{"lat":47.442902,"lon":15.64292},"name":"Fischbach"},{"country":"AT","id":2779545,"coord":{"lat":47.433331,"lon":15.65},"name":"Fischbach"},{"country":"AT","id":2779549,"coord":{"lat":48.118839,"lon":16.612869},"name":"Fischamend Dorf"},{"country":"AT","id":7873309,"coord":{"lat":47.45042,"lon":13.51746},"name":"Filzmoos"},{"country":"AT","id":2779579,"coord":{"lat":47.433331,"lon":13.51667},"name":"Filzmoos"},{"country":"AT","id":7872556,"coord":{"lat":47.450989,"lon":12.55518},"name":"Fieberbrunn"},{"country":"AT","id":2779595,"coord":{"lat":47.48333,"lon":12.55},"name":"Fieberbrunn"},{"country":"AT","id":7872821,"coord":{"lat":48.094471,"lon":14.98865},"name":"Ferschnitz"},{"country":"AT","id":2779622,"coord":{"lat":48.083328,"lon":15},"name":"Ferschnitz"},{"country":"AT","id":7872327,"coord":{"lat":46.972179,"lon":15.51614},