[{"country":"RU","id":1486984,"coord":{"lat":59.937801,"lon":60.081001},"name":"Volchansk"},{"country":"RU","id":461720,"coord":{"lat":55.929901,"lon":39.61438},"name":"Kosterevo"},{"country":"RU","id":581585,"coord":{"lat":55.69809,"lon":40.66708},"name":"Anopino"},{"country":"RU","id":466989,"coord":{"lat":44.032799,"lon":42.881302},"name":"Yessentukskaya"},{"country":"RU","id":522799,"coord":{"lat":57.67664,"lon":40.365669},"name":"Nekrasovskoye"},{"country":"RU","id":1504636,"coord":{"lat":55.480801,"lon":60.215698},"name":"Karabash"},{"country":"RU","id":508214,"coord":{"lat":54.589378,"lon":52.503712},"name":"Podlesnyy"},{"country":"RU","id":525659,"coord":{"lat":53.436501,"lon":44.61322},"name":"Mokshan"},{"country":"RU","id":581989,"coord":{"lat":55.946499,"lon":41.150501},"name":"Andreyevo"},{"country":"RU","id":503374,"coord":{"lat":57.067902,"lon":27.913839},"name":"Pytalovo"},{"country":"RU","id":518236,"coord":{"lat":57.029419,"lon":29.33378},"name":"Novorzhev"},{"country":"RU","id":2122104,"coord":{"lat":53.0452,"lon":158.6483},"name":"Petropavlovsk-Kamchatskiy"},{"country":"RU","id":1503931,"coord":{"lat":57.1576,"lon":60.569801},"name":"Kedrovoye"},{"country":"RU","id":484122,"coord":{"lat":54.060848,"lon":44.89978},"name":"Tatarskaya Pishlya"},{"country":"RU","id":521931,"coord":{"lat":54.1451,"lon":45.144402},"name":"Nikolayevka"},{"country":"RU","id":2015051,"coord":{"lat":43.305828,"lon":132.081665},"name":"Trudovoye"},{"country":"RU","id":2020095,"coord":{"lat":52.415001,"lon":104.049438},"name":"Meget"},{"country":"RU","id":1511205,"coord":{"lat":57.0336,"lon":60.233398},"name":"Ayat\u2019"},{"country":"RU","id":493184,"coord":{"lat":54.096111,"lon":37.991669},"name":"Shvartsevskiy"},{"country":"RU","id":1486039,"coord":{"lat":54.754719,"lon":61.320831},"name":"Yemanzhelinsk"},{"country":"RU","id":1485389,"coord":{"lat":54.7855,"lon":61.2421},"name":"Zaural\u2019skiy"},{"country":"RU","id":1502280,"coord":{"lat":54.652241,"lon":60.9049},"name":"Koyelga"},{"country":"RU","id":489495,"coord":{"lat":51.06749,"lon":39.758381},"name":"Sredniy Ikorets"},{"country":"RU","id":566969,"coord":{"lat":51.15781,"lon":39.42915},"name":"Davydovka"},{"country":"RU","id":464708,"coord":{"lat":56.566669,"lon":37.433331},"name":"Zaprudnya"},{"country":"RU","id":493463,"coord":{"lat":55.5005,"lon":46.41288},"name":"Shumerlya"},{"country":"RU","id":480851,"coord":{"lat":55.861111,"lon":47.466389},"name":"Tsivilsk"},{"country":"RU","id":542429,"coord":{"lat":55.768131,"lon":47.17244},"name":"Krasnoarmeyskoye"},{"country":"RU","id":483898,"coord":{"lat":59.66444,"lon":30.114719},"name":"Taytsy"},{"country":"RU","id":537832,"coord":{"lat":55.700001,"lon":37.799999},"name":"Kuz\u2019minki"},{"country":"RU","id":539640,"coord":{"lat":57.6464,"lon":56.495201},"name":"Kukushtan"},{"country":"RU","id":545938,"coord":{"lat":58.0979,"lon":57.116299},"name":"Komarikhinskiy"},{"country":"RU","id":532637,"coord":{"lat":59.349998,"lon":31.216669},"name":"Lyuban"},{"country":"RU","id":523069,"coord":{"lat":59.799999,"lon":31.383329},"name":"Naziya"},{"country":"RU","id":527220,"coord":{"lat":59.75,"lon":31.066669},"name":"Mga"},{"country":"RU","id":1509902,"coord":{"lat":56.893749,"lon":65.893784},"name":"Bogandinskiy"},{"country":"RU","id":6647809,"coord":{"lat":59.836079,"lon":29.940121},"name":"Mar'ino"},{"country":"RU","id":6267159,"coord":{"lat":58.472,"lon":49.258999},"name":"Butyriny"},{"country":"RU","id":1500933,"coord":{"lat":66.657219,"lon":66.418327},"name":"Labytnangi"},{"country":"RU","id":1501925,"coord":{"lat":55.65667,"lon":64.813332},"name":"Krasnyy Oktyabr"},{"country":"RU","id":1505946,"coord":{"lat":55.608891,"lon":64.9375},"name":"Ikovka"},{"country":"RU","id":569122,"coord":{"lat":58.786961,"lon":56.148941},"name":"Chermoz"},{"country":"RU","id":1492637,"coord":{"lat":56.868801,"lon":60.301498},"name":"Severka"},{"country":"RU","id":507318,"coord":{"lat":58.294579,"lon":56.40546},"name":"Polazna"},{"country":"RU","id":475619,"coord":{"lat":58.167099,"lon":57.108601},"name":"Verkhnechusovskiye Gorodki"},{"country":"RU","id":6314371,"coord":{"lat":54.956001,"lon":83.114304},"name":"Inskaya"},{"country":"RU","id":2022564,"coord":{"lat":61.90361,"lon":129.638336},"name":"Khatassy"},{"country":"RU","id":510139,"coord":{"lat":59.802219,"lon":30.506941},"name":"Petro-Slavyanka"},{"country":"RU","id":1484982,"coord":{"lat":52.6665,"lon":84.933098},"name":"Zonal\u2019noye"},{"country":"RU","id":513898,"coord":{"lat":59.7775,"lon":30.81806},"name":"Otradnoye"},{"country":"RU","id":497094,"coord":{"lat":53.962219,"lon":48.794441},"name":"Sengiley"},{"country":"RU","id":529343,"coord":{"lat":56.114971,"lon":47.718048},"name":"Mariinskiy Posad"},{"country":"RU","id":577551,"coord":{"lat":55.33136,"lon":37.854},"name":"Belyye Stolby"},{"country":"RU","id":1504251,"coord":{"lat":55.8909,"lon":60.7616},"name":"Kasli"},{"country":"RU","id":1497095,"coord":{"lat":55.630001,"lon":60.791901},"name":"Novogornyy"},{"country":"RU","id":1544584,"coord":{"lat":54.34528,"lon":60.018059},"name":"Uyskoye"},{"country":"RU","id":559242,"coord":{"lat":59.748322,"lon":29.622049},"name":"Gostilitsy"},{"country":"RU","id":500350,"coord":{"lat":59.699631,"lon":29.94404},"name":"Russko-Vysotskoye"},{"country":"RU","id":578326,"coord":{"lat":59.585522,"lon":29.31757},"name":"Begunitsy"},{"country":"RU","id":496275,"coord":{"lat":60.153278,"lon":59.952049},"name":"Severouralsk"},{"country":"RU","id":542199,"coord":{"lat":56.60585,"lon":57.766861},"name":"Krasnoufimsk"},{"country":"RU","id":1490962,"coord":{"lat":56.938671,"lon":60.90295},"name":"Staropyshminsk"},{"country":"RU","id":1503169,"coord":{"lat":57.121601,"lon":60.941399},"name":"Klyuchevsk"},{"country":"RU","id":504875,"coord":{"lat":59.676491,"lon":29.853109},"name":"Kipen"},{"country":"RU","id":531820,"coord":{"lat":55.647758,"lon":38.02486},"name":"Malakhovka"},{"country":"RU","id":496267,"coord":{"lat":44.854069,"lon":38.676861},"name":"Severskaya"},{"country":"RU","id":526470,"coord":{"lat":45.013821,"lon":38.340511},"name":"Mingrel\u2019skaya"},{"country":"RU","id":817702,"coord":{"lat":55.349319,"lon":37.910679},"name":"Obraztsovo"},{"country":"RU","id":545881,"coord":{"lat":60.184078,"lon":29.81752},"name":"Komarovo"},{"country":"RU","id":556208,"coord":{"lat":59.11441,"lon":38.098942},"name":"Irdomatka"},{"country":"RU","id":1486298,"coord":{"lat":55.8736,"lon":85.426498},"name":"Yashkino"},{"country":"RU","id":492708,"coord":{"lat":47.277031,"lon":39.278881},"name":"Sinyavskoye"},{"country":"RU","id":518976,"coord":{"lat":56.11095,"lon":47.477551},"name":"Novocheboksarsk"},{"country":"RU","id":572070,"coord":{"lat":55.20639,"lon":36.486111},"name":"Borovsk"},{"country":"RU","id":578765,"coord":{"lat":47.166672,"lon":39.73333},"name":"Bataisk"},{"country":"RU","id":1484871,"coord":{"lat":54.1581,"lon":86.448601},"name":"Krasnobrodskiy"},{"country":"RU","id":1505584,"coord":{"lat":54.429699,"lon":86.440002},"name":"Inskoy"},{"country":"RU","id":553350,"coord":{"lat":55.430679,"lon":51.417091},"name":"Kamskiye Polyany"},{"country":"RU","id":1497780,"coord":{"lat":57.344398,"lon":60.1343},"name":"Neyvo-Rudyanka"},{"country":"RU","id":507291,"coord":{"lat":54.862049,"lon":21.102791},"name":"Polessk"},{"country":"RU","id":462322,"coord":{"lat":54.609482,"lon":21.20804},"name":"Znamensk"},{"country":"RU","id":463834,"coord":{"lat":55.916672,"lon":48.75},"name":"Zelenodol\u2019skiy Rayon"},{"country":"RU","id":611182,"coord":{"lat":55.83596,"lon":48.658199},"name":"Vasilyevo"},{"country":"RU","id":549191,"coord":{"lat":53.811901,"lon":49.091599},"name":"Khryashchevka"},{"country":"RU","id":2020841,"coord":{"lat":47.93528,"lon":132.624176},"name":"Leninskoye"},{"country":"RU","id":2027063,"coord":{"lat":51.24115,"lon":107.195473},"name":"Barykino"},{"country":"RU","id":2013442,"coord":{"lat":52.349998,"lon":115.51667},"name":"Vershino-Darasunskiy"},{"country":"RU","id":500299,"coord":{"lat":54.063869,"lon":44.950901},"name":"Ruzayevka"},{"country":"RU","id":476141,"coord":{"lat":47.8209,"lon":41.965031},"name":"Velikanov"},{"country":"RU","id":487988,"coord":{"lat":54.679691,"lon":43.10413},"name":"Staryy Gorod"},{"country":"RU","id":558441,"coord":{"lat":58.743019,"lon":57.816261},"name":"Gromovoy"},{"country":"RU","id":524492,"coord":{"lat":54.461159,"lon":53.4533},"name":"Mullino"},{"country":"RU","id":2026908,"coord":{"lat":48.599998,"lon":133.816666},"name":"Belgorodskoye"},{"country":"RU","id":1504769,"coord":{"lat":56.842781,"lon":62.711109},"name":"Kamyshlov"},{"country":"RU","id":2121052,"coord":{"lat":48.972301,"lon":140.287842},"name":"Sovetskaya Gavan"},{"country":"RU","id":1505260,"coord":{"lat":60.691109,"lon":60.420559},"name":"Ivdel"},{"country":"RU","id":1505526,"coord":{"lat":57.670521,"lon":63.070999},"name":"Irbit"},{"country":"RU","id":1511369,"coord":{"lat":54.34,"lon":93.43},"name":"Art\u00ebmovsk"},{"country":"RU","id":478836,"coord":{"lat":57.939941,"lon":55.550949},"name":"Ural\u2019skiy"},{"country":"RU","id":1503335,"coord":{"lat":57.429722,"lon":60.059719},"name":"Kirovgrad"},{"country":"RU","id":8061674,"coord":{"lat":58.614899,"lon":59.881401},"name":"Pos\u00eblok NTGRES"},{"country":"RU","id":501265,"coord":{"lat":69.04303,"lon":33.199059},"name":"Roslyakovo"},{"country":"RU","id":570032,"coord":{"lat":69.050003,"lon":33.230831},"name":"Malaya Chalmpushka"},{"country":"RU","id":563481,"coord":{"lat":56.780548,"lon":36.115002},"name":"Emmaus"},{"country":"RU","id":541747,"coord":{"lat":57.492592,"lon":39.75629},"name":"Krasnyye Tkachi"},{"country":"RU","id":485203,"coord":{"lat":65.990936,"lon":58.070221},"name":"Synyanyrd"},{"country":"RU","id":490981,"coord":{"lat":51.398331,"lon":36.662498},"name":"Solntsev"},{"country":"RU","id":498783,"coord":{"lat":59.776112,"lon":30.66139},"name":"Sapernyy"},{"country":"RU","id":512536,"coord":{"lat":69.5513,"lon":31.20998},"name":"Parkkino"},{"country":"RU","id":1493044,"coord":{"lat":56.867802,"lon":61.055199},"name":"Sarapulka"},{"country":"RU","id":462467,"coord":{"lat":53.222198,"lon":55.918499},"name":"Zirgan"},{"country":"RU","id":518701,"coord":{"lat":45.6408,"lon":39.146412},"name":"Novokorsunskaya"},{"country":"RU","id":565357,"coord":{"lat":44.881901,"lon":40.362709},"name":"Dondukovskaya"},{"country":"RU","id":7595832,"coord":{"lat":54.814999,"lon":52.775299},"name":"Aktuba"},{"country":"RU","id":465543,"coord":{"lat":55.3195,"lon":52.06942},"name":"Zainsk"},{"country":"RU","id":563681,"coord":{"lat":55.023899,"lon":52.735802},"name":"Dzhalil"},{"country":"RU","id":509697,"coord":{"lat":55.926392,"lon":39.46104},"name":"Petushki"},{"country":"RU","id":462203,"coord":{"lat":55.528099,"lon":41.105301},"name":"Zolotkovo"},{"country":"RU","id":466990,"coord":{"lat":44.044441,"lon":42.860561},"name":"Yessentuki"},{"country":"RU","id":491566,"coord":{"lat":57.883331,"lon":39.549999},"name":"Snegir\u00ebvka"},{"country":"RU","id":514968,"coord":{"lat":56.183201,"lon":40.614899},"name":"Orgtrud"},{"country":"RU","id":470212,"coord":{"lat":55.912781,"lon":49.30167},"name":"Vysokaya Gora"},{"country":"RU","id":1495626,"coord":{"lat":65.850021,"lon":74.485931},"name":"Pangody"},{"country":"RU","id":486011,"coord":{"lat":59.75,"lon":30.466669},"name":"Susary"},{"country":"RU","id":1508879,"coord":{"lat":57.040958,"lon":65.720177},"name":"Borovskiy"},{"country":"RU","id":1493313,"coord":{"lat":61.599998,"lon":72.449997},"name":"Rynkova F."},{"country":"RU","id":473778,"coord":{"lat":55.552391,"lon":37.70966},"name":"Vidnoye"},{"country":"RU","id":530480,"coord":{"lat":59.613609,"lon":30.172779},"name":"Maloye Verevo"},{"country":"RU","id":549741,"coord":{"lat":44.846939,"lon":38.384998},"name":"Kholmskiy"},{"country":"RU","id":1501365,"coord":{"lat":54.366348,"lon":77.29805},"name":"Kupino"},{"country":"RU","id":1494111,"coord":{"lat":55.0089,"lon":82.457397},"name":"Prokudskoye"},{"country":"RU","id":465632,"coord":{"lat":55.932499,"lon":37.958061},"name":"Zagoryanskiy"},{"country":"RU","id":1509844,"coord":{"lat":58.38139,"lon":97.453056},"name":"Boguchany"},{"country":"RU","id":6416066,"coord":{"lat":55.234268,"lon":37.54113},"name":"Oktyabr\u2019skiy"},{"country":"RU","id":572110,"coord":{"lat":49.401161,"lon":44.03146},"name":"Borovki"},{"country":"RU","id":797049,"coord":{"lat":48.658058,"lon":40.220829},"name":"Tarasovskiy"},{"country":"RU","id":823973,"coord":{"lat":60.74789,"lon":47.181099},"name":"Bumazhnyy"},{"country":"RU","id":515911,"coord":{"lat":46.731892,"lon":40.644508},"name":"Klyuyev"},{"country":"RU","id":1504343,"coord":{"lat":59.7654,"lon":60.008499},"name":"Karpinsk"},{"country":"RU","id":1500607,"coord":{"lat":58.235828,"lon":92.48278},"name":"Lesosibirsk"},{"country":"RU","id":462792,"coord":{"lat":55.03178,"lon":36.744019},"name":"Zhukovo"},{"country":"RU","id":1497276,"coord":{"lat":59.055031,"lon":60.598991},"name":"Novaya Lyalya"},{"country":"RU","id":1500426,"coord":{"lat":59.185379,"lon":60.518459},"name":"Lobva"},{"country":"RU","id":1508589,"coord":{"lat":56.71788,"lon":63.78661},"name":"Butka"},{"country":"RU","id":566322,"coord":{"lat":55.01099,"lon":31.043579},"name":"Devino"},{"country":"RU","id":1485634,"coord":{"lat":54.441799,"lon":61.253601},"name":"Yuzhnouralsk"},{"country":"RU","id":548723,"coord":{"lat":68.803879,"lon":33.099369},"name":"Kil\u2019dinstroy"},{"country":"RU","id":547891,"coord":{"lat":45.038288,"lon":37.888302},"name":"Kiyevskoye"},{"country":"RU","id":561515,"coord":{"lat":44.86208,"lon":40.071949},"name":"Giaginskaya"},{"country":"RU","id":519447,"coord":{"lat":51.641769,"lon":39.40863},"name":"Novaya Usman"},{"country":"RU","id":556483,"coord":{"lat":55.49567,"lon":38.650639},"name":"Imeni Tsyurupy"},{"country":"RU","id":490391,"coord":{"lat":63.602291,"lon":53.881748},"name":"Sosnogorsk"},{"country":"RU","id":535505,"coord":{"lat":57.583611,"lon":59.90028},"name":"Levikha"},{"country":"RU","id":512053,"coord":{"lat":50.457779,"lon":40.108059},"name":"Pavlovsk"},{"country":"RU","id":551847,"coord":{"lat":42.881649,"lon":47.639191},"name":"Kaspiysk"},{"country":"RU","id":6314514,"coord":{"lat":54.901402,"lon":83.284203},"name":"Cheremshanka"},{"country":"RU","id":511785,"coord":{"lat":57.816422,"lon":27.6119},"name":"Pechory"},{"country":"RU","id":488847,"coord":{"lat":44.563061,"lon":44.015282},"name":"Starodubskoye"},{"country":"RU","id":1495144,"coord":{"lat":57.716,"lon":60.648399},"name":"Petrokamenskoye"},{"country":"RU","id":521739,"coord":{"lat":53.477211,"lon":55.28397},"name":"Nikol\u2019skoye"},{"country":"RU","id":509826,"coord":{"lat":50.143372,"lon":45.209579},"name":"Petrov Val"},{"country":"RU","id":583785,"coord":{"lat":44.854599,"lon":38.303101},"name":"Akhtyrskiy"},{"country":"RU","id":2119538,"coord":{"lat":53.187302,"lon":158.380493},"name":"Yelizovo"},{"country":"RU","id":1503557,"coord":{"lat":55.5201,"lon":85.427299},"name":"Khorosheborka"},{"country":"RU","id":1500665,"coord":{"lat":54.6567,"lon":86.173698},"name":"Leninsk-Kuznetskiy"},{"country":"RU","id":541402,"coord":{"lat":51.360199,"lon":45.83482},"name":"Krasnyy Tekstil\u2019shchik"},{"country":"RU","id":562878,"coord":{"lat":53.520199,"lon":59.811699},"name":"Fershampenuaz"},{"country":"RU","id":501730,"coord":{"lat":57.105129,"lon":41.73048},"name":"Rodniki"},{"country":"RU","id":504501,"coord":{"lat":55.007172,"lon":37.812778},"name":"Prudno"},{"country":"RU","id":470845,"coord":{"lat":55.49044,"lon":46.96479},"name":"Vurnary"},{"country":"RU","id":2609906,"coord":{"lat":54.65382,"lon":19.911039},"name":"Baltiysk"},{"country":"RU","id":522508,"coord":{"lat":54.630562,"lon":22.57139},"name":"Nesterov"},{"country":"RU","id":479140,"coord":{"lat":59.639439,"lon":30.764721},"name":"Ulyanovka"},{"country":"RU","id":516710,"coord":{"lat":59.549999,"lon":31.01667},"name":"Nurma"},{"country":"RU","id":1505432,"coord":{"lat":57.423061,"lon":66.60556},"name":"Iska-Chebakova"},{"country":"RU","id":1488429,"coord":{"lat":60.124722,"lon":64.775833},"name":"Uray"},{"country":"RU","id":517111,"coord":{"lat":58.05357,"lon":56.603889},"name":"Novyye Lyady"},{"country":"RU","id":1538641,"coord":{"lat":56.166672,"lon":91.816673},"name":"Kedrovyy"},{"country":"RU","id":496478,"coord":{"lat":60.098019,"lon":29.963779},"name":"Sestroretsk"},{"country":"RU","id":470530,"coord":{"lat":61.247021,"lon":46.898418},"name":"Vychegodskiy"},{"country":"RU","id":2126682,"coord":{"lat":68.054642,"lon":166.43721},"name":"Bilibino"},{"country":"RU","id":497204,"coord":{"lat":51.521149,"lon":39.155239},"name":"Semilukskiye Vyselki"},{"country":"RU","id":518845,"coord":{"lat":54.467781,"lon":37.342781},"name":"Novogurovskiy"},{"country":"RU","id":1505965,"coord":{"lat":63.190601,"lon":64.416199},"name":"Igrim"},{"country":"RU","id":517836,"coord":{"lat":51.203011,"lon":58.326649},"name":"Novotroitsk"},{"country":"RU","id":548390,"coord":{"lat":46.9748,"lon":40.040199},"name":"Kirovskaya"},{"country":"RU","id":1493657,"coord":{"lat":54.273331,"lon":80.773613},"name":"Respublikanskiy"},{"country":"RU","id":2014649,"coord":{"lat":44.397221,"lon":134.103897},"name":"Uborka"},{"country":"RU","id":551439,"coord":{"lat":45.410599,"lon":40.4361},"name":"Kazanskaya"},{"country":"RU","id":551058,"coord":{"lat":53.620449,"lon":44.052422},"name":"Kera"},{"country":"RU","id":468867,"coord":{"lat":55.066669,"lon":32.666672},"name":"Yartsevo"},{"country":"RU","id":2018498,"coord":{"lat":50.950001,"lon":115.566673},"name":"Olovyannaya"},{"country":"RU","id":580922,"coord":{"lat":44.989201,"lon":41.123402},"name":"Armavir"},{"country":"RU","id":6818710,"coord":{"lat":46.140461,"lon":38.90794},"name":"Cherkasskiy"},{"country":"RU","id":481608,"coord":{"lat":55.484982,"lon":37.307362},"name":"Troitsk"},{"country":"RU","id":524700,"coord":{"lat":56.374512,"lon":52.255428},"name":"Mozhga"},{"country":"RU","id":472357,"coord":{"lat":59.433331,"lon":29.48333},"name":"Volosovo"},{"country":"RU","id":452949,"coord":{"lat":57.87944,"lon":34.9925},"name":"Udomlya"},{"country":"RU","id":472494,"coord":{"lat":56.226109,"lon":43.186111},"name":"Volodarsk"},{"country":"RU","id":518014,"coord":{"lat":56.73333,"lon":38.849998},"name":"Novosel\u2019ye"},{"country":"RU","id":580584,"coord":{"lat":53.337219,"lon":58.508888},"name":"Askarovo"},{"country":"RU","id":2021618,"coord":{"lat":50.0979,"lon":118.036903},"name":"Krasnokamensk"},{"country":"RU","id":584126,"coord":{"lat":44.902119,"lon":38.843929},"name":"Afipskiy"},{"country":"RU","id":563472,"coord":{"lat":44.927101,"lon":38.90852},"name":"Enem"},{"country":"RU","id":547475,"coord":{"lat":52.760189,"lon":32.239342},"name":"Klintsy"},{"country":"RU","id":556951,"coord":{"lat":44.84222,"lon":38.56686},"name":"Ilskiy"},{"country":"RU","id":555624,"coord":{"lat":59.371552,"lon":28.216249},"name":"Ivangorod"},{"country":"RU","id":1494114,"coord":{"lat":53.905899,"lon":86.719002},"name":"Prokopyevsk"},{"country":"RU","id":561999,"coord":{"lat":60.34127,"lon":30.49551},"name":"Garbolovo"},{"country":"RU","id":492712,"coord":{"lat":59.90781,"lon":31.0711},"name":"Sinyavino"},{"country":"RU","id":493970,"coord":{"lat":59.9473,"lon":31.03845},"name":"Shlisselburg"},{"country":"RU","id":580647,"coord":{"lat":57.113609,"lon":56.52639},"name":"Ashap"},{"country":"RU","id":1507239,"coord":{"lat":54.359798,"lon":83.319801},"name":"Dorogino"},{"country":"RU","id":544370,"coord":{"lat":61.314331,"lon":47.16914},"name":"Koryazhma"},{"country":"RU","id":1485445,"coord":{"lat":56.811001,"lon":61.325401},"name":"Zarechnyy"},{"country":"RU","id":1487281,"coord":{"lat":56.966671,"lon":60.58083},"name":"Verkhnyaya Pyshma"},{"country":"RU","id":518286,"coord":{"lat":59.366669,"lon":28.6},"name":"Novo-Porkhovo"},{"country":"RU","id":528109,"coord":{"lat":51.4128,"lon":57.595001},"name":"Mednogorsk"},{"country":"RU","id":1502862,"coord":{"lat":58.313061,"lon":82.90889},"name":"Kolpashevo"},{"country":"RU","id":545978,"coord":{"lat":55.667999,"lon":36.532341},"name":"Kolyubakino"},{"country":"RU","id":573338,"coord":{"lat":57.717739,"lon":38.933411},"name":"Bolshoye Selo"},{"country":"RU","id":2026583,"coord":{"lat":57.850559,"lon":114.193329},"name":"Bodaybo"},{"country":"RU","id":502191,"coord":{"lat":47.991199,"lon":42.263},"name":"Remizov"},{"country":"RU","id":2015367,"coord":{"lat":49,"lon":131.899994},"name":"Teplooz\u00ebrsk"},{"country":"RU","id":1491267,"coord":{"lat":59.17662,"lon":61.855789},"name":"Sosva"},{"country":"RU","id":584308,"coord":{"lat":56.7985,"lon":57.899399},"name":"Achit"},{"country":"RU","id":487006,"coord":{"lat":57.650002,"lon":59.5},"name":"Stud\u00ebnyy"},{"country":"RU","id":492414,"coord":{"lat":45.19278,"lon":40.425282},"name":"Skobelevskaya"},{"country":"RU","id":472391,"coord":{"lat":48.92218,"lon":39.934849},"name":"Voloshino"},{"country":"RU","id":1497749,"coord":{"lat":67.050003,"lon":63.783329},"name":"Nikita"},{"country":"RU","id":566554,"coord":{"lat":46.457901,"lon":43.3792},"name":"Denisovskiy"},{"country":"RU","id":1488933,"coord":{"lat":58.04575,"lon":63.696049},"name":"Turinsk"},{"country":"RU","id":576260,"coord":{"lat":56.86174,"lon":59.052311},"name":"Bisert"},{"country":"RU","id":1501308,"coord":{"lat":56.917099,"lon":62.1222},"name":"Kur\u2019i"},{"country":"RU","id":543508,"coord":{"lat":67.566162,"lon":30.47576},"name":"Kovdor"},{"country":"RU","id":867006,"coord":{"lat":53.5854,"lon":49.762901},"name":"Povolzhskiy"},{"country":"RU","id":488291,"coord":{"lat":54.524071,"lon":52.101349},"name":"Staroye Shugurovo"},{"country":"RU","id":582993,"coord":{"lat":44.714169,"lon":43.000832},"name":"Aleksandrovskoye"},{"country":"RU","id":515921,"coord":{"lat":44.921501,"lon":38.995831},"name":"Takhtamukay"},{"country":"RU","id":490276,"coord":{"lat":56.254959,"lon":51.284191},"name":"Sosnovka"},{"country":"RU","id":1502536,"coord":{"lat":54.8913,"lon":61.3969},"name":"Korkino"},{"country":"RU","id":1511428,"coord":{"lat":55.4888,"lon":60.876701},"name":"Argayash"},{"country":"RU","id":582785,"coord":{"lat":55.166672,"lon":50},"name":"Alekseyevskiy Rayon"},{"country":"RU","id":582775,"coord":{"lat":55.30706,"lon":50.113529},"name":"Alekseyevskoye"},{"country":"RU","id":1501402,"coord":{"lat":55.703201,"lon":61.549801},"name":"Kunashak"},{"country":"RU","id":1510203,"coord":{"lat":56.908298,"lon":60.801899},"name":"Berezovskiy"},{"country":"RU","id":534423,"coord":{"lat":56.829979,"lon":30.14665},"name":"Loknya"},{"country":"RU","id":569665,"coord":{"lat":43.299999,"lon":45.700001},"name":"Chechenskaya Respublika"},{"country":"RU","id":481605,"coord":{"lat":43.305561,"lon":44.978889},"name":"Troitskaya"},{"country":"RU","id":564878,"coord":{"lat":56.789452,"lon":59.514278},"name":"Druzhinino"},{"country":"RU","id":488593,"coord":{"lat":57.230171,"lon":59.334831},"name":"Staroutkinsk"},{"country":"RU","id":1489057,"coord":{"lat":57.059059,"lon":64.642509},"name":"Tugulym"},{"country":"RU","id":1510695,"coord":{"lat":70.690002,"lon":83.620003},"name":"Baykalovsk"},{"country":"RU","id":1488931,"coord":{"lat":57.623199,"lon":64.38575},"name":"Turinskaya Sloboda"},{"country":"RU","id":523292,"coord":{"lat":56.4739,"lon":57.869781},"name":"Natal\u2019insk"},{"country":"RU","id":509437,"coord":{"lat":54.950829,"lon":20.22748},"name":"Pionerskiy"},{"country":"RU","id":1497393,"coord":{"lat":58.07756,"lon":60.7202},"name":"Nizhnyaya Salda"},{"country":"RU","id":1510454,"coord":{"lat":53.446098,"lon":83.9048},"name":"Beloyarsk"},{"country":"RU","id":505429,"coord":{"lat":56.645618,"lon":57.761848},"name":"Pridannikovo"},{"country":"RU","id":542235,"coord":{"lat":45.391941,"lon":40.607498},"name":"Krasnosel\u2019skiy"},{"country":"RU","id":566384,"coord":{"lat":54.150768,"lon":33.281509},"name":"Desnogorsk"},{"country":"RU","id":1504317,"coord":{"lat":53.052219,"lon":60.646671},"name":"Kartaly"},{"country":"RU","id":496012,"coord":{"lat":57.675789,"lon":46.611359},"name":"Shakhunya"},{"country":"RU","id":556362,"coord":{"lat":67.156349,"lon":34.363682},"name":"Inga"},{"country":"RU","id":553216,"coord":{"lat":55.50861,"lon":47.49556},"name":"Kanash"},{"country":"RU","id":504734,"coord":{"lat":58.743149,"lon":54.671082},"name":"Pronina"},{"country":"RU","id":2027468,"coord":{"lat":44.163059,"lon":133.273331},"name":"Arsenyev"},{"country":"RU","id":510520,"coord":{"lat":51.253101,"lon":42.469299},"name":"Peski"},{"country":"RU","id":521814,"coord":{"lat":56.124222,"lon":54.155731},"name":"Nikolo-Berezovka"},{"country":"RU","id":528465,"coord":{"lat":56.133331,"lon":54.150002},"name":"Matveyevskiy"},{"country":"RU","id":1497929,"coord":{"lat":66.083328,"lon":60.133331},"name":"Nechavom"},{"country":"RU","id":579432,"coord":{"lat":57.97963,"lon":53.010571},"name":"Balezino"},{"country":"RU","id":471760,"coord":{"lat":55.985561,"lon":43.271671},"name":"Vorsma"},{"country":"RU","id":463001,"coord":{"lat":48.333328,"lon":39.950001},"name":"Zhilploshchadka"},{"country":"RU","id":582956,"coord":{"lat":50.630901,"lon":38.6903},"name":"Alekseyevka"},{"country":"RU","id":563822,"coord":{"lat":53.59782,"lon":34.338249},"name":"Dyatkovo"},{"country":"RU","id":535695,"coord":{"lat":55.638931,"lon":37.208302},"name":"Lesnoy Gorodok"},{"country":"RU","id":2026889,"coord":{"lat":51.129719,"lon":128.342499},"name":"Belonogovo"},{"country":"RU","id":2013362,"coord":{"lat":42.89444,"lon":133.077774},"name":"Vladimiro-Aleksandrovskoye"},{"country":"RU","id":473563,"coord":{"lat":53.191101,"lon":49.688},"name":"Vinnovka"},{"country":"RU","id":795243,"coord":{"lat":69.193329,"lon":33.253139},"name":"Snezhnogorsk"},{"country":"RU","id":463828,"coord":{"lat":54.958931,"lon":20.476681},"name":"Zelenogradsk"},{"country":"RU","id":519705,"coord":{"lat":63.901051,"lon":38.060188},"name":"Novaya Derevnya"},{"country":"RU","id":509392,"coord":{"lat":55.978062,"lon":37.733608},"name":"Pirogovskiy"},{"country":"RU","id":1509847,"coord":{"lat":54.23444,"lon":90.832779},"name":"Bograd"},{"country":"RU","id":572154,"coord":{"lat":58.387779,"lon":33.915459},"name":"Borovichi"},{"country":"RU","id":1507390,"coord":{"lat":73.506943,"lon":80.546387},"name":"Dikson"},{"country":"RU","id":523392,"coord":{"lat":67.671257,"lon":53.086971},"name":"Naryan-Mar"},{"country":"RU","id":509234,"coord":{"lat":61.573399,"lon":31.479151},"name":"Pitkyaranta"},{"country":"RU","id":1511783,"coord":{"lat":52.492599,"lon":82.782204},"name":"Aleysk"},{"country":"RU","id":2017354,"coord":{"lat":45.51667,"lon":133.583328},"name":"Ruzhino"},{"country":"RU","id":500413,"coord":{"lat":53.1222,"lon":49.9305},"name":"Russkiye Lipyagi"},{"country":"RU","id":1486594,"coord":{"lat":60.166672,"lon":60.116669},"name":"Vysotinka"},{"country":"RU","id":569579,"coord":{"lat":55.131939,"lon":54.65556},"name":"Chekmagush"},{"country":"RU","id":525291,"coord":{"lat":46.547901,"lon":38.0583},"name":"Mor\u00ebvka"},{"country":"RU","id":540251,"coord":{"lat":44.92934,"lon":37.991169},"name":"Krymsk"},{"country":"RU","id":513051,"coord":{"lat":57.540878,"lon":28.012569},"name":"Palkino"},{"country":"RU","id":1505430,"coord":{"lat":54.612202,"lon":83.400597},"name":"Staryy Iskitim"},{"country":"RU","id":817071,"coord":{"lat":54.131302,"lon":38.179932},"name":"Gryzlovo"},{"country":"RU","id":1508715,"coord":{"lat":57.278252,"lon":61.996498},"name":"Bulanash"},{"country":"RU","id":476417,"coord":{"lat":45.118092,"lon":39.423981},"name":"Vasyurinskaya"},{"country":"RU","id":2024800,"coord":{"lat":42.88028,"lon":132.337494},"name":"Dunay"},{"country":"RU","id":1508350,"coord":{"lat":54.974899,"lon":60.3633},"name":"Chebarkul"},{"country":"RU","id":1488937,"coord":{"lat":55.150002,"lon":60.118328},"name":"Turgoyak"},{"country":"RU","id":2012626,"coord":{"lat":50.116669,"lon":129.449997},"name":"Zavitinsk"},{"country":"RU","id":1507565,"coord":{"lat":56.259998,"lon":62.936199},"name":"Dalmatovo"},{"country":"RU","id":557060,"coord":{"lat":56.971802,"lon":39.768398},"name":"Ilinskoye-Khovanskoye"},{"country":"RU","id":1490617,"coord":{"lat":56.985279,"lon":91.398613},"name":"Surikova"},{"country":"RU","id":1493855,"coord":{"lat":59.083328,"lon":79},"name":"Rabochiy"},{"country":"RU","id":563412,"coord":{"lat":56.14637,"lon":41.5089},"name":"Esino"},{"country":"RU","id":542586,"coord":{"lat":53.864079,"lon":46.800049},"name":"Krasnaya Sosna"},{"country":"RU","id":481985,"coord":{"lat":57.043598,"lon":34.962212},"name":"Torzhok"},{"country":"RU","id":496493,"coord":{"lat":55.60582,"lon":47.299068},"name":"Sespel\u2019"},{"country":"RU","id":1487762,"coord":{"lat":69.714203,"lon":60.052898},"name":"Varnek"},{"country":"RU","id":1500609,"coord":{"lat":56.045799,"lon":99.513603},"name":"Lesogorsk"},{"country":"RU","id":535839,"coord":{"lat":64.898941,"lon":45.762199},"name":"Leshukonskoye"},{"country":"RU","id":484251,"coord":{"lat":55.421188,"lon":36.654888},"name":"Tashirovo"},{"country":"RU","id":538558,"coord":{"lat":44.049999,"lon":44.450001},"name":"Kurskaya"},{"country":"RU","id":579378,"coord":{"lat":54.771778,"lon":56.541592},"name":"Baltika"},{"country":"RU","id":539385,"coord":{"lat":61.030491,"lon":42.492519},"name":"Kuloy"},{"country":"RU","id":2021893,"coord":{"lat":51.65036,"lon":107.372559},"name":"Kolobki"},{"country":"RU","id":2016187,"coord":{"lat":44.597778,"lon":132.821106},"name":"Spassk-Dalniy"},{"country":"RU","id":516073,"coord":{"lat":57.718552,"lon":55.387718},"name":"Okhansk"},{"country":"RU","id":499453,"coord":{"lat":55.11087,"lon":33.232922},"name":"Safonovo"},{"country":"RU","id":535347,"coord":{"lat":51.688801,"lon":35.284302},"name":"L\u2019gov"},{"country":"RU","id":492162,"coord":{"lat":59.118172,"lon":28.09137},"name":"Slantsy"},{"country":"RU","id":2012593,"coord":{"lat":53.75,"lon":127.26667},"name":"Zeya"},{"country":"RU","id":539448,"coord":{"lat":60.598579,"lon":47.385639},"name":"Kulikovo"},{"country":"RU","id":535229,"coord":{"lat":45.784569,"lon":47.224049},"name":"Liman"},{"country":"RU","id":503548,"coord":{"lat":43.974171,"lon":43.258331},"name":"Pyatigorskiy"},{"country":"RU","id":496957,"coord":{"lat":49.578602,"lon":42.736},"name":"Serafimovich"},{"country":"RU","id":545686,"coord":{"lat":55.44083,"lon":33.16917},"name":"Komyagina"},{"country":"RU","id":562389,"coord":{"lat":49.771332,"lon":43.66222},"name":"Frolovo"},{"country":"RU","id":541235,"coord":{"lat":54.884998,"lon":37.12611},"name":"Kremenki"},{"country":"RU","id":526601,"coord":{"lat":62.199379,"lon":49.942768},"name":"Mikun\u2019"},{"country":"RU","id":531478,"coord":{"lat":58.216671,"lon":30.716669},"name":"Malaya Orlovka"},{"country":"RU","id":469809,"coord":{"lat":55.940521,"lon":46.206219},"name":"Yadrin"},{"country":"RU","id":1504139,"coord":{"lat":69.378609,"lon":87.743889},"name":"Kayyerkan"},{"country":"RU","id":2026268,"coord":{"lat":52.065559,"lon":104.083893},"name":"Bol\u2019shoy Lug"},{"country":"RU","id":496035,"coord":{"lat":56.028332,"lon":35.50972},"name":"Shakhovskaya"},{"country":"RU","id":534015,"coord":{"lat":55.869591,"lon":38.200649},"name":"Losino-Petrovskiy"},{"country":"RU","id":513329,"coord":{"lat":51.1786,"lon":49.676899},"name":"Staryye Ozinki"},{"country":"RU","id":554776,"coord":{"lat":54.98806,"lon":35.310829},"name":"Iznoski"},{"country":"RU","id":819691,"coord":{"lat":54.939442,"lon":39.016109},"name":"Sushkovo"},{"country":"RU","id":584441,"coord":{"lat":44.872581,"lon":38.16111},"name":"Abinsk"},{"country":"RU","id":503878,"coord":{"lat":56.335468,"lon":29.369011},"name":"Pustoshka"},{"country":"RU","id":548747,"coord":{"lat":57.30341,"lon":47.201061},"name":"Kiknur"},{"country":"RU","id":1485724,"coord":{"lat":55.723061,"lon":84.886108},"name":"Yurga"},{"country":"RU","id":484346,"coord":{"lat":53.933239,"lon":42.979061},"name":"Tarkhanskaya Pot\u2019ma"},{"country":"RU","id":515938,"coord":{"lat":53.167221,"lon":48.700562},"name":"Oktyabr\u2019sk"},{"country":"RU","id":538442,"coord":{"lat":55.338329,"lon":59.440559},"name":"Kusa"},{"country":"RU","id":2015608,"coord":{"lat":50.096939,"lon":128.048889},"name":"Tambovka"},{"country":"RU","id":534701,"coord":{"lat":52.425339,"lon":37.606892},"name":"Livny"},{"country":"RU","id":505230,"coord":{"lat":61.03928,"lon":30.12907},"name":"Priozersk"},{"country":"RU","id":557710,"coord":{"lat":54.64772,"lon":21.06513},"name":"Gvardeysk"},{"country":"RU","id":527529,"coord":{"lat":55.727058,"lon":53.102581},"name":"Menzelinsk"},{"country":"RU","id":542308,"coord":{"lat":53.98333,"lon":38.166672},"name":"Krasnolesskiy"},{"country":"RU","id":802714,"coord":{"lat":47.52972,"lon":39.418331},"name":"Persianovka"},{"country":"RU","id":569615,"coord":{"lat":54.096851,"lon":36.244991},"name":"Chekalin"},{"country":"RU","id":505730,"coord":{"lat":59.425152,"lon":54.643791},"name":"Pozh"},{"country":"RU","id":559514,"coord":{"lat":56.216671,"lon":38.049999},"name":"Gorodok"},{"country":"RU","id":2012780,"coord":{"lat":49.633331,"lon":117.316673},"name":"Zabaykalsk"},{"country":"RU","id":1492811,"coord":{"lat":52.299999,"lon":80.966667},"name":"Seliv\u00ebrstovo"},{"country":"RU","id":2118647,"coord":{"lat":52.930561,"lon":158.402786},"name":"Vilyuchinsk"},{"country":"RU","id":514739,"coord":{"lat":56.916069,"lon":47.893349},"name":"Orshanka"},{"country":"RU","id":538075,"coord":{"lat":55.801392,"lon":54.53722},"name":"Kuyanovo"},{"country":"RU","id":2609901,"coord":{"lat":54.464272,"lon":19.938009},"name":"Mamonovo"},{"country":"RU","id":1502822,"coord":{"lat":55.305302,"lon":82.739098},"name":"Kolyvan"},{"country":"RU","id":1495974,"coord":{"lat":53.623901,"lon":87.359802},"name":"Osinniki"},{"country":"RU","id":1508811,"coord":{"lat":52.415279,"lon":60.34111},"name":"Bredy"},{"country":"RU","id":489158,"coord":{"lat":59.998718,"lon":32.294128},"name":"Staraya Ladoga"},{"country":"RU","id":1488272,"coord":{"lat":53.852501,"lon":91.374168},"name":"Ust-Abakan"},{"country":"RU","id":1510916,"coord":{"lat":55.35709,"lon":78.356972},"name":"Barabinsk"},{"country":"RU","id":2020121,"coord":{"lat":61.73333,"lon":130.281113},"name":"Mayya"},{"country":"RU","id":488802,"coord":{"lat":54.033329,"lon":35.783329},"name":"Staro-Kazach\u2019ya Sloboda"},{"country":"RU","id":1503277,"coord":{"lat":53.990002,"lon":86.662102},"name":"Kiselevsk"},{"country":"RU","id":545575,"coord":{"lat":54.806389,"lon":35.92778},"name":"Kondrovo"},{"country":"RU","id":566286,"coord":{"lat":56.54398,"lon":53.644409},"name":"Devyatovo"},{"country":"RU","id":525273,"coord":{"lat":57.1973,"lon":57.1754},"name":"Morgunovo"},{"country":"RU","id":564654,"coord":{"lat":49.05825,"lon":44.828999},"name":"Dubovka"},{"country":"RU","id":584471,"coord":{"lat":53.700001,"lon":53.666672},"name":"Abdulino"},{"country":"RU","id":2027478,"coord":{"lat":50.603699,"lon":104.5933},"name":"Armak"},{"country":"RU","id":512631,"coord":{"lat":58.400002,"lon":33.299999},"name":"Parakhino-Poddub\u2019ye"},{"country":"RU","id":488352,"coord":{"lat":58.400002,"lon":33.299999},"name":"Staroye Poddub\u2019ye"},{"country":"RU","id":547831,"coord":{"lat":56.274891,"lon":51.507999},"name":"Kizner"},{"country":"RU","id":499717,"coord":{"lat":56.262409,"lon":34.328171},"name":"Rzhev"},{"country":"RU","id":533406,"coord":{"lat":43.729519,"lon":44.63345},"name":"Lukovskaya"},{"country":"RU","id":520473,"coord":{"lat":55.915279,"lon":59.984169},"name":"Nizhniy Ufaley"},{"country":"RU","id":552312,"coord":{"lat":54.370899,"lon":56.183701},"name":"Karmaskaly"},{"country":"RU","id":537107,"coord":{"lat":56.01931,"lon":39.948479},"name":"Lakinsk"},{"country":"RU","id":582750,"coord":{"lat":54.509998,"lon":37.080002},"name":"Aleksin"},{"country":"RU","id":527955,"coord":{"lat":55.86935,"lon":37.98613},"name":"Medvezh\u2019i Oz\u00ebra"},{"country":"RU","id":557628,"coord":{"lat":55.296108,"lon":47.03944},"name":"Ibresi"},{"country":"RU","id":583983,"coord":{"lat":56.52034,"lon":52.994221},"name":"Agryz"},{"country":"RU","id":571155,"coord":{"lat":54.950001,"lon":48.283329},"name":"Buinsk"},{"country":"RU","id":497872,"coord":{"lat":55.54076,"lon":43.635559},"name":"Selema"},{"country":"RU","id":523583,"coord":{"lat":59.317219,"lon":50.807781},"name":"Nagorsk"},{"country":"RU","id":510541,"coord":{"lat":56.133331,"lon":37.066669},"name":"Peshki"},{"country":"RU","id":1509688,"coord":{"lat":59.06905,"lon":61.770699},"name":"Molva"},{"country":"RU","id":520667,"coord":{"lat":56.661388,"lon":59.303329},"name":"Nizhniye Sergi"},{"country":"RU","id":479071,"coord":{"lat":66.687057,"lon":34.342918},"name":"Umba"},{"country":"RU","id":481941,"coord":{"lat":54.67617,"lon":35.938599},"name":"Tovarkovo"},{"country":"RU","id":477629,"coord":{"lat":55.527779,"lon":35.60611},"name":"Uvarovka"},{"country":"RU","id":504269,"coord":{"lat":61.809879,"lon":36.534538},"name":"Pudozh"},{"country":"RU","id":2025072,"coord":{"lat":51.751751,"lon":107.195648},"name":"Verkhnyaya Ivolga"},{"country":"RU","id":486211,"coord":{"lat":60.549999,"lon":30.23333},"name":"Sunikkala"},{"country":"RU","id":583905,"coord":{"lat":51.001999,"lon":55.617439},"name":"Akbulak"},{"country":"RU","id":553725,"coord":{"lat":53.181389,"lon":44.049438},"name":"Kamenka"},{"country":"RU","id":519630,"coord":{"lat":60.102459,"lon":32.30191},"name":"Novaya Ladoga"},{"country":"RU","id":492376,"coord":{"lat":53.82486,"lon":39.550529},"name":"Skopin"},{"country":"RU","id":538696,"coord":{"lat":55.432522,"lon":40.48539},"name":"Kurlovo"},{"country":"RU","id":1538634,"coord":{"lat":55.755562,"lon":60.702782},"name":"Ozersk"},{"country":"RU","id":473998,"coord":{"lat":49.630329,"lon":41.733398},"name":"Veshenskaya"},{"country":"RU","id":2026861,"coord":{"lat":62.098888,"lon":126.699173},"name":"Berdigestyakh"},{"country":"RU","id":481036,"coord":{"lat":46.53381,"lon":41.032841},"name":"Tselina"},{"country":"RU","id":572984,"coord":{"lat":51.627781,"lon":43.301659},"name":"Bol\u2019shoy Melik"},{"country":"RU","id":501320,"coord":{"lat":55.66853,"lon":39.874882},"name":"Roshal"},{"country":"RU","id":1510041,"coord":{"lat":55.963402,"lon":97.823502},"name":"Biryusinsk"},{"country":"RU","id":491480,"coord":{"lat":55.985531,"lon":40.011108},"name":"Sobinka"},{"country":"RU","id":514235,"coord":{"lat":58.633331,"lon":30.433331},"name":"Ostov"},{"country":"RU","id":562449,"coord":{"lat":53.889172,"lon":59.19833},"name":"Forshtadt"},{"country":"RU","id":1508327,"coord":{"lat":56.613201,"lon":61.735401},"name":"Chechulina"},{"country":"RU","id":563316,"coord":{"lat":43.181278,"lon":44.50037},"name":"Farn"},{"country":"RU","id":529222,"coord":{"lat":43.8825,"lon":43.49139},"name":"Mar\u2019inskaya"},{"country":"RU","id":522941,"coord":{"lat":44.666672,"lon":44.916672},"name":"Neftekumsk"},{"country":"RU","id":479343,"coord":{"lat":45.939442,"lon":39.825588},"name":"Ukrainskaya"},{"country":"RU","id":502285,"coord":{"lat":60.186481,"lon":56.458801},"name":"Redikor"},{"country":"RU","id":485119,"coord":{"lat":57.033562,"lon":30.21298},"name":"Sysova"},{"country":"RU","id":518216,"coord":{"lat":57.449188,"lon":33.215858},"name":"Novos\u00ebl"},{"country":"RU","id":2015701,"coord":{"lat":56.34444,"lon":114.87944},"name":"Taksimo"},{"country":"RU","id":566181,"coord":{"lat":45.217819,"lon":39.228329},"name":"Dinskaya"},{"country":"RU","id":570004,"coord":{"lat":54.069839,"lon":46.447182},"name":"Chamzinka"},{"country":"RU","id":514706,"coord":{"lat":57.282879,"lon":55.456692},"name":"Osa"},{"country":"RU","id":580846,"coord":{"lat":56.166672,"lon":49.916672},"name":"Arskiy Rayon"},{"country":"RU","id":580850,"coord":{"lat":56.091511,"lon":49.877831},"name":"Arsk"},{"country":"RU","id":502540,"coord":{"lat":54.0658,"lon":54.9468},"name":"Rayevskiy"},{"country":"RU","id":582385,"coord":{"lat":54.066669,"lon":54.933331},"name":"Al\u2019sheyevo"},{"country":"RU","id":567291,"coord":{"lat":44.376389,"lon":40.020828},"name":"Dagestanskaya"},{"country":"RU","id":797854,"coord":{"lat":49.845001,"lon":43.786942},"name":"Zelenovskiy"},{"country":"RU","id":557544,"coord":{"lat":48.314251,"lon":41.166328},"name":"Ignatenko"},{"country":"RU","id":495397,"coord":{"lat":55.986938,"lon":38.524441},"name":"Shchekavtsevo"},{"country":"RU","id":2020838,"coord":{"lat":60.725281,"lon":114.92778},"name":"Lensk"},{"country":"RU","id":2023731,"coord":{"lat":56.977001,"lon":103.624001},"name":"Igirma"},{"country":"RU","id":1494554,"coord":{"lat":63.78833,"lon":65.909172},"name":"Polnovat"},{"country":"RU","id":2021208,"coord":{"lat":55.133331,"lon":112.966667},"name":"Kurort Baunt"},{"country":"RU","id":554233,"coord":{"lat":55.914169,"lon":37.825562},"name":"Korolev"},{"country":"RU","id":544397,"coord":{"lat":61.810558,"lon":51.580559},"name":"Kortkeros"},{"country":"RU","id":528228,"coord":{"lat":56.25,"lon":54.150002},"name":"Mayskiy"},{"country":"RU","id":513378,"coord":{"lat":54.859982,"lon":38.550621},"name":"Ozery"},{"country":"RU","id":486845,"coord":{"lat":56.04409,"lon":35.495251},"name":"Sudislovo"},{"country":"RU","id":470368,"coord":{"lat":59.40778,"lon":30.348061},"name":"Vyritsa"},{"country":"RU","id":527740,"coord":{"lat":55.334301,"lon":41.629501},"name":"Melenki"},{"country":"RU","id":2015833,"coord":{"lat":51.400002,"lon":128.133331},"name":"Svobodnyy"},{"country":"RU","id":830844,"coord":{"lat":54.814999,"lon":58.459171},"name":"Trekhgornyy"},{"country":"RU","id":1503726,"coord":{"lat":66.801392,"lon":65.80806},"name":"Kharp"},{"country":"RU","id":497450,"coord":{"lat":56.787491,"lon":44.49297},"name":"Semenov"},{"country":"RU","id":548392,"coord":{"lat":59.881008,"lon":30.99507},"name":"Kirovsk"},{"country":"RU","id":542463,"coord":{"lat":56.099998,"lon":38.133331},"name":"Krasnoarmeysk"},{"country":"RU","id":1509831,"coord":{"lat":59.815559,"lon":68.806938},"name":"Bolchary"},{"country":"RU","id":1489394,"coord":{"lat":55.276901,"lon":85.616302},"name":"Topki"},{"country":"RU","id":1505933,"coord":{"lat":56.235828,"lon":96.065002},"name":"Ilanskiy"},{"country":"RU","id":1485793,"coord":{"lat":60.878101,"lon":73.687798},"name":"Yugan"},{"country":"RU","id":554946,"coord":{"lat":58.880268,"lon":40.251339},"name":"Ivovets"},{"country":"RU","id":568012,"coord":{"lat":54.576481,"lon":55.376419},"name":"Chishmy"},{"country":"RU","id":567902,"coord":{"lat":56.764721,"lon":43.243328},"name":"Chkalovsk"},{"country":"RU","id":1510639,"coord":{"lat":53.412399,"lon":83.951302},"name":"Bazhevo"},{"country":"RU","id":538508,"coord":{"lat":53.489632,"lon":50.037479},"name":"Kurumoch"},{"country":"RU","id":1499350,"coord":{"lat":56.21389,"lon":87.747223},"name":"Mariinsk"},{"country":"RU","id":8055673,"coord":{"lat":56.398102,"lon":61.912601},"name":"Tokareva"},{"country":"RU","id":817220,"coord":{"lat":55.06739,"lon":37.696381},"name":"Gorki"},{"country":"RU","id":495005,"coord":{"lat":55.06525,"lon":37.719509},"name":"Sh\u00eblkovo"},{"country":"RU","id":814159,"coord":{"lat":55.578331,"lon":33.77417},"name":"Zilovo"},{"country":"RU","id":470653,"coord":{"lat":54.904999,"lon":58.35611},"name":"Vyazovaya"},{"country":"RU","id":584059,"coord":{"lat":60.219501,"lon":30.27388},"name":"Agalatovo"},{"country":"RU","id":524177,"coord":{"lat":53.755562,"lon":49.73222},"name":"Musorka"},{"country":"RU","id":802078,"coord":{"lat":43.042221,"lon":44.222221},"name":"Alagir"},{"country":"RU","id":488852,"coord":{"lat":52.584438,"lon":32.763329},"name":"Starodub"},{"country":"RU","id":548621,"coord":{"lat":53.466671,"lon":51.51667},"name":"Kinel\u2019-Cherkasy"},{"country":"RU","id":576590,"coord":{"lat":52.981998,"lon":49.4333},"name":"Bezenchuk"},{"country":"RU","id":511287,"coord":{"lat":55.59613,"lon":44.544609},"name":"Perevoz"},{"country":"RU","id":463835,"coord":{"lat":55.843761,"lon":48.517841},"name":"Zelenodolsk"},{"country":"RU","id":573471,"coord":{"lat":55.782612,"lon":44.77541},"name":"Bolshoye Murashkino"},{"country":"RU","id":524681,"coord":{"lat":52.71611,"lon":56.624439},"name":"Mrakovo"},{"country":"RU","id":1505991,"coord":{"lat":67.466667,"lon":86.583328},"name":"Igarka"},{"country":"RU","id":539555,"coord":{"lat":55.41333,"lon":42.532501},"name":"Kulebaki"},{"country":"RU","id":516051,"coord":{"lat":53.650002,"lon":52.433331},"name":"Okhotnichiy"},{"country":"RU","id":1498402,"coord":{"lat":59.332218,"lon":66.021393},"name":"Mortka"},{"country":"RU","id":1485286,"coord":{"lat":61.466942,"lon":64.033333},"name":"Zelenoborsk"},{"country":"RU","id":548410,"coord":{"lat":54.06686,"lon":34.299549},"name":"Kirov"},{"country":"RU","id":824070,"coord":{"lat":60.071209,"lon":30.39225},"name":"Bugry"},{"country":"RU","id":539887,"coord":{"lat":54.668159,"lon":38.827122},"name":"Kudinovo"},{"country":"RU","id":505270,"coord":{"lat":54.739052,"lon":20.005529},"name":"Primorsk"},{"country":"RU","id":554894,"coord":{"lat":42.56955,"lon":47.864471},"name":"Izberbash"},{"country":"RU","id":485699,"coord":{"lat":54.939869,"lon":20.154791},"name":"Svetlogorsk"},{"country":"RU","id":517269,"coord":{"lat":52.5396,"lon":31.9275},"name":"Novozybkov"},{"country":"RU","id":2124220,"coord":{"lat":56.066669,"lon":159.866669},"name":"Kozyr\u00ebvsk"},{"country":"RU","id":568595,"coord":{"lat":54.63345,"lon":21.815571},"name":"Chernyakhovsk"},{"country":"RU","id":479487,"coord":{"lat":67.650002,"lon":53.066669},"name":"Ugol\u2019nyy"},{"country":"RU","id":513042,"coord":{"lat":50.049999,"lon":46.883331},"name":"Pallasovka"},{"country":"RU","id":1488253,"coord":{"lat":56.114719,"lon":94.586113},"name":"Zelenogorsk"},{"country":"RU","id":557138,"coord":{"lat":58.57217,"lon":55.696339},"name":"Il\u2019inskiy"},{"country":"RU","id":578091,"coord":{"lat":53.811939,"lon":36.131939},"name":"Belev"},{"country":"RU","id":7594929,"coord":{"lat":55.874699,"lon":53.942902},"name":"Taktalachuk"},{"country":"RU","id":487275,"coord":{"lat":53.263309,"lon":36.555222},"name":"Streletskaya Sloboda"},{"country":"RU","id":1511304,"coord":{"lat":53.131939,"lon":90.52639},"name":"Askiz"},{"country":"RU","id":828218,"coord":{"lat":69.40052,"lon":32.447609},"name":"Zaozersk"},{"country":"RU","id":492112,"coord":{"lat":55.0425,"lon":21.67704},"name":"Slavsk"},{"country":"RU","id":831153,"coord":{"lat":55.599998,"lon":36.98333},"name":"Krasnoznamensk"},{"country":"RU","id":1499428,"coord":{"lat":52.705502,"lon":81.624397},"name":"Mamontovo"},{"country":"RU","id":558312,"coord":{"lat":52.496571,"lon":39.935928},"name":"Gryazi"},{"country":"RU","id":2122574,"coord":{"lat":59.583328,"lon":151.283325},"name":"Ola"},{"country":"RU","id":829032,"coord":{"lat":57.9804,"lon":56.106602},"name":"Kondratovo"},{"country":"RU","id":1511309,"coord":{"lat":56.997898,"lon":86.145203},"name":"Asino"},{"country":"RU","id":2022083,"coord":{"lat":57.785278,"lon":108.111938},"name":"Kirensk"},{"country":"RU","id":811029,"coord":{"lat":49.375771,"lon":40.395088},"name":"Geras\u2019kin"},{"country":"RU","id":1502962,"coord":{"lat":56.887981,"lon":76.697952},"name":"Kolbasa"},{"country":"RU","id":521776,"coord":{"lat":53.718861,"lon":46.071178},"name":"Nikolsk"},{"country":"RU","id":555984,"coord":{"lat":54.416672,"lon":48.26667},"name":"Isheyevka"},{"country":"RU","id":522775,"coord":{"lat":56.221069,"lon":32.777382},"name":"Nelidovo"},{"country":"RU","id":1487074,"coord":{"lat":55.991299,"lon":60.657902},"name":"Vishnevogorsk"},{"country":"RU","id":539794,"coord":{"lat":56.02895,"lon":47.292549},"name":"Kugesi"},{"country":"RU","id":469274,"coord":{"lat":57.904831,"lon":29.30879},"name":"Yamkino"},{"country":"RU","id":2016708,"coord":{"lat":51.849998,"lon":116.033333},"name":"Shilka"},{"country":"RU","id":505043,"coord":{"lat":52.855801,"lon":48.592899},"name":"Privolzh\u2019ye"},{"country":"RU","id":477566,"coord":{"lat":55.950459,"lon":50.287571},"name":"Uyut"},{"country":"RU","id":1490656,"coord":{"lat":55.04583,"lon":65.731392},"name":"Sumki"},{"country":"RU","id":2027052,"coord":{"lat":47.941109,"lon":132.033615},"name":"Bashmak"},{"country":"RU","id":489087,"coord":{"lat":55.649288,"lon":36.331051},"name":"Staraya Ruza"},{"country":"RU","id":553399,"coord":{"lat":48.317791,"lon":40.25948},"name":"Kamensk-Shakhtinskiy"},{"country":"RU","id":538666,"coord":{"lat":54.434029,"lon":50.771011},"name":"Kurmysh"},{"country":"RU","id":539689,"coord":{"lat":56.185501,"lon":50.894402},"name":"Kukmor"},{"country":"RU","id":1491360,"coord":{"lat":54.00333,"lon":90.246674},"name":"Sorsk"},{"country":"RU","id":485906,"coord":{"lat":54.460171,"lon":55.953449},"name":"Suuk-Chishma"},{"country":"RU","id":556464,"coord":{"lat":55.616669,"lon":40.666672},"name":"Imeni Vorovskogo"},{"country":"RU","id":579574,"coord":{"lat":43.688061,"lon":43.536942},"name":"Baksan"},{"country":"RU","id":486048,"coord":{"lat":53.07542,"lon":45.684608},"name":"Sursk"},{"country":"RU","id":1497951,"coord":{"lat":56.00639,"lon":90.391388},"name":"Nazarovo"},{"country":"RU","id":499727,"coord":{"lat":56,"lon":37.25},"name":"Rzhavki"},{"country":"RU","id":1543743,"coord":{"lat":55.762959,"lon":69.625572},"name":"Chelyuskintsev"},{"country":"RU","id":2019026,"coord":{"lat":52.333328,"lon":129.916672},"name":"Norsk"},{"country":"RU","id":543873,"coord":{"lat":44.518059,"lon":40.58889},"name":"Kostromskaya"},{"country":"RU","id":500756,"coord":{"lat":54.76384,"lon":31.42215},"name":"Rudaki"},{"country":"RU","id":2123278,"coord":{"lat":54.716671,"lon":158.616669},"name":"Mil\u2019kovo"},{"country":"RU","id":2122389,"coord":{"lat":59.235279,"lon":163.071945},"name":"Ossora"},{"country":"RU","id":2120612,"coord":{"lat":57.799999,"lon":158.666672},"name":"Tigil"},{"country":"RU","id":529409,"coord":{"lat":47.07,"lon":42.602699},"name":"Marchenkov"},{"country":"RU","id":498356,"coord":{"lat":47.488331,"lon":39.464169},"name":"Savchenko"},{"country":"RU","id":2120063,"coord":{"lat":52.82333,"lon":156.278336},"name":"Ust\u2019-Bol\u2019sheretsk"},{"country":"RU","id":2122262,"coord":{"lat":59.116669,"lon":159.966675},"name":"Palana"},{"country":"RU","id":2125166,"coord":{"lat":58.564999,"lon":162.297226},"name":"Ivashka"},{"country":"RU","id":2120059,"coord":{"lat":56.236671,"lon":162.51889},"name":"Ust\u2019-Kamchatsk"},{"country":"RU","id":2120591,"coord":{"lat":60.466671,"lon":166.100006},"name":"Tilichiki"},{"country":"RU","id":581186,"coord":{"lat":55.24205,"lon":43.096989},"name":"Ardatov"},{"country":"RU","id":490069,"coord":{"lat":53.93602,"lon":37.627739},"name":"Sovetsk"},{"country":"RU","id":544427,"coord":{"lat":58.208858,"lon":49.286259},"name":"Korshik"},{"country":"RU","id":553518,"coord":{"lat":60.95451,"lon":29.133909},"name":"Kamennogorsk"},{"country":"RU","id":2028078,"coord":{"lat":51.099998,"lon":114.529999},"name":"Aginskoye"},{"country":"RU","id":2025197,"coord":{"lat":49.167801,"lon":136.472595},"name":"Dada"},{"country":"RU","id":1511275,"coord":{"lat":56.804379,"lon":74.640099},"name":"Atak"},{"country":"RU","id":502882,"coord":{"lat":53.30386,"lon":44.7351},"name":"Ramzay"},{"country":"RU","id":493163,"coord":{"lat":57.829479,"lon":41.892689},"name":"Sorozh"},{"country":"RU","id":583803,"coord":{"lat":51.6101,"lon":44.38105},"name":"Akhtuba"},{"country":"RU","id":1502429,"coord":{"lat":55.365601,"lon":61.179699},"name":"Kasargi"},{"country":"RU","id":563395,"coord":{"lat":43.919441,"lon":43.048328},"name":"Etoka"},{"country":"RU","id":6609681,"coord":{"lat":56.289169,"lon":42.941181},"name":"Deva"},{"country":"RU","id":584279,"coord":{"lat":51.522301,"lon":59.939602},"name":"Adamovka"},{"country":"RU","id":579266,"coord":{"lat":58.161701,"lon":59.6991},"name":"Baranchinskiy"},{"country":"RU","id":572295,"coord":{"lat":52.540409,"lon":33.773472},"name":"Trubchevsk"},{"country":"RU","id":1493110,"coord":{"lat":56.747501,"lon":84.699173},"name":"Samus"},{"country":"RU","id":2122493,"coord":{"lat":62.533329,"lon":155.800003},"name":"Omsukchan"},{"country":"RU","id":514259,"coord":{"lat":57.146671,"lon":33.107529},"name":"Ostashkov"},{"country":"RU","id":544514,"coord":{"lat":57.945278,"lon":38.950611},"name":"Korovinskoye"},{"country":"RU","id":546494,"coord":{"lat":51.870781,"lon":44.115761},"name":"Koleno"},{"country":"RU","id":561762,"coord":{"lat":57.301849,"lon":39.85331},"name":"Gavrilov-Yam"},{"country":"RU","id":1511329,"coord":{"lat":57.755741,"lon":61.396721},"name":"Asbestovskiy"},{"country":"RU","id":569934,"coord":{"lat":53.243191,"lon":39.962879},"name":"Chaplygin"},{"country":"RU","id":495562,"coord":{"lat":55.18874,"lon":44.124859},"name":"Shatki"},{"country":"RU","id":516762,"coord":{"lat":56.099998,"lon":36.51667},"name":"Nudol\u2019"},{"country":"RU","id":517921,"coord":{"lat":56.34634,"lon":30.15778},"name":"Novosokolniki"},{"country":"RU","id":2126199,"coord":{"lat":68.75,"lon":161.300003},"name":"Cherskiy"},{"country":"RU","id":531898,"coord":{"lat":47.650002,"lon":40.200001},"name":"Maksimovo-Novogrushevskiy"},{"country":"RU","id":575364,"coord":{"lat":53.443329,"lon":36.00444},"name":"Bolkhov"},{"country":"RU","id":7459175,"coord":{"lat":53.499401,"lon":87.2752},"name":"Verkhniy Kaltan"},{"country":"RU","id":2017059,"coord":{"lat":52.00639,"lon":106.864723},"name":"Selenginsk"},{"country":"RU","id":499298,"coord":{"lat":55.622051,"lon":37.43438},"name":"Salar\u2019y\u00ebvo"},{"country":"RU","id":557024,"coord":{"lat":52.901669,"lon":48.755829},"name":"Il\u2019men\u2019"},{"country":"RU","id":548658,"coord":{"lat":53.971642,"lon":38.53186},"name":"Kimovsk"},{"country":"RU","id":525722,"coord":{"lat":47.33604,"lon":38.784801},"name":"Mokrosarmatka"},{"country":"RU","id":480461,"coord":{"lat":60.743778,"lon":34.89402},"name":"Tumazy"},{"country":"RU","id":583341,"coord":{"lat":46.788502,"lon":38.981258},"name":"Aleksandrovka"},{"country":"RU","id":566512,"coord":{"lat":58.270901,"lon":34.282478},"name":"Dereva"},{"country":"RU","id":485639,"coord":{"lat":61.112129,"lon":28.863211},"name":"Svetogorsk"},{"country":"RU","id":526357,"coord":{"lat":53.549999,"lon":50.216671},"name":"Mirnyy"},{"country":"RU","id":523859,"coord":{"lat":57.78973,"lon":38.454479},"name":"Myshkin"},{"country":"RU","id":522410,"coord":{"lat":56.020939,"lon":29.92844},"name":"Nevel"},{"country":"RU","id":580182,"coord":{"lat":62.224812,"lon":49.992222},"name":"Aykino"},{"country":"RU","id":531426,"coord":{"lat":56.55666,"lon":53.004341},"name":"Malaya Purga"},{"country":"RU","id":1490256,"coord":{"lat":69.486504,"lon":88.397202},"name":"Talnakh"},{"country":"RU","id":495940,"coord":{"lat":43.166672,"lon":45.916672},"name":"Shalinskiy Rayon"},{"country":"RU","id":580218,"coord":{"lat":43.16,"lon":46},"name":"Avtury"},{"country":"RU","id":558118,"coord":{"lat":43.356941,"lon":46.105282},"name":"Gudermes"},{"country":"RU","id":1508138,"coord":{"lat":54.154999,"lon":74.805496},"name":"Cherlak"},{"country":"RU","id":581179,"coord":{"lat":43.169998,"lon":44.290001},"name":"Ardon"},{"country":"RU","id":582533,"coord":{"lat":55.73827,"lon":46.754929},"name":"Alikovo"},{"country":"RU","id":486186,"coord":{"lat":62.083328,"lon":32.349998},"name":"Suoyarvi"},{"country":"RU","id":6610927,"coord":{"lat":52.033329,"lon":85.890556},"name":"Podgornyy"},{"country":"RU","id":469083,"coord":{"lat":62.11467,"lon":34.27562},"name":"Yanishpole"},{"country":"RU","id":475881,"coord":{"lat":54.355331,"lon":38.268429},"name":"Venev"},{"country":"RU","id":551794,"coord":{"lat":54.753059,"lon":58.19556},"name":"Katav-Ivanovsk"},{"country":"RU","id":570455,"coord":{"lat":54.583328,"lon":54.549999},"name":"Buzdyak"},{"country":"RU","id":477034,"coord":{"lat":47.283051,"lon":39.022221},"name":"Varenovka"},{"country":"RU","id":465726,"coord":{"lat":52.3904,"lon":38.926102},"name":"Zadonsk"},{"country":"RU","id":2025099,"coord":{"lat":49.933331,"lon":116.866669},"name":"Dauriya"},{"country":"RU","id":516647,"coord":{"lat":61.669029,"lon":40.19907},"name":"Nyandoma"},{"country":"RU","id":2022289,"coord":{"lat":44.426109,"lon":132.072495},"name":"Khorol"},{"country":"RU","id":577450,"coord":{"lat":55.1619,"lon":59.1464},"name":"Berdyaush"},{"country":"RU","id":1485997,"coord":{"lat":58.449718,"lon":92.17028},"name":"Yeniseysk"},{"country":"RU","id":1493378,"coord":{"lat":56.003479,"lon":78.925438},"name":"Ryazansk"},{"country":"RU","id":536765,"coord":{"lat":54.479919,"lon":46.899681},"name":"Lava"},{"country":"RU","id":1509853,"coord":{"lat":56.171669,"lon":89.586113},"name":"Bogotol"},{"country":"RU","id":487318,"coord":{"lat":50.464298,"lon":43.0261},"name":"Strakhovskiy"},{"country":"RU","id":2020734,"coord":{"lat":42.869171,"lon":132.676392},"name":"Livadiya"},{"country":"RU","id":2024261,"coord":{"lat":52.466671,"lon":130.716675},"name":"Fevral\u2019sk"},{"country":"RU","id":2017487,"coord":{"lat":49.783798,"lon":129.412094},"name":"Raychikhinsk"},{"country":"RU","id":6607360,"coord":{"lat":56.213879,"lon":43.00798},"name":"Chernukha"},{"country":"RU","id":541404,"coord":{"lat":47.892208,"lon":40.07037},"name":"Krasnyy Sulin"},{"country":"RU","id":542776,"coord":{"lat":55.8703,"lon":41.764099},"name":"Krasnaya Gorbatka"},{"country":"RU","id":558066,"coord":{"lat":45.353828,"lon":40.694649},"name":"Gulkevichi"},{"country":"RU","id":538138,"coord":{"lat":51.4781,"lon":57.355202},"name":"Kuvandyk"},{"country":"RU","id":525280,"coord":{"lat":55.964298,"lon":46.7743},"name":"Morgaushi"},{"country":"RU","id":534856,"coord":{"lat":59.423328,"lon":30.684719},"name":"Lisino-Korpus"},{"country":"RU","id":578152,"coord":{"lat":58.84,"lon":50.852779},"name":"Belaya Kholunitsa"},{"country":"RU","id":1488708,"coord":{"lat":55.306751,"lon":79.680161},"name":"Ubinskoye"},{"country":"RU","id":579738,"coord":{"lat":54.9417,"lon":58.8083},"name":"Bakal"},{"country":"RU","id":570990,"coord":{"lat":54.950001,"lon":49.066669},"name":"Bolgar"},{"country":"RU","id":2023782,"coord":{"lat":51.283329,"lon":106.5},"name":"Gusinoozersk"},{"country":"RU","id":7596769,"coord":{"lat":55.067699,"lon":74.508598},"name":"Arkhangelka"},{"country":"RU","id":1493224,"coord":{"lat":54.231201,"lon":85.797203},"name":"Salair"},{"country":"RU","id":482042,"coord":{"lat":56.497791,"lon":31.635281},"name":"Toropets"},{"country":"RU","id":571721,"coord":{"lat":52.30706,"lon":38.336399},"name":"Bratovshchina"},{"country":"RU","id":463144,"coord":{"lat":62.073139,"lon":49.573349},"name":"Zheshart"},{"country":"RU","id":469050,"coord":{"lat":55.52103,"lon":47.77927},"name":"Yantikovo"},{"country":"RU","id":577653,"coord":{"lat":55.94083,"lon":37.663891},"name":"Belyaninovo"},{"country":"RU","id":514198,"coord":{"lat":50.866402,"lon":39.075619},"name":"Ostrogozhsk"},{"country":"RU","id":468657,"coord":{"lat":51.033298,"lon":59.874199},"name":"Yasnyy"},{"country":"RU","id":517100,"coord":{"lat":55.535019,"lon":31.148199},"name":"Novyye Nivy"},{"country":"RU","id":496561,"coord":{"lat":56.933331,"lon":49.15361},"name":"Sernur"},{"country":"RU","id":502793,"coord":{"lat":52.671391,"lon":41.903332},"name":"Rasskazovo"},{"country":"RU","id":578639,"coord":{"lat":54.25,"lon":53.25},"name":"Bavlinskiy Rayon"},{"country":"RU","id":578638,"coord":{"lat":54.39304,"lon":53.260231},"name":"Bavly"},{"country":"RU","id":478565,"coord":{"lat":54.598122,"lon":53.463131},"name":"Urussu"},{"country":"RU","id":523662,"coord":{"lat":63.866669,"lon":34.316669},"name":"Nadvoitsy"},{"country":"RU","id":512817,"coord":{"lat":58.500038,"lon":31.1999},"name":"Pankovka"},{"country":"RU","id":516400,"coord":{"lat":51.209808,"lon":36.27919},"name":"Oboyan"},{"country":"RU","id":463824,"coord":{"lat":44.40694,"lon":43.880562},"name":"Zelenokumsk"},{"country":"RU","id":501579,"coord":{"lat":45.731171,"lon":38.739601},"name":"Rogovskaya"},{"country":"RU","id":488635,"coord":{"lat":46.6311,"lon":38.674198},"name":"Staroshcherbinovskaya"},{"country":"RU","id":519611,"coord":{"lat":54.150002,"lon":49.75},"name":"Novaya Mayna"},{"country":"RU","id":2018946,"coord":{"lat":51.682899,"lon":108.714302},"name":"Novoil\u2019insk"},{"country":"RU","id":569797,"coord":{"lat":55.618061,"lon":36.864441},"name":"Chastsy"},{"country":"RU","id":461699,"coord":{"lat":54.353691,"lon":41.919861},"name":"Sasovo"},{"country":"RU","id":468991,"coord":{"lat":63.435429,"lon":53.5765},"name":"Yarega"},{"country":"RU","id":472428,"coord":{"lat":50.4827,"lon":37.8563},"name":"Volokonovka"},{"country":"RU","id":543133,"coord":{"lat":55.842838,"lon":48.249199},"name":"Kozlovka"},{"country":"RU","id":468560,"coord":{"lat":59.33033,"lon":57.26408},"name":"Yayva"},{"country":"RU","id":474821,"coord":{"lat":57.373299,"lon":59.955601},"name":"Verkhniy Tagil"},{"country":"RU","id":538368,"coord":{"lat":55.105,"lon":55.35083},"name":"Kushnarenkovo"},{"country":"RU","id":473788,"coord":{"lat":57.212761,"lon":41.930119},"name":"Vichuga"},{"country":"RU","id":579496,"coord":{"lat":56.505878,"lon":38.843239},"name":"Balakirevo"},{"country":"RU","id":492944,"coord":{"lat":54.993,"lon":57.6982},"name":"Sim"},{"country":"RU","id":484180,"coord":{"lat":52.859138,"lon":41.49155},"name":"Tatanovo"},{"country":"RU","id":1507636,"coord":{"lat":56.081501,"lon":99.634201},"name":"Chunskiy"},{"country":"RU","id":584484,"coord":{"lat":55.875381,"lon":50.746792},"name":"Abdi"},{"country":"RU","id":1491999,"coord":{"lat":55.226109,"lon":63.296108},"name":"Shumikha"},{"country":"RU","id":2026777,"coord":{"lat":56.5807,"lon":124.768097},"name":"Berkakit"},{"country":"RU","id":7080233,"coord":{"lat":56.83831,"lon":28.265421},"name":"Stankeyevo"},{"country":"RU","id":2018735,"coord":{"lat":63.284168,"lon":118.33194},"name":"Nyurba"},{"country":"RU","id":1486321,"coord":{"lat":66.833328,"lon":70.833328},"name":"Yar-Sale"},{"country":"RU","id":469181,"coord":{"lat":55.75,"lon":53.683331},"name":"Yanaul"},{"country":"RU","id":506763,"coord":{"lat":69.198891,"lon":33.447781},"name":"Polyarnyy"},{"country":"RU","id":529709,"coord":{"lat":55.71524,"lon":51.40797},"name":"Mamadysh"},{"country":"RU","id":829144,"coord":{"lat":57.688549,"lon":58.63118},"name":"Rassolenki"},{"country":"RU","id":1536757,"coord":{"lat":62.520561,"lon":65.59639},"name":"Priobye"},{"country":"RU","id":2055166,"coord":{"lat":54.108799,"lon":102.164803},"name":"Sayansk"},{"country":"RU","id":7752092,"coord":{"lat":49.789902,"lon":43.431198},"name":"Shkol\u2019nyy"},{"country":"RU","id":1486551,"coord":{"lat":55.501671,"lon":90.263062},"name":"Yaga"},{"country":"RU","id":2017452,"coord":{"lat":44.168331,"lon":132.766937},"name":"Rettikhovka"},{"country":"RU","id":511866,"coord":{"lat":58.886189,"lon":41.458858},"name":"Pechenga"},{"country":"RU","id":505259,"coord":{"lat":46.049702,"lon":38.174702},"name":"Primorsko-Akhtarsk"},{"country":"RU","id":2020013,"coord":{"lat":43.930279,"lon":132.022781},"name":"Mikhaylovka"},{"country":"RU","id":2019819,"coord":{"lat":44.193062,"lon":132.497223},"name":"Monastyrishche"},{"country":"RU","id":554410,"coord":{"lat":50.4258,"lon":41.0261},"name":"Kalach"},{"country":"RU","id":796721,"coord":{"lat":43.187038,"lon":46.97134},"name":"Stal\u2019skoye"},{"country":"RU","id":575728,"coord":{"lat":56.010201,"lon":50.448299},"name":"Bogatyye Saby"},{"country":"RU","id":482443,"coord":{"lat":60.153229,"lon":30.51646},"name":"Toksovo"},{"country":"RU","id":812136,"coord":{"lat":55.420559,"lon":35.66333},"name":"Ryabinki"},{"country":"RU","id":2013392,"coord":{"lat":63.75528,"lon":121.624718},"name":"Vilyuysk"},{"country":"RU","id":550949,"coord":{"lat":57.583611,"lon":37.292221},"name":"Kesova Gora"},{"country":"RU","id":553248,"coord":{"lat":46.109951,"lon":48.073639},"name":"Kamyzyak"},{"country":"RU","id":558418,"coord":{"lat":43.308331,"lon":45.700279},"name":"Groznyy"},{"country":"RU","id":2013865,"coord":{"lat":54.174198,"lon":103.030403},"name":"Ust-Uda"},{"country":"RU","id":2127282,"coord":{"lat":50.897499,"lon":142.156113},"name":"Aleksandrovsk-Sakhalinskiy"},{"country":"RU","id":478689,"coord":{"lat":55.67894,"lon":47.943958},"name":"Urmary"},{"country":"RU","id":482390,"coord":{"lat":58.85973,"lon":29.91091},"name":"Tolmachevo"},{"country":"RU","id":566635,"coord":{"lat":60.351109,"lon":47.084171},"name":"Demyanovo"},{"country":"RU","id":1511368,"coord":{"lat":57.355499,"lon":61.868649},"name":"Artemovskiy"},{"country":"RU","id":1487882,"coord":{"lat":55.303612,"lon":89.833893},"name":"Uzhur"},{"country":"RU","id":1491953,"coord":{"lat":53.325001,"lon":91.935562},"name":"Shushenskoye"},{"country":"RU","id":1501141,"coord":{"lat":55.447529,"lon":78.321808},"name":"Kuybyshev"},{"country":"RU","id":1495586,"coord":{"lat":58.697781,"lon":81.482498},"name":"Parabel"},{"country":"RU","id":557563,"coord":{"lat":54.832439,"lon":56.41264},"name":"Iglino"},{"country":"RU","id":535088,"coord":{"lat":53.96994,"lon":37.70282},"name":"Lipki"},{"country":"RU","id":575410,"coord":{"lat":59.474049,"lon":33.84853},"name":"Boksitogorsk"},{"country":"RU","id":490171,"coord":{"lat":60.033329,"lon":37.799999},"name":"Sosnovyy Bor"},{"country":"RU","id":532895,"coord":{"lat":54.281719,"lon":45.124939},"name":"Lyambir"},{"country":"RU","id":502078,"coord":{"lat":56.218891,"lon":43.29361},"name":"Reshetikha"},{"country":"RU","id":525138,"coord":{"lat":53.443539,"lon":41.81065},"name":"Morshansk"},{"country":"RU","id":566243,"coord":{"lat":43.158058,"lon":44.15694},"name":"Digora"},{"country":"RU","id":478544,"coord":{"lat":50.804699,"lon":42.013802},"name":"Uryupinsk"},{"country":"RU","id":547591,"coord":{"lat":52.380531,"lon":32.192329},"name":"Klimovo"},{"country":"RU","id":577403,"coord":{"lat":48.625408,"lon":44.04491},"name":"Bereslavka"},{"country":"RU","id":550478,"coord":{"lat":43.25,"lon":46.588058},"name":"Khasavyurt"},{"country":"RU","id":529195,"coord":{"lat":56.789459,"lon":49.623482},"name":"Mari-Turek"},{"country":"RU","id":552951,"coord":{"lat":43.303612,"lon":44.896389},"name":"Karabulak"},{"country":"RU","id":2017215,"coord":{"lat":63.924171,"lon":127.473892},"name":"Sangar"},{"country":"RU","id":695019,"coord":{"lat":51.565498,"lon":34.682201},"name":"Rylsk"},{"country":"RU","id":584051,"coord":{"lat":53.297298,"lon":59.1348},"name":"Agapovka"},{"country":"RU","id":497242,"coord":{"lat":57.304611,"lon":39.53688},"name":"Semibratovo"},{"country":"RU","id":1506073,"coord":{"lat":54.283329,"lon":85.933327},"name":"Guryevsk"},{"country":"RU","id":469396,"coord":{"lat":55.163151,"lon":48.0014},"name":"Yal\u2019chiki"},{"country":"RU","id":568765,"coord":{"lat":56.299999,"lon":43.349998},"name":"Chernorechenskiye Dvoriki"},{"country":"RU","id":527237,"coord":{"lat":54.146389,"lon":59.373611},"name":"Mezhoz\u00ebrnyy"},{"country":"RU","id":574929,"coord":{"lat":58.059719,"lon":59.92778},"name":"Laya"},{"country":"RU","id":574018,"coord":{"lat":50.349998,"lon":46.916672},"name":"Bol\u2019shiye Prudy"},{"country":"RU","id":577907,"coord":{"lat":60.15118,"lon":30.001511},"name":"Beloostrov"},{"country":"RU","id":1507059,"coord":{"lat":56.598202,"lon":61.095299},"name":"Dvurechensk"},{"country":"RU","id":502306,"coord":{"lat":50.349998,"lon":44.116669},"name":"Rechnoy"},{"country":"RU","id":522301,"coord":{"lat":44.118061,"lon":43.402779},"name":"Nezlobnaya"},{"country":"RU","id":552920,"coord":{"lat":53.122921,"lon":34.985168},"name":"Karachev"},{"country":"RU","id":479724,"coord":{"lat":44.921299,"lon":41.2855},"name":"Ubezhenskaya"},{"country":"RU","id":463217,"coord":{"lat":51.84861,"lon":41.46056},"name":"Zherdevka"},{"country":"RU","id":579760,"coord":{"lat":54.387138,"lon":20.643721},"name":"Bagrationovsk"},{"country":"RU","id":518419,"coord":{"lat":51.362099,"lon":59.032299},"name":"Novoorsk"},{"country":"RU","id":516615,"coord":{"lat":56.053059,"lon":59.602779},"name":"Nyazepetrovsk"},{"country":"RU","id":500721,"coord":{"lat":55.223499,"lon":37.919769},"name":"Rudiny"},{"country":"RU","id":2125742,"coord":{"lat":57.76667,"lon":140.199997},"name":"Enken"},{"country":"RU","id":560660,"coord":{"lat":55.200001,"lon":36.799999},"name":"Golovinka"},{"country":"RU","id":561437,"coord":{"lat":43.040001,"lon":44.570831},"name":"Gizel"},{"country":"RU","id":1502526,"coord":{"lat":55.00264,"lon":74.102814},"name":"Kormilovka"},{"country":"RU","id":1489508,"coord":{"lat":55.235279,"lon":84.385834},"name":"Toguchin"},{"country":"RU","id":502339,"coord":{"lat":58.17889,"lon":33.852501},"name":"Rechka"},{"country":"RU","id":551736,"coord":{"lat":64.3862,"lon":40.629799},"name":"Katunino"},{"country":"RU","id":528137,"coord":{"lat":46.771301,"lon":40.455971},"name":"Mechetinskaya"},{"country":"RU","id":561504,"coord":{"lat":56.474442,"lon":43.541389},"name":"Gidrotorf"},{"country":"RU","id":529315,"coord":{"lat":55.094421,"lon":37.029991},"name":"Marinki"},{"country":"RU","id":497547,"coord":{"lat":57.313202,"lon":52.134499},"name":"Selty"},{"country":"RU","id":2027241,"coord":{"lat":52.533329,"lon":117},"name":"Bagul\u2019nyy"},{"country":"RU","id":554692,"coord":{"lat":54.5369,"lon":56.151699},"name":"Kabakovo"},{"country":"RU","id":580554,"coord":{"lat":56.855968,"lon":56.340858},"name":"Aspa"},{"country":"RU","id":545616,"coord":{"lat":55.797779,"lon":41.910561},"name":"Kondrakovo"},{"country":"RU","id":472271,"coord":{"lat":51.765099,"lon":39.540401},"name":"Volya"},{"country":"RU","id":2025261,"coord":{"lat":56.8479,"lon":124.9104},"name":"Chulman"},{"country":"RU","id":484670,"coord":{"lat":45.2117,"lon":36.716091},"name":"Taman"},{"country":"RU","id":7604746,"coord":{"lat":56.416698,"lon":46.787102},"name":"Paulkino"},{"country":"RU","id":496422,"coord":{"lat":45.346298,"lon":40.205299},"name":"Severin"},{"country":"RU","id":2017705,"coord":{"lat":49.599998,"lon":128.683334},"name":"Poyarkovo"},{"country":"RU","id":2120864,"coord":{"lat":62.783329,"lon":148.166672},"name":"Susuman"},{"country":"RU","id":512570,"coord":{"lat":57.973061,"lon":31.64806},"name":"Parfino"},{"country":"RU","id":570479,"coord":{"lat":42.819,"lon":47.119202},"name":"Buynaksk"},{"country":"RU","id":1501356,"coord":{"lat":53.897499,"lon":92.672501},"name":"Kuragino"},{"country":"RU","id":1510690,"coord":{"lat":51.166672,"lon":94.5},"name":"Bay-Khaak"},{"country":"RU","id":520574,"coord":{"lat":53.530411,"lon":43.67664},"name":"Nizhniy Lomov"},{"country":"RU","id":527370,"coord":{"lat":55.530281,"lon":58.252781},"name":"Mesyagutovo"},{"country":"RU","id":582423,"coord":{"lat":56.187382,"lon":52.479179},"name":"Alnashi"},{"country":"RU","id":567109,"coord":{"lat":53.251549,"lon":39.155529},"name":"Dankov"},{"country":"RU","id":575490,"coord":{"lat":53.25,"lon":39.150002},"name":"Bogoslovka"},{"country":"RU","id":488808,"coord":{"lat":54.533329,"lon":54.049999},"name":"Staryye Kandry"},{"country":"RU","id":2120334,"coord":{"lat":50.845558,"lon":142.654999},"name":"Tymovskoye"},{"country":"RU","id":2023766,"coord":{"lat":42.692501,"lon":130.923065},"name":"Gvozdevo"},{"country":"RU","id":510491,"coord":{"lat":48.91309,"lon":43.804691},"name":"Peskovatka"},{"country":"RU","id":2028051,"coord":{"lat":63.900002,"lon":119.01667},"name":"Akana"},{"country":"RU","id":564684,"coord":{"lat":44.556999,"lon":42.408401},"name":"Dubovaya Balka"},{"country":"RU","id":2015646,"coord":{"lat":53.666672,"lon":124.800003},"name":"Taldan"},{"country":"RU","id":498859,"coord":{"lat":58.197708,"lon":40.968361},"name":"Bol\u2019shaya Sandogora"},{"country":"RU","id":568464,"coord":{"lat":48.06242,"lon":46.109112},"name":"Chernyy Yar"},{"country":"RU","id":478581,"coord":{"lat":43.128609,"lon":45.54306},"name":"Urus-Martan"},{"country":"RU","id":1490042,"coord":{"lat":52.765701,"lon":87.889397},"name":"Tashtagol"},{"country":"RU","id":554535,"coord":{"lat":59.200001,"lon":37.150002},"name":"Kaduy"},{"country":"RU","id":464219,"coord":{"lat":58.362068,"lon":31.100639},"name":"Zaval"},{"country":"RU","id":1499436,"coord":{"lat":54.443432,"lon":78.266907},"name":"Mamon"},{"country":"RU","id":1503896,"coord":{"lat":57.429722,"lon":80.995827},"name":"Kenga"},{"country":"RU","id":551877,"coord":{"lat":63.48167,"lon":39.031071},"name":"Kaska"},{"country":"RU","id":1510603,"coord":{"lat":56.360001,"lon":86.471001},"name":"Beket"},{"country":"RU","id":514127,"coord":{"lat":55.481701,"lon":32.140499},"name":"Ostrovo"},{"country":"RU","id":570508,"coord":{"lat":58.478611,"lon":41.529999},"name":"Buy"},{"country":"RU","id":1490266,"coord":{"lat":53.818298,"lon":83.567703},"name":"Talmenka"},{"country":"RU","id":581126,"coord":{"lat":43.290001,"lon":45.869999},"name":"Argun"},{"country":"RU","id":2017824,"coord":{"lat":61.478062,"lon":129.127213},"name":"Pokrovsk"},{"country":"RU","id":478079,"coord":{"lat":58.005981,"lon":55.67247},"name":"Ust-Kachka"},{"country":"RU","id":515083,"coord":{"lat":43.32111,"lon":45.052219},"name":"Ordzhonikidzevskaya"},{"country":"RU","id":545001,"coord":{"lat":53.916389,"lon":40.013329},"name":"Korablino"},{"country":"RU","id":470905,"coord":{"lat":63.85667,"lon":57.309441},"name":"Vuktyl"},{"country":"RU","id":486834,"coord":{"lat":55.953941,"lon":40.862911},"name":"Sudogda"},{"country":"RU","id":532576,"coord":{"lat":57.450001,"lon":40.566669},"name":"Lyubimovo"},{"country":"RU","id":2121373,"coord":{"lat":62.883331,"lon":152.433334},"name":"Seymchan"},{"country":"RU","id":477418,"coord":{"lat":53.69157,"lon":43.057442},"name":"Vadinsk"},{"country":"RU","id":517878,"coord":{"lat":54.8634,"lon":57.1973},"name":"Novostroy"},{"country":"RU","id":524337,"coord":{"lat":58.618259,"lon":35.546349},"name":"Murav\u2019y\u00ebvo"},{"country":"RU","id":529387,"coord":{"lat":57.31461,"lon":32.080448},"name":"Marevo"},{"country":"RU","id":544667,"coord":{"lat":60.587719,"lon":44.175838},"name":"Korolevskaya"},{"country":"RU","id":578958,"coord":{"lat":47.558842,"lon":45.810711},"name":"Barun"},{"country":"RU","id":797962,"coord":{"lat":48.169998,"lon":41.100281},"name":"Lebedi"},{"country":"RU","id":1503304,"coord":{"lat":56.675251,"lon":65.034897},"name":"Kirsanova"},{"country":"RU","id":796341,"coord":{"lat":48.965061,"lon":40.442501},"name":"Loktev"},{"country":"RU","id":508034,"coord":{"lat":60.91124,"lon":34.170639},"name":"Podporozhye"},{"country":"RU","id":543436,"coord":{"lat":54.038761,"lon":43.91386},"name":"Kovylkino"},{"country":"RU","id":1508802,"coord":{"lat":55.574799,"lon":62.082001},"name":"Brodokalmak"},{"country":"RU","id":495918,"coord":{"lat":43.532501,"lon":43.566109},"name":"Shalushka"},{"country":"RU","id":2016735,"coord":{"lat":50.566669,"lon":116.25},"name":"Sherlovaya Gora"},{"country":"RU","id":466106,"coord":{"lat":43.943062,"lon":42.971111},"name":"Yutsa"},{"country":"RU","id":547681,"coord":{"lat":53.389671,"lon":33.21714},"name":"Kletnya"},{"country":"RU","id":518912,"coord":{"lat":55.63052,"lon":34.284229},"name":"Novodugino"},{"country":"RU","id":1493554,"coord":{"lat":54.700001,"lon":73.033333},"name":"Roshchino"},{"country":"RU","id":1501795,"coord":{"lat":57.34306,"lon":83.926109},"name":"Krivosheino"},{"country":"RU","id":493328,"coord":{"lat":57.152248,"lon":39.289108},"name":"Shurskol"},{"country":"RU","id":568587,"coord":{"lat":50.940948,"lon":37.806931},"name":"Chernyanka"},{"country":"RU","id":499099,"coord":{"lat":53.200001,"lon":50.150002},"name":"Samara"},{"country":"RU","id":506142,"coord":{"lat":58.700001,"lon":31.75},"name":"Posad"},{"country":"RU","id":476231,"coord":{"lat":47.581089,"lon":41.145889},"name":"Vedernikov"},{"country":"RU","id":6268222,"coord":{"lat":59.348061,"lon":30.086109},"name":"Belogorka"},{"country":"RU","id":1508916,"coord":{"lat":57.59396,"lon":64.030457},"name":"Borovikova"},{"country":"RU","id":2021644,"coord":{"lat":42.711391,"lon":130.779434},"name":"Kraskino"},{"country":"RU","id":2012646,"coord":{"lat":42.630001,"lon":131.092224},"name":"Zarubino"},{"country":"RU","id":2027142,"coord":{"lat":43.200001,"lon":131.483337},"name":"Barabash"},{"country":"RU","id":492397,"coord":{"lat":53.322632,"lon":50.737389},"name":"Skolkovo"},{"country":"RU","id":470437,"coord":{"lat":61.622829,"lon":50.757301},"name":"Vyl\u2019gort"},{"country":"RU","id":483645,"coord":{"lat":44.325829,"lon":38.783329},"name":"Tenginka"},{"country":"RU","id":551145,"coord":{"lat":64.95546,"lon":34.579288},"name":"Kem"},{"country":"RU","id":474462,"coord":{"lat":58.35944,"lon":59.817501},"name":"Verkhnyaya Tura"},{"country":"RU","id":1512019,"coord":{"lat":66.560562,"lon":67.797501},"name":"Aksarka"},{"country":"RU","id":550924,"coord":{"lat":53.159611,"lon":43.890732},"name":"Kevdo-Mel\u2019sitovo"},{"country":"RU","id":490750,"coord":{"lat":58.123871,"lon":30.323771},"name":"Soltsy"},{"country":"RU","id":491019,"coord":{"lat":51.163101,"lon":54.99176},"name":"Sol-Iletsk"},{"country":"RU","id":527869,"coord":{"lat":54.96917,"lon":35.858608},"name":"Medyn"},{"country":"RU","id":542160,"coord":{"lat":50.3297,"lon":41.963799},"name":"Krasnovskiy"},{"country":"RU","id":2025917,"coord":{"lat":49.813301,"lon":129.813095},"name":"Bureya"},{"country":"RU","id":2014078,"coord":{"lat":54.049999,"lon":122.900002},"name":"Urusha"},{"country":"RU","id":1491525,"coord":{"lat":55.209301,"lon":83.319},"name":"Sokur"},{"country":"RU","id":464790,"coord":{"lat":69.415413,"lon":30.813551},"name":"Zapolyarnyy"},{"country":"RU","id":552924,"coord":{"lat":43.773991,"lon":41.914188},"name":"Karachayevsk"},{"country":"RU","id":478130,"coord":{"lat":44.083401,"lon":41.976299},"name":"Ust-Dzheguta"},{"country":"RU","id":475938,"coord":{"lat":61.070061,"lon":42.098301},"name":"Velsk"},{"country":"RU","id":577856,"coord":{"lat":55.095001,"lon":36.673199},"name":"Belousovo"},{"country":"RU","id":462008,"coord":{"lat":56.175339,"lon":34.589352},"name":"Zubtsov"},{"country":"RU","id":575591,"coord":{"lat":53.77166,"lon":38.124081},"name":"Bogoroditsk"},{"country":"RU","id":556885,"coord":{"lat":67.848869,"lon":33.2603},"name":"Imandra"},{"country":"RU","id":805542,"coord":{"lat":43.850948,"lon":39.413078},"name":"Katkova Shchel\u2019"},{"country":"RU","id":561849,"coord":{"lat":56.25,"lon":37.400002},"name":"Gavrilkovo"},{"country":"RU","id":473522,"coord":{"lat":44.08083,"lon":42.965279},"name":"Vinsady"},{"country":"RU","id":484294,"coord":{"lat":47.436668,"lon":40.048611},"name":"Tartarskaya"},{"country":"RU","id":541289,"coord":{"lat":47.520981,"lon":40.079521},"name":"Krasyukovskaya"},{"country":"RU","id":518764,"coord":{"lat":42.393681,"lon":47.98608},"name":"Novokayakent"},{"country":"RU","id":1538802,"coord":{"lat":57.070278,"lon":60.13361},"name":"Pos\u00eblok Tavatuy"},{"country":"RU","id":541844,"coord":{"lat":56.01453,"lon":41.129581},"name":"Krasnyy Bogatyr"},{"country":"RU","id":527581,"coord":{"lat":56.033329,"lon":37.216671},"name":"Mendeleyevo"},{"country":"RU","id":574226,"coord":{"lat":55.820049,"lon":38.645149},"name":"Bol\u2019shiye Dvory"},{"country":"RU","id":544904,"coord":{"lat":55.67194,"lon":38.007778},"name":"Korenevo"},{"country":"RU","id":1501196,"coord":{"lat":55.94833,"lon":93.591667},"name":"Kuskun"},{"country":"RU","id":1504368,"coord":{"lat":61.066669,"lon":73.333328},"name":"Karkatayevy"},{"country":"RU","id":552558,"coord":{"lat":54.89016,"lon":32.43111},"name":"Kardymovo"},{"country":"RU","id":553937,"coord":{"lat":54.316669,"lon":54.099998},"name":"Kal\u2019shali"},{"country":"RU","id":817994,"coord":{"lat":55.435558,"lon":37.647781},"name":"Shcherbinka"},{"country":"RU","id":526736,"coord":{"lat":55.562222,"lon":37.57972},"name":"Sed\u2019moy Mikrorayon"},{"country":"RU","id":521020,"coord":{"lat":56.533329,"lon":37.099998},"name":"Nizhnevo"},{"country":"RU","id":534850,"coord":{"lat":56.773659,"lon":36.35556},"name":"Lisitsy"},{"country":"RU","id":561698,"coord":{"lat":60.307072,"lon":54.32412},"name":"Gayny"},{"country":"RU","id":552887,"coord":{"lat":58.266689,"lon":54.936779},"name":"Karagay"},{"country":"RU","id":574620,"coord":{"lat":57.6688,"lon":54.600971},"name":"Bol\u2019shaya Sosnova"},{"country":"RU","id":516588,"coord":{"lat":60.733002,"lon":56.720242},"name":"Nyrob"},{"country":"RU","id":536291,"coord":{"lat":58.06559,"lon":50.874969},"name":"Lema"},{"country":"RU","id":489248,"coord":{"lat":57.73333,"lon":56.366669},"name":"Staraya Bershet\u2019"},{"country":"RU","id":535160,"coord":{"lat":44.591942,"lon":39.4925},"name":"Lineynaya"},{"country":"RU","id":826558,"coord":{"lat":56.446941,"lon":48.121391},"name":"Surok"},{"country":"RU","id":487444,"coord":{"lat":55.64679,"lon":49.21595},"name":"Stolbishchi"},{"country":"RU","id":1501803,"coord":{"lat":55.0881,"lon":82.655098},"name":"Krivodanovka"},{"country":"RU","id":2013894,"coord":{"lat":52.805,"lon":104.750832},"name":"Ust-Ordynskiy"},{"country":"RU","id":2019488,"coord":{"lat":62.71611,"lon":129.665833},"name":"Namtsy"},{"country":"RU","id":549342,"coord":{"lat":53.339149,"lon":34.11916},"name":"Khotylevo"},{"country":"RU","id":2027296,"coord":{"lat":66,"lon":111.5},"name":"Aykhal"},{"country":"RU","id":505014,"coord":{"lat":53.900002,"lon":53.933331},"name":"Priyutovo"},{"country":"RU","id":1504871,"coord":{"lat":53.788399,"lon":81.3423},"name":"Kamen-na-Obi"},{"country":"RU","id":517303,"coord":{"lat":44.262779,"lon":43.638062},"name":"Novozavedennoye"},{"country":"RU","id":523137,"coord":{"lat":54.1077,"lon":59.008202},"name":"Kaipkulovo"},{"country":"RU","id":1545297,"coord":{"lat":55.157398,"lon":60.7906},"name":"Baygazina"},{"country":"RU","id":537101,"coord":{"lat":56.03957,"lon":43.62434},"name":"Laksha"},{"country":"RU","id":532706,"coord":{"lat":44.106392,"lon":43.275558},"name":"Lysogorskaya"},{"country":"RU","id":1510506,"coord":{"lat":56.937901,"lon":61.585999},"name":"Belokamennyy"},{"country":"RU","id":578634,"coord":{"lat":55.083179,"lon":37.592129},"name":"Bavykino"},{"country":"RU","id":582460,"coord":{"lat":42.983929,"lon":46.578159},"name":"Almak"},{"country":"RU","id":466341,"coord":{"lat":55.883331,"lon":37.616669},"name":"Yurlovo"},{"country":"RU","id":561501,"coord":{"lat":46.506649,"lon":41.34185},"name":"Gigant"},{"country":"RU","id":535126,"coord":{"lat":49.356522,"lon":45.56683},"name":"Lipchenko"},{"country":"RU","id":505109,"coord":{"lat":46.138901,"lon":38.697498},"name":"Privol\u2019naya"},{"country":"RU","id":540721,"coord":{"lat":54.76667,"lon":55.650002},"name":"Kruchinino"},{"country":"RU","id":2027806,"coord":{"lat":53.858002,"lon":120.875},"name":"Amazar"},{"country":"RU","id":545452,"coord":{"lat":58.555099,"lon":36.898121},"name":"Konik"},{"country":"RU","id":480410,"coord":{"lat":57.545891,"lon":40.125431},"name":"Tunoshna"},{"country":"RU","id":552953,"coord":{"lat":42.708698,"lon":47.567348},"name":"Karabudakhkent"},{"country":"RU","id":571808,"coord":{"lat":45.349152,"lon":38.771481},"name":"Boykoponura"},{"country":"RU","id":2013918,"coord":{"lat":60.416672,"lon":134.533325},"name":"Ust-Maya"},{"country":"RU","id":517947,"coord":{"lat":52.973869,"lon":37.040482},"name":"Novosil"},{"country":"ZA","id":7302538,"coord":{"lat":-33.915279,"lon":18.41667},"name":"De Waterkant"},{"country":"ZA","id":965301,"coord":{"lat":-29.616779,"lon":30.39278},"name":"Pietermaritzburg"},{"country":"ZA","id":964349,"coord":{"lat":-26.716669,"lon":27.1},"name":"Potchefstroom"},{"country":"ZA","id":1018725,"coord":{"lat":-29.121059,"lon":26.214001},"name":"Bloemfontein"},{"country":"ZA","id":1002174,"coord":{"lat":-29.14242,"lon":26.20215},"name":"Generaal de Wet"},{"country":"ZA","id":990873,"coord":{"lat":-29.85,"lon":31.01667},"name":"Kingsmead"},{"country":"ZA","id":7870450,"coord":{"lat":-26.05085,"lon":27.963039},"name":"North Riding"},{"country":"ZA","id":993800,"coord":{"lat":-26.202271,"lon":28.043631},"name":"Johannesburg"},{"country":"ZA","id":1017447,"coord":{"lat":-26.69385,"lon":27.79747},"name":"Bophelong"},{"country":"ZA","id":959103,"coord":{"lat":-25.62417,"lon":28.09417},"name":"Rosslyn"},{"country":"ZA","id":1105785,"coord":{"lat":-25.71806,"lon":28.334169},"name":"Denneboom"},{"country":"BW","id":933000,"coord":{"lat":-21.48333,"lon":27.48333},"name":"Tonota"},{"country":"BW","id":933044,"coord":{"lat":-25,"lon":25.75},"name":"South East District"},{"country":"BW","id":933773,"coord":{"lat":-24.65451,"lon":25.90859},"name":"Gaborone"},{"country":"BW","id":1106249,"coord":{"lat":-24.646111,"lon":25.916109},"name":"Madibeng"},{"country":"NE","id":2437732,"coord":{"lat":13.79562,"lon":5.2553},"name":"Birni N Konni"},{"country":"NE","id":2595294,"coord":{"lat":13.52139,"lon":2.10528},"name":"Niamey"},{"country":"NE","id":2440485,"coord":{"lat":13.51366,"lon":2.1098},"name":"Niamey"},{"country":"GA","id":2400553,"coord":{"lat":-1,"lon":11.75},"name":"Gabonese Republic"},{"country":"GH","id":2304116,"coord":{"lat":6.75,"lon":-1.5},"name":"Ashanti Region"},{"country":"GH","id":2298890,"coord":{"lat":6.68848,"lon":-1.62443},"name":"Kumasi"},{"country":"GH","id":2294915,"coord":{"lat":4.88447,"lon":-1.75536},"name":"Takoradi"},{"country":"GH","id":2306104,"coord":{"lat":5.55602,"lon":-0.1969},"name":"Accra"},{"country":"GH","id":2295773,"coord":{"lat":5.55,"lon":-0.2},"name":"Ridge"},{"country":"DZ","id":2491191,"coord":{"lat":33.799999,"lon":2.86514},"name":"Laghouat"},{"country":"DZ","id":2475741,"coord":{"lat":36.75,"lon":4.25},"name":"Wilaya de Tizi Ouzou"},{"country":"DZ","id":2475744,"coord":{"lat":36.711819,"lon":4.04591},"name":"Tizi Ouzou"},{"country":"DZ","id":2498611,"coord":{"lat":36.165249,"lon":1.33452},"name":"Chlef"},{"country":"DZ","id":2503765,"coord":{"lat":36.583328,"lon":3},"name":"Wilaya de Blida"},{"country":"DZ","id":2503769,"coord":{"lat":36.470039,"lon":2.8277},"name":"Blida"},{"country":"DZ","id":2485920,"coord":{"lat":35.666672,"lon":-0.5},"name":"Wilaya d\u2019 Oran"},{"country":"DZ","id":2485926,"coord":{"lat":35.691109,"lon":-0.64167},"name":"Oran"},{"country":"TN","id":2464464,"coord":{"lat":36.76667,"lon":10.13333},"name":"Gouvernorat de Tunis"},{"country":"TN","id":2464470,"coord":{"lat":36.81897,"lon":10.16579},"name":"Tunis"},{"country":"TN","id":2472818,"coord":{"lat":36.799999,"lon":10.18333},"name":"B\u0101b al Jaz\u012brah"},{"country":"MA","id":2597556,"coord":{"lat":35.25,"lon":-5.91667},"name":"R\u00e9gion de Tanger-T\u00e9touan"},{"country":"MA","id":2530333,"coord":{"lat":35.583328,"lon":-5.75},"name":"Tanger-Assilah"},{"country":"MA","id":6546249,"coord":{"lat":35.771309,"lon":-5.80936},"name":"Tanger-Medina"},{"country":"MA","id":2530335,"coord":{"lat":35.780579,"lon":-5.81365},"name":"Tangier"},{"country":"MA","id":7456416,"coord":{"lat":34.025421,"lon":-6.8359},"name":"Medina De Rabat"},{"country":"MA","id":2537405,"coord":{"lat":33.083328,"lon":-7.41667},"name":"Settat"},{"country":"MA","id":6546109,"coord":{"lat":33.011459,"lon":-7.62452},"name":"Settat"},{"country":"MA","id":2537406,"coord":{"lat":33.000702,"lon":-7.62035},"name":"Settat"},{"country":"MA","id":2553603,"coord":{"lat":33.533329,"lon":-7.58333},"name":"R\u00e9gion du Grand Casablanca"},{"country":"MA","id":6547294,"coord":{"lat":33.588402,"lon":-7.55785},"name":"Casablanca"},{"country":"MA","id":2553604,"coord":{"lat":33.592781,"lon":-7.61916},"name":"Casablanca"},{"country":"MA","id":2540482,"coord":{"lat":34.666672,"lon":-2.08333},"name":"Oujda-Angad"},{"country":"MA","id":6545974,"coord":{"lat":34.68288,"lon":-1.9108},"name":"Oujda"},{"country":"MA","id":2540483,"coord":{"lat":34.680519,"lon":-1.90764},"name":"Oujda"},{"country":"MA","id":2542995,"coord":{"lat":31.5,"lon":-8.33333},"name":"R\u00e9gion de Marrakech-Tensift-Al Haouz"},{"country":"MA","id":2551646,"coord":{"lat":31.280001,"lon":-8.86},"name":"Douar Jdida"},{"country":"MA","id":2561655,"coord":{"lat":30.58333,"lon":-9.5},"name":"Agadir-Ida-ou-Tnan"},{"country":"MA","id":6545515,"coord":{"lat":30.42013,"lon":-9.59802},"name":"Agadir"},{"country":"MA","id":2561668,"coord":{"lat":30.420179,"lon":-9.59815},"name":"Agadir"},{"country":"MA","id":6547301,"coord":{"lat":33.647511,"lon":-7.37699},"name":"Mohammedia"},{"country":"MA","id":6546783,"coord":{"lat":33.69474,"lon":-7.38502},"name":"Mohammedia"},{"country":"MA","id":2542051,"coord":{"lat":33.706589,"lon":-7.39442},"name":"Mohammedia"},{"country":"MA","id":2528910,"coord":{"lat":35.571091,"lon":-5.37242},"name":"Tetouan"},{"country":"MA","id":6547285,"coord":{"lat":31.63623,"lon":-8.01041},"name":"Marrakech"},{"country":"MA","id":6546896,"coord":{"lat":31.601669,"lon":-7.99117},"name":"Marrakech-Medina"},{"country":"MA","id":2542997,"coord":{"lat":31.631479,"lon":-8.00828},"name":"Marrakesh"},{"country":"EG","id":360631,"coord":{"lat":30.049999,"lon":31.65},"name":"Mu\u1e29\u0101faz\u0327at al Q\u0101hirah"},{"country":"EG","id":7922173,"coord":{"lat":30.050699,"lon":31.251961},"name":"Al \u2018Atabah"},{"country":"EG","id":361059,"coord":{"lat":31,"lon":29.75},"name":"Mu\u1e29\u0101faz\u0327at al Iskandar\u012byah"},{"country":"EG","id":361058,"coord":{"lat":31.215639,"lon":29.955271},"name":"Alexandria"},{"country":"EG","id":360015,"coord":{"lat":31.200001,"lon":29.91667},"name":"Ash Sh\u0101\u0163ib\u012b"},{"country":"KE","id":184742,"coord":{"lat":-1.28333,"lon":36.833328},"name":"Nairobi Province"},{"country":"KE","id":184745,"coord":{"lat":-1.28333,"lon":36.816669},"name":"Nairobi"},{"country":"KE","id":182361,"coord":{"lat":-4.05052,"lon":39.664902},"name":"Old Mombasa"},{"country":"CM","id":2228079,"coord":{"lat":3.51667,"lon":11.5},"name":"Mbalmayo"},{"country":"CM","id":2229336,"coord":{"lat":4,"lon":10},"name":"Littoral Region"},{"country":"CM","id":2232593,"coord":{"lat":4.04827,"lon":9.70428},"name":"Douala"},{"country":"CM","id":2235748,"coord":{"lat":4.05,"lon":9.7},"name":"Akwa"},{"country":"CM","id":2232239,"coord":{"lat":3.8,"lon":10.13333},"name":"Edea"},{"country":"CM","id":2222934,"coord":{"lat":5.5,"lon":10.5},"name":"West Region"},{"country":"CM","id":2235189,"coord":{"lat":5.47366,"lon":10.41786},"name":"Bafoussam"},{"country":"ZA","id":991415,"coord":{"lat":-26.108589,"lon":28.2377},"name":"Kempton Park"},{"country":"SN","id":2244616,"coord":{"lat":14.63333,"lon":-16.23333},"name":"Tiebo"},{"country":"SN","id":2253350,"coord":{"lat":14.75,"lon":-17.33333},"name":"R\u00e9gion de Dakar"},{"country":"SN","id":2253354,"coord":{"lat":14.6937,"lon":-17.444059},"name":"Dakar"},{"country":"SN","id":2595757,"coord":{"lat":14.67167,"lon":-17.43722},"name":"Central Dakar"},{"country":"ZA","id":1020605,"coord":{"lat":-27.981199,"lon":26.71406},"name":"Bedelia"},{"country":"ZW","id":878549,"coord":{"lat":-20.32674,"lon":30.066481},"name":"Zvishavane"},{"country":"ZW","id":1105844,"coord":{"lat":-17.816669,"lon":31.033331},"name":"Harare Province"},{"country":"ZW","id":890299,"coord":{"lat":-17.82935,"lon":31.05389},"name":"Harare"},{"country":"ZW","id":1106407,"coord":{"lat":-17.81889,"lon":31.03944},"name":"Avenues"},{"country":"NA","id":3352136,"coord":{"lat":-22.55941,"lon":17.083229},"name":"Windhoek"},{"country":"NG","id":2332453,"coord":{"lat":6.58333,"lon":3.75},"name":"Lagos State"},{"country":"NG","id":2332459,"coord":{"lat":6.45306,"lon":3.39583},"name":"Lagos"},{"country":"NG","id":2322794,"coord":{"lat":9.17583,"lon":7.18083},"name":"Suleja"},{"country":"SD","id":379253,"coord":{"lat":15.8,"lon":33},"name":"Khartoum State"},{"country":"SD","id":367935,"coord":{"lat":15.56667,"lon":32.51667},"name":"Rumaylah"},{"country":"ZM","id":909129,"coord":{"lat":-15.41667,"lon":29},"name":"Lusaka Province"},{"country":"ZM","id":909137,"coord":{"lat":-15.40669,"lon":28.28713},"name":"Lusaka"},{"country":"ZA","id":949224,"coord":{"lat":-22.945641,"lon":30.48497},"name":"Thohoyandou"},{"country":"ZA","id":944385,"coord":{"lat":-26.67313,"lon":27.926149},"name":"Vereeniging"},{"country":"ZA","id":6951112,"coord":{"lat":-34.084011,"lon":18.821131},"name":"Somerset West"},{"country":"ZA","id":988886,"coord":{"lat":-29.78529,"lon":30.82325},"name":"Kloof"},{"country":"ZA","id":952200,"coord":{"lat":-34.369301,"lon":21.40748},"name":"Still Bay"},{"country":"ZA","id":952199,"coord":{"lat":-34.36853,"lon":21.42083},"name":"Stilbaai-Oos"},{"country":"TZ","id":161322,"coord":{"lat":-3,"lon":36},"name":"Arusha Region"},{"country":"TZ","id":161325,"coord":{"lat":-3.36667,"lon":36.683331},"name":"Arusha"},{"country":"ZA","id":965289,"coord":{"lat":-23.90448,"lon":29.468849},"name":"Polokwane"},{"country":"SZ","id":934994,"coord":{"lat":-26.25,"lon":31.5},"name":"Manzini District"},{"country":"SZ","id":935085,"coord":{"lat":-26,"lon":31.5},"name":"Hhohho District"},{"country":"SZ","id":934985,"coord":{"lat":-26.316669,"lon":31.133329},"name":"Mbabane"},{"country":"ZA","id":939270,"coord":{"lat":-25.87133,"lon":29.233231},"name":"Witbank"},{"country":"ZA","id":941728,"coord":{"lat":-25.778629,"lon":28.23802},"name":"Waterkloof"},{"country":"ZA","id":974532,"coord":{"lat":-25.806881,"lon":28.22691},"name":"Monument Park"},{"country":"MG","id":1053507,"coord":{"lat":-22.816669,"lon":47.283329},"name":"Vondrozo"},{"country":"MG","id":1058284,"coord":{"lat":-18.91667,"lon":47.51667},"name":"Namontana"},{"country":"MG","id":1083511,"coord":{"lat":-18.91667,"lon":47.51667},"name":"Ambaravarambato"},{"country":"SN","id":2595991,"coord":{"lat":16.00639,"lon":-16.51083},"name":"Fas Di\u00e8ye"},{"country":"SN","id":2595998,"coord":{"lat":16.01722,"lon":-16.497499},"name":"L\u00e9ona"},{"country":"NG","id":2347266,"coord":{"lat":7.33333,"lon":8.75},"name":"Benue State"},{"country":"NG","id":2319268,"coord":{"lat":7.7315,"lon":8.5441},"name":"Walmayo"},{"country":"NG","id":2326171,"coord":{"lat":7.1,"lon":4.83333},"name":"Ondo"},{"country":"MA","id":2544568,"coord":{"lat":34.583328,"lon":-6.33333},"name":"Kenitra"},{"country":"MA","id":6546897,"coord":{"lat":34.26593,"lon":-6.57719},"name":"Kenitra"},{"country":"MA","id":2544571,"coord":{"lat":34.261009,"lon":-6.5802},"name":"Kenitra"},{"country":"NG","id":2324433,"coord":{"lat":4.74974,"lon":6.82766},"name":"Rivers State"},{"country":"NG","id":2591746,"coord":{"lat":4.79071,"lon":7.01174},"name":"Orogbum"},{"country":"ML","id":2460594,"coord":{"lat":12.65,"lon":-8},"name":"District de Bamako"},{"country":"ML","id":2460596,"coord":{"lat":12.65,"lon":-8},"name":"Bamako"},{"country":"DZ","id":2475683,"coord":{"lat":34.666672,"lon":-1.41667},"name":"Wilaya de Tlemcen"},{"country":"DZ","id":2475687,"coord":{"lat":34.87833,"lon":-1.315},"name":"Tlemcen"},{"country":"DZ","id":2490098,"coord":{"lat":35.396641,"lon":0.14027},"name":"Mascara"},{"country":"DZ","id":2482557,"coord":{"lat":34.666672,"lon":0.33333},"name":"Wilaya de Sa\u00efda"},{"country":"DZ","id":2482572,"coord":{"lat":34.830341,"lon":0.15171},"name":"Saida"},{"country":"DZ","id":2483666,"coord":{"lat":35.75,"lon":0.91667},"name":"Wilaya de Relizane"},{"country":"DZ","id":2483668,"coord":{"lat":35.737339,"lon":0.55599},"name":"Relizane"},{"country":"DZ","id":2580216,"coord":{"lat":35.737782,"lon":0.55917},"name":"Village Negre"},{"country":"DZ","id":2476302,"coord":{"lat":27.41667,"lon":-5.83333},"name":"Wilaya de Tindouf"},{"country":"DZ","id":2476301,"coord":{"lat":27.67111,"lon":-8.14744},"name":"Tindouf"},{"country":"DZ","id":2501147,"coord":{"lat":36.333328,"lon":6.66667},"name":"Wilaya de Constantine"},{"country":"DZ","id":2501152,"coord":{"lat":36.365002,"lon":6.61472},"name":"Constantine"},{"country":"DZ","id":2506994,"coord":{"lat":36.833328,"lon":7.58333},"name":"Wilaya d\u2019 Annaba"},{"country":"DZ","id":2506999,"coord":{"lat":36.900002,"lon":7.76667},"name":"Annaba"},{"country":"DZ","id":2505569,"coord":{"lat":35.5,"lon":5.91667},"name":"Wilaya de Batna"},{"country":"DZ","id":2505572,"coord":{"lat":35.555969,"lon":6.17414},"name":"Batna"},{"country":"DZ","id":2479532,"coord":{"lat":36.75,"lon":6.83333},"name":"Wilaya de Skikda"},{"country":"DZ","id":2479536,"coord":{"lat":36.876171,"lon":6.90921},"name":"Skikda"},{"country":"AO","id":2240444,"coord":{"lat":-8.91666,"lon":13.33924},"name":"Luanda Province"},{"country":"AO","id":2240449,"coord":{"lat":-8.83682,"lon":13.23432},"name":"Luanda"},{"country":"TN","id":2464915,"coord":{"lat":35.82539,"lon":10.63699},"name":"Sousse"},{"country":"TN","id":2472770,"coord":{"lat":36.666672,"lon":9.25},"name":"Gouvernorat de B\u00e9ja"},{"country":"TN","id":2472774,"coord":{"lat":36.725639,"lon":9.18169},"name":"Beja"},{"country":"TN","id":2468576,"coord":{"lat":36.666672,"lon":10.66667},"name":"Gouvernorat de Nabeul"},{"country":"TN","id":2468579,"coord":{"lat":36.456059,"lon":10.73763},"name":"Nabeul"},{"country":"TN","id":2467450,"coord":{"lat":34.75,"lon":10.41667},"name":"Gouvernorat de Sfax"},{"country":"TN","id":2467454,"coord":{"lat":34.740559,"lon":10.76028},"name":"Sfax"},{"country":"TN","id":2473449,"coord":{"lat":35.678101,"lon":10.09633},"name":"Kairouan"},{"country":"EG","id":361320,"coord":{"lat":29.30995,"lon":30.841801},"name":"Al Fayyum"},{"country":"SN","id":2243939,"coord":{"lat":12.75,"lon":-16.33333},"name":"R\u00e9gion de Ziguinchor"},{"country":"SN","id":2243940,"coord":{"lat":12.58333,"lon":-16.27194},"name":"Ziguinchor"},{"country":"SN","id":2249781,"coord":{"lat":12.98376,"lon":-14.39729},"name":"R\u00e9gion de Kolda"},{"country":"SN","id":2249782,"coord":{"lat":12.88333,"lon":-14.95},"name":"Kolda"},{"country":"SN","id":2248477,"coord":{"lat":14.42196,"lon":-16.963751},"name":"Mbour"},{"country":"SN","id":2247246,"coord":{"lat":14.34485,"lon":-16.92676},"name":"Nianing"},{"country":"SN","id":2251084,"coord":{"lat":14.16667,"lon":-16.83333},"name":"Joal-Fadiout"},{"country":"SN","id":8133376,"coord":{"lat":14.72389,"lon":-17.48917},"name":"Ouakam"},{"country":"MU","id":934154,"coord":{"lat":-20.16194,"lon":57.49889},"name":"Port Louis"},{"country":"DZ","id":2485794,"coord":{"lat":30.5,"lon":6.16667},"name":"Wilaya de Ouargla"},{"country":"DZ","id":2504552,"coord":{"lat":31.963091,"lon":5.32814},"name":"Beni Thour"},{"country":"DZ","id":2488831,"coord":{"lat":36.083328,"lon":3},"name":"Wilaya de M\u00e9d\u00e9a"},{"country":"DZ","id":2488835,"coord":{"lat":36.264172,"lon":2.75393},"name":"Medea"},{"country":"DZ","id":2500017,"coord":{"lat":34.672791,"lon":3.263},"name":"Djelfa"},{"country":"DZ","id":2505525,"coord":{"lat":30.25,"lon":-3.08333},"name":"Wilaya de B\u00e9char"},{"country":"DZ","id":2505530,"coord":{"lat":31.616671,"lon":-2.21667},"name":"Bechar"},{"country":"ZA","id":7302802,"coord":{"lat":-33.963329,"lon":18.476391},"name":"Rondebosch"},{"country":"CM","id":2232283,"coord":{"lat":2.9,"lon":11.15},"name":"Ebolowa"},{"country":"ZA","id":966196,"coord":{"lat":-26.138639,"lon":28.01737},"name":"Parkhurst"},{"country":"ZA","id":3368538,"coord":{"lat":-34.01915,"lon":18.455721},"name":"Doordrift"},{"country":"MU","id":934166,"coord":{"lat":-20.299999,"lon":57.48333},"name":"Plaines Wilhems District"},{"country":"MU","id":934570,"coord":{"lat":-20.31472,"lon":57.520279},"name":"Curepipe"},{"country":"ZA","id":946973,"coord":{"lat":-23.83322,"lon":30.163509},"name":"Tzaneen"},{"country":"ZA","id":3369157,"coord":{"lat":-33.925838,"lon":18.42322},"name":"Cape Town"},{"country":"ZA","id":3363444,"coord":{"lat":-33.936131,"lon":18.467871},"name":"Observatory"},{"country":"ZA","id":3363901,"coord":{"lat":-33.948021,"lon":18.47333},"name":"Mowbray"},{"country":"ZA","id":971534,"coord":{"lat":-25.47448,"lon":30.970329},"name":"Nelspruit"},{"country":"ZA","id":1020098,"coord":{"lat":-26.18848,"lon":28.32078},"name":"Benoni"},{"country":"ZA","id":958724,"coord":{"lat":-25.667561,"lon":27.242081},"name":"Rustenburg"},{"country":"ZA","id":1015621,"coord":{"lat":-25.634729,"lon":27.78022},"name":"Brits"},{"country":"ZA","id":946165,"coord":{"lat":-29.716669,"lon":31.066669},"name":"Umhlanga"},{"country":"TZ","id":160260,"coord":{"lat":-6.83522,"lon":39.195969},"name":"Dar es Salaam Region"},{"country":"TZ","id":160263,"coord":{"lat":-6.82349,"lon":39.269508},"name":"Dar es Salaam"},{"country":"TZ","id":150173,"coord":{"lat":-6.8,"lon":39.283329},"name":"Sea View"},{"country":"MW","id":923817,"coord":{"lat":-15.5,"lon":35},"name":"Southern Region"},{"country":"MW","id":931754,"coord":{"lat":-15.64732,"lon":34.93956},"name":"Blantyre District"},{"country":"MW","id":931755,"coord":{"lat":-15.78499,"lon":35.008541},"name":"Blantyre"},{"country":"TZ","id":152219,"coord":{"lat":-2.75,"lon":32.75},"name":"Mwanza Region"},{"country":"TZ","id":152224,"coord":{"lat":-2.51667,"lon":32.900002},"name":"Mwanza"},{"country":"TZ","id":149606,"coord":{"lat":-5.06667,"lon":39.099998},"name":"Tanga"},{"country":"MU","id":934212,"coord":{"lat":-20.095831,"lon":57.559719},"name":"Pamplemousses District"},{"country":"MU","id":933959,"coord":{"lat":-20.05472,"lon":57.54528},"name":"Triolet"},{"country":"MU","id":934765,"coord":{"lat":-20.21944,"lon":57.458328},"name":"Beau Bassin"},{"country":"MU","id":933945,"coord":{"lat":-20.298059,"lon":57.478329},